     2.11           OBSERVATION DATA    G (GPS)             RINEX VERSION / TYPE
teqc  2015Nov6      NGS Web User        20160201 21:29:49UTCPGM / RUN BY / DATE
Solaris x86 5.10|AMD64|cc SC5.8 -xarch=amd64|=+|=+          COMMENT
teqc  2015Nov6      NOAA/NOS/NGS/CORS   20160102 10:54:45UTCCOMMENT
teqc  2015Nov6      UNAVCO Archive Ops  20160102 03:53:16UTCCOMMENT
BIT 2 OF LLI FLAGS DATA COLLECTED UNDER A/S CONDITION       COMMENT
input file: seat201601010000.bnx                            COMMENT
RINEX file created by UNAVCO GPS Archive.                   COMMENT
For more information contact archive@unavco.org             COMMENT
Monument ID: 18010                                          COMMENT
UNAVCO 4-char name:   SEAT                                  COMMENT
4-char name from Log or data file: SEAT                     COMMENT
Monument location: 47.653977 -122.309476 44.2292            COMMENT
Visit ID: 101410                                            COMMENT
End of DB comments                                          COMMENT
 SNR is mapped to RINEX snr flag value [0-9]                COMMENT
  L1 & L2: min(max(int(snr_dBHz/6), 0), 9)                  COMMENT
teqc edited: all SBAS satellites excluded                   COMMENT
teqc edited: all Compass satellites excluded                COMMENT
teqc edited: all QZSS satellites excluded                   COMMENT
SEAT                                                        MARKER NAME
40457M002                                                   MARKER NUMBER
UW                  University of Washington                OBSERVER / AGENCY
4552261579          TRIMBLE NETRS       1.3-0               REC # / TYPE / VERS
0220061145          TRM29659.00     UNAV                    ANT # / TYPE
 -2300592.8570 -3637848.2430  4691079.2150                  APPROX POSITION XYZ
        0.1233        0.0000        0.0000                  ANTENNA: DELTA H/E/N
     1     1                                                WAVELENGTH FACT L1/2
     7    L1    L2    C1    P2    P1    S1    S2            # / TYPES OF OBSERV
     1.0000                                                 INTERVAL
teqc windowed: start @ 2016 Jan  1 00:00:00.000             COMMENT
teqc windowed:  end  @ 2016 Jan  1 01:00:00.000             COMMENT
teqc edited: all GLONASS satellites excluded                COMMENT
  2016     1     1     0     0    0.0000000     GPS         TIME OF FIRST OBS
                                                            END OF HEADER
 16  1  1  0  0  0.0000000  0  9G06G26G01G16G09G03G23G32G31
 124614293.573 6  97102024.12843  23713308.505    23713304.4184
        38.100          23.0004
 116280965.511 7  90608556.63345  22127518.847    22127512.4744
        45.000          33.6004
 130647000.186 5                  24861326.996
        33.300
 119044580.916 6  92761997.74444  22653413.997    22653404.8104
        41.800          26.0004
 122186188.490 6  95210042.22144  23251240.288    23251234.5594
        40.500          27.7004
 107722297.717 8  83939452.03747  20498869.798    20498861.7254
        50.500          42.5004
 110704786.878 8  86263455.48846  21066400.926    21066388.0464
        49.800          38.6004
 117977668.042 7  91930608.87845  22450400.336    22450390.9734
        45.300          31.3004
 121112769.666 7  94373601.74644  23046976.524    23046965.9314
        42.900          29.3004
 16  1  1  0  0  1.0000000  0  9G06G26G01G16G09G03G23G32G31
 124613331.240 6  97101274.25743  23713126.257    23713121.2324
        38.300          23.9004
 116279824.405 7  90607667.45845  22127302.033    22127295.1904
        45.000          34.0004
 130650515.848 5                  24861995.091
        33.100
 119041560.154 6  92759643.90444  22652839.206    22652829.8434
        41.700          25.1004
 122183267.907 6  95207766.44744  23250685.008    23250678.6344
        40.800          26.5004
 107723518.016 8  83940402.91247  20499102.343    20499093.8014
        50.500          42.7004
 110703164.019 8  86262190.92346  21066092.159    21066079.2214
        49.600          38.5004
 117980719.560 7  91932986.68445  22450981.033    22450971.7884
        45.000          32.1004
 121115982.125 7  94376104.97444  23047587.452    23047577.3864
        42.400          28.4004
 16  1  1  0  0  2.0000000  0  9G06G26G01G16G09G03G23G32G31
 124612369.621 6  97100524.95043  23712942.272    23712938.2434
        38.700          23.6004
 116278683.950 7  90606778.79245  22127084.935    22127078.1514
        45.100          34.0004
 130654031.519 5                  24862664.373
        34.600
 119038539.812 6  92757290.39844  22652264.689    22652254.9164
        41.600          26.0004
 122180347.499 6  95205490.81644  23250129.306    23250122.8744
        40.800          26.2004
 107724738.930 8  83941354.27847  20499334.367    20499326.2944
        50.300          42.9004
 110701541.479 8  86260926.60346  21065783.941    21065770.8864
        49.200          38.8004
 117983771.369 7  91935364.71845  22451561.609    22451552.3634
        45.300          31.5004
 121119194.785 7  94378608.35644  23048199.259    23048188.5484
        42.500          29.2004
 16  1  1  0  0  3.0000000  0  9G06G26G01G16G09G03G23G32G31
 124611408.387 6  97099775.93043  23712759.939    23712755.2074
        38.800          22.0004
 116277543.955 7  90605890.48745  22126868.095    22126861.6634
        45.200          34.0004
 130657546.952 5                  24863334.767
        34.400
 119035519.724 6  92754937.08844  22651689.634    22651680.7404
        41.600          26.8004
 122177427.039 6  95203215.14344  23249573.623    23249566.7814
        40.300          27.2004
 107725960.258 8  83942305.95747  20499567.073    20499558.5904
        50.500          42.9004
 110699919.044 8  86259662.37246  21065475.170    21065461.8814
        49.100          38.6004
 117986823.326 7  91937742.86745  22452143.074    22452133.5944
        44.900          31.6004
 121122407.508 7  94381111.78944  23048810.706    23048799.7614
        42.600          29.0004
 16  1  1  0  0  4.0000000  0  9G06G26G01G16G09G03G23G32G31
 124610447.987 6  97099027.56943  23712576.490    23712571.9924
        38.300          22.6004
 116276404.763 7  90605002.80545  22126651.225    22126644.7934
        45.200          34.2004
 130661062.621 5                  24864003.372
        34.300
 119032500.184 7  92752584.19944  22651115.158    22651106.0294
        42.000          26.5004
 122174506.862 6  95200939.69144  23249017.820    23249011.3304
        40.400          27.0004
 107727182.334 8  83943258.22447  20499799.705    20499791.8674
        51.000          42.9004
 110698297.036 8  86258398.47746  21065165.711    21065153.3014
        49.300          38.6004
 117989875.730 7  91940121.35845  22452723.582    22452714.2194
        45.000          31.2004
 121125620.560 7  94383615.47944  23049421.824    23049411.4654
        42.500          29.4004
 16  1  1  0  0  5.0000000  0  9G06G26G01G16G09G03G23G32G31
 124609488.124 6  97098279.63343  23712394.431    23712389.7584
        38.400          22.5004
 116275266.107 7  90604115.54145  22126434.418    22126428.0454
        45.300          34.1004
 130664578.100 5                  24864673.112
        34.800
 119029480.939 6  92750231.54444  22650540.869    22650531.2724
        41.800          25.5004
 122171586.738 6  95198664.27444  23248461.946    23248455.6904
        40.500          27.9004
 107728404.931 8  83944210.89847  20500032.322    20500024.0734
        51.100          42.9004
 110696675.237 8  86257134.74146  21064857.688    21064844.1654
        49.400          38.9004
 117992928.335 7  91942500.01345  22453304.739    22453295.4354
        45.200          31.5004
 121128833.727 7  94386119.25544  23050033.146    23050022.7874
        42.700          29.4004
 16  1  1  0  0  6.0000000  0  9G06G26G01G16G09G03G23G32G31
 124608528.823 6  97097532.14343  23712211.902    23712206.9944
        38.700          22.5004
 116274127.998 7  90603228.70445  22126217.975    22126211.1334
        45.500          34.4004
 130668093.536 5                  24865341.293
        34.000
 119026462.045 6  92747879.16644  22649966.591    22649956.9944
        41.700          26.2004
 122168666.657 6  95196388.88944  23247905.955    23247900.2854
        40.000          27.4004
 107729628.048 8  83945163.98647  20500265.044    20500256.5614
        50.900          43.0004
 110695053.657 8  86255871.17046  21064548.925    21064535.9294
        50.100          39.0004
 117995981.143 7  91944878.82545  22453885.721    22453876.3584
        44.900          31.5004
 121132047.019 7  94388623.12944  23050644.732    23050634.3144
        42.800          29.7004
 16  1  1  0  0  7.0000000  0  9G06G26G01G16G09G03G23G32G31
 124607570.342 6  97096785.27543  23712029.834    23712024.8674
        37.900          22.3004
 116272990.716 7  90602342.52045  22126001.618    22125994.9524
        45.700          34.2004
 130671609.139 5                  24866010.178
        33.700
 119023443.747 7  92745527.24444  22649391.932    22649382.7454
        42.000          25.8004
 122165746.863 6  95194113.73244  23247350.317    23247344.4124
        39.900          28.3004
 107730851.933 8  83946117.65447  20500497.673    20500489.4834
        50.700          43.0004
 110693432.540 8  86254607.96446  21064240.517    21064227.8724
        49.800          38.8004
 117999034.454 7  91947258.02945  22454466.601    22454457.0624
        45.000          31.6004
 121135260.673 7  94391127.28644  23051256.440    23051245.7294
        43.100          29.9004
 16  1  1  0  0  8.0000000  0  9G06G26G01G16G09G03G23G32G31
 124606612.237 6  97096038.68943  23711847.305    23711842.1634
        38.400          22.5004
 116271853.827 7  90601456.62745  22125785.514    22125778.7314
        45.500          34.2004
 130675124.490 5                  24866679.139
        34.300
 119020425.624 6  92743175.46444  22648818.004    22648808.3494
        41.800          26.1004
 122162827.001 6  95191838.51844  23246794.963    23246788.8244
        40.200          27.3004
 107732076.214 8  83947071.64447  20500730.917    20500722.6684
        50.900          43.0004
 110691811.488 8  86253344.80746  21063931.907    21063919.0284
        49.700          39.1004
 118002087.849 7  91949637.29745  22455046.936    22455038.4534
        45.200          31.7004
 121138474.330 7  94393631.45644  23051868.192    23051857.3654
        43.000          28.7004
 16  1  1  0  0  9.0000000  0  9G06G26G01G16G09G03G23G32G31
 124605655.047 6  97095292.80543  23711665.061    23711659.8014
        38.800          22.5004
 116270717.832 7  90600571.44545  22125569.200    22125562.5924
        45.700          34.0004
 130678640.060 5                  24867347.814
        34.300
 119017408.165 7  92740824.19144  22648243.136    22648234.1254
        42.000          25.3004
 122159907.527 6  95189563.61644  23246240.266    23246233.2484
        40.600          26.1004
 107733301.308 8  83948026.26347  20500963.849    20500955.6594
        50.700          43.0004
 110690190.963 8  86252082.05946  21063623.221    21063611.1634
        49.600          39.2004
 118005141.763 7  91952016.96845  22455628.669    22455619.6004
        45.500          31.6004
 121141688.423 7  94396135.95944  23052479.637    23052468.8094
        43.100          28.1004
 16  1  1  0  0 10.0000000  0  9G06G26G01G16G09G03G23G32G31
 124604698.157 6  97094547.18143  23711483.295    23711478.5044
        38.500          22.2004
 116269582.118 7  90599686.47445  22125353.323    22125346.2464
        45.200          34.3004
 130682155.286 5                  24868014.775
        33.300
 119014390.756 7  92738472.98444  22647669.128    22647659.8244
        42.400          26.0004
 122156987.829 6  95187288.53144  23245684.164    23245677.6744
        40.800          28.3004
 107734526.711 8  83948981.11947  20501196.848    20501188.5404
        50.700          42.8004
 110688570.415 8  86250819.29146  21063314.999    21063302.3544
        49.600          39.0004
 118008195.666 7  91954396.63045  22456209.705    22456200.6354
        45.200          32.2004
 121144902.372 7  94398640.34744  23053092.060    23053080.7634
        43.500          28.4004
 16  1  1  0  0 11.0000000  0  9G06G26G01G16G09G03G23G32G31
 124603742.299 6  97093802.36143  23711300.767    23711296.2104
        38.300          22.0004
 116268447.479 7  90598802.33745  22125137.163    22125130.0284
        45.300          34.0004
 130685670.879 5                  24868684.731
        33.700
 119011374.164 7  92736122.40644  22647095.211    22647085.7324
        42.600          26.0004
 122154068.674 6  95185013.87444  23245128.325    23245121.6004
        40.300          27.8004
 107735753.090 8  83949936.74047  20501430.228    20501422.4484
        50.700          42.7004
 110686950.550 8  86249557.06646  21063006.812    21062993.5814
        49.700          39.2004
 118011250.248 7  91956776.81845  22456790.653    22456781.7604
        45.200          32.0004
 121148116.931 7  94401145.20344  23053703.655    23053691.8894
        42.900          28.1004
 16  1  1  0  0 12.0000000  0  9G06G26G01G16G09G03G23G32G31
 124602786.850 6  97093057.86443  23711119.793    23711114.6504
        37.900          22.5004
 116267313.195 7  90597918.48145  22124920.988    22124914.4974
        45.800          34.5004
 130689186.222 5                  24869354.406
        33.700
 119008357.728 7  92733771.94844  22646521.571    22646511.9744
        43.000          26.3004
 122151149.366 6  95182739.08844  23244573.185    23244566.3424
        40.400          26.6004
 107736979.812 8  83950892.62747  20501663.944    20501655.9304
        50.700          42.5004
 110685330.685 8  86248294.83646  21062698.297    21062685.5354
        49.600          39.0004
 118014304.865 7  91959157.03745  22457372.344    22457363.0994
        45.100          32.0004
 121151331.419 7  94403650.00444  23054315.469    23054303.8804
        43.000          28.6004
 16  1  1  0  0 13.0000000  0  9G06G26G01G16G09G03G23G32G31
 124601832.070 6  97092313.88543  23710937.261    23710932.7054
        38.400          22.3004
 116266179.630 7  90597035.18645  22124705.719    22124698.5254
        45.600          34.3004
 130692701.639 5                  24870023.626
        34.100
 119005341.776 7  92731421.85144  22645947.679    22645937.8484
        42.600          26.3004
 122148230.302 6  95180464.50344  23244017.607    23244010.8824
        40.500          27.5004
 107738207.215 8  83951849.04347  20501897.474    20501888.9904
        50.900          42.5004
 110683711.227 8  86247032.92146  21062390.581    21062377.5854
        49.600          38.9004
 118017359.885 7  91961537.57245  22457953.804    22457944.3244
        45.300          31.5004
 121154546.235 7  94406155.07044  23054926.542    23054915.4214
        43.100          28.1004
 16  1  1  0  0 14.0000000  0  9G06G26G01G16G09G03G23G32G31
 124600877.758 6  97091570.25943  23710755.594    23710751.0384
        38.600          22.3004
 116265046.521 7  90596152.24045  22124489.631    22124483.0814
        45.700          34.4004
 130696216.848 5                  24870692.563
        33.400
 119002326.058 7  92729071.93644  22645373.915    22645364.0844
        42.700          26.9004
 122145311.166 6  95178189.86144  23243462.745    23243455.7854
        40.400          26.7004
 107739435.038 8  83952805.78847  20502131.390    20502122.8484
        50.700          42.4004
 110682091.869 8  86245771.08246  21062082.690    21062069.8114
        49.800          38.8004
 118020415.002 7  91963918.18145  22458534.989    22458525.7444
        45.300          31.7004
 121157761.027 7  94408660.12144  23055538.695    23055527.3984
        42.900          28.6004
 16  1  1  0  0 15.0000000  0  9G06G26G01G16G09G03G23G32G31
 124599924.314 6  97090827.31143  23710574.840    23710569.4044
        38.400          22.2004
 116263914.231 7  90595269.94145  22124274.410    22124267.5094
        45.700          34.3004
 130699732.236 5                  24871361.491
        32.600
 118999310.944 7  92726722.50744  22644799.786    22644790.6004
        42.600          26.5004
 122142392.383 6  95175915.48644  23242906.559    23242900.3034
        40.600          27.1004
 107740663.673 8  83953763.16447  20502365.142    20502356.8934
        50.700          42.7004
 110680473.010 8  86244509.63846  21061774.348    21061761.5284
        49.800          39.0004
 118023470.636 7  91966299.20345  22459116.827    22459107.3484
        45.300          31.3004
 121160976.247 7  94411165.50144  23056149.778    23056138.6574
        42.700          29.0004
 16  1  1  0  0 16.0000000  0  9G06G26G01G16G09G03G23G32G31
 124598971.394 6  97090084.77343  23710393.201    23710388.0594
        38.400          22.5004
 116262782.502 7  90594388.07145  22124058.626    22124052.3114
        45.200          34.2004
 130703247.540 5                  24872030.536
        33.300
 118996296.122 7  92724373.30144  22644226.270    22644216.8494
        42.500          26.4004
 122139473.631 6  95173641.14344  23242351.299    23242344.4574
        40.500          27.8004
 107741892.779 8  83954720.90847  20502599.057    20502590.8664
        50.800          42.6004
 110678854.313 8  86243248.32046  21061465.606    21061453.5474
        49.300          38.9004
 118026526.457 7  91968680.35345  22459698.102    22459688.6814
        44.600          31.4004
 121164191.576 7  94413670.95644  23056761.393    23056750.7994
        42.600          28.9004
 16  1  1  0  0 17.0000000  0  9G06G26G01G16G09G03G23G32G31
 124598019.072 6  97089342.70343  23710212.495    23710207.3534
        38.300          22.5004
 116261651.360 7  90593506.66245  22123843.495    22123836.9464
        45.100          34.0004
 130706762.815 5                  24872699.455
        33.500
 118993281.714 7  92722024.41444  22643652.967    22643643.6634
        42.300          26.7004
 122136554.958 6  95171366.86344  23241795.497    23241789.7104
        40.800          27.2004
 107743122.479 8  83955679.12047  20502833.246    20502824.8794
        51.100          42.6004
 110677235.899 8  86241987.21746  21061157.738    21061146.0314
        49.600          38.7004
 118029582.552 7  91971061.72345  22460279.750    22460270.6224
        44.700          31.4004
 121167407.050 7  94416176.53244  23057373.498    23057362.5534
        42.600          28.5004
 16  1  1  0  0 18.0000000  0  9G06G26G01G16G09G03G23G32G31
 124597067.395 6  97088601.14743  23710030.699    23710026.2014
        38.700          22.6004
 116260520.872 7  90592625.77045  22123628.922    22123621.8454
        45.100          34.2004
 130710278.000 5                  24873367.795
        33.600
 118990267.730 7  92719675.86144  22643079.191    22643069.6534
        42.000          26.0004
 122133636.446 6  95169092.70444  23241240.403    23241234.2054
        41.100          27.4004
 107744352.782 8  83956637.79447  20503066.728    20503058.8314
        50.800          42.1004
 110675617.787 8  86240726.34946  21060850.040    21060837.1614
        49.600          38.5004
 118032638.937 7  91973443.32045  22460861.422    22460852.1184
        44.600          31.4004
 121170622.728 7  94418682.25444  23057985.493    23057974.3134
        43.200          28.5004
 16  1  1  0  0 19.0000000  0  9G06G26G01G16G09G03G23G32G31
 124596116.426 6  97087860.13543  23709849.635    23709844.8444
        38.600          22.6004
 116259391.086 7  90591745.41945  22123413.760    22123406.7424
        45.400          34.2004
 130713793.341 5                  24874037.081
        33.500
 118987254.210 6  92717327.66644  22642506.096    22642496.4414
        41.800          26.3004
 122130718.126 6  95166818.69644  23240685.610    23240678.6514
        41.600          27.8004
 107745583.769 8  83957597.00647  20503301.240    20503292.6984
        50.300          42.0004
 110674000.018 8  86239465.75346  21060542.131    21060529.6624
        49.800          38.6004
 118035695.717 7  91975825.22045  22461442.763    22461433.5764
        44.500          31.4004
 121173838.702 7  94421188.22044  23058597.430    23058586.4854
        43.200          28.3004
 16  1  1  0  0 20.0000000  0  9G06G26G01G16G09G03G23G32G31
 124595166.596 6  97087120.01143  23709669.841    23709664.1714
        38.300          22.6004
 116258262.436 7  90590865.95945  22123198.787    22123192.1794
        45.200          34.5004
 130717309.064 5                  24874706.297
        33.600
 118984241.584 6  92714980.17444  22641931.953    22641923.1774
        41.700          26.7004
 122127800.402 6  95164545.14544  23240130.136    23240123.6454
        40.800          28.1004
 107746815.809 8  83958557.04547  20503535.500    20503527.3684
        50.700          42.2004
 110672383.033 8  86238205.77046  21060234.497    21060222.1454
        49.900          38.6004
 118038753.266 7  91978207.72945  22462024.841    22462015.5954
        44.500          31.5004
 121177055.344 7  94423694.70644  23059209.387    23059198.6774
        43.000          28.4004
 16  1  1  0  0 21.0000000  0  9G06G26G01G16G09G03G23G32G31
 124594216.799 6  97086379.91043  23709488.594    23709483.6854
        38.700          22.8004
 116257133.842 7  90589986.53845  22122984.511    22122977.1994
        45.500          34.4004
 130720824.215 5                  24875374.755
        33.500
 118981228.791 6  92712632.54544  22641358.823    22641349.5784
        41.800          26.7004
 122124882.265 6  95162271.27844  23239574.524    23239568.4434
        40.800          27.9004
 107748047.883 8  83959517.09347  20503770.332    20503761.8484
        50.700          42.4004
 110670765.746 8  86236945.54246  21059926.806    21059914.1024
        49.800          38.6004
 118041810.534 7  91980590.00845  22462606.324    22462597.3714
        44.500          32.0004
 121180271.624 7  94426200.89944  23059821.674    23059810.7884
        43.200          28.5004
 16  1  1  0  0 22.0000000  0  9G06G26G01G16G09G03G23G32G31
 124593267.668 6  97085640.33143  23709308.101    23709303.1924
        38.900          22.8004
 116256005.888 7  90589107.61545  22122769.794    22122762.7174
        45.800          34.1004
 130724339.372 5                  24876044.677
        33.400
 118978216.435 7  92710285.26344  22640785.155    22640776.3794
        42.000          27.6004
 122121964.256 6  95159997.51144  23239019.857    23239013.3084
        41.300          27.4004
 107749280.575 8  83960477.63547  20504004.784    20503996.4764
        50.700          42.0004
 110669148.785 8  86235685.57746  21059618.994    21059606.9944
        49.600          38.5004
 118044868.090 7  91982972.51645  22463188.712    22463179.0574
        44.700          31.8004
 121183488.094 7  94428707.25444  23060433.788    23060422.8434
        43.000          29.0004
 16  1  1  0  0 23.0000000  0  9G06G26G01G16G09G03G23G32G31
 124592319.024 6  97084901.11843  23709127.106    23709122.3734
        38.200          22.6004
 116254878.440 7  90588229.07845  22122555.430    22122548.4124
        45.800          34.9004
 130727854.402 5                  24876714.160
        33.700
 118975204.334 6  92707938.17844  22640211.802    22640203.6114
        41.700          25.9004
 122119046.257 6  95157723.74744  23238463.838    23238457.9924
        41.600          27.3004
 107750513.747 8  83961438.55146  20504239.522    20504230.9804
        50.400          41.9004
 110667531.943 8  86234425.70546  21059311.181    21059299.7084
        49.600          38.6004
 118047925.840 7  91985355.17645  22463770.027    22463760.6644
        44.600          31.2004
 121186704.668 7  94431213.68744  23061046.010    23061035.2414
        43.400          28.9004
 16  1  1  0  0 24.0000000  0  9G06G26G01G16G09G03G23G32G31
 124591371.401 6  97084162.70243  23708946.806    23708942.1324
        38.600          22.5004
 116253751.985 7  90587351.32345  22122340.954    22122333.6424
        45.600          34.8004
 130731369.747 5                  24877382.316
        34.800
 118972193.029 7  92705591.71244  22639638.876    22639630.5104
        42.300          25.6004
 122116128.749 6  95155450.37044  23237908.959    23237902.7614
        41.100          27.8004
 107751747.854 8  83962400.19147  20504474.241    20504465.8754
        50.600          42.1004
 110665915.791 8  86233166.35746  21059003.690    21058991.7484
        49.700          38.6004
 118050984.232 7  91987738.34345  22464351.891    22464343.1144
        44.900          31.2004
 121189921.767 7  94433720.52344  23061657.825    23061647.1144
        42.900          29.1004
 16  1  1  0  0 25.0000000  0  9G06G26G01G16G09G03G23G32G31
 124590424.058 6  97083424.52843  23708765.853    23708761.7654
        38.400          22.3004
 116252625.833 7  90586473.80945  22122126.936    22122119.6834
        45.600          34.3004
 130734884.733 5                  24878051.915
        34.600
 118969181.787 7  92703245.30244  22639065.639    22639057.2154
        42.500          26.0004
 122113211.026 6  95153176.82444  23237353.196    23237347.1164
        41.200          27.7004
 107752982.236 8  83963362.04847  20504709.147    20504700.8404
        50.800          42.1004
 110664299.574 8  86231906.97346  21058696.477    21058684.1254
        49.700          38.7004
 118054042.579 7  91990121.46745  22464934.036    22464925.2014
        44.700          31.2004
 121193138.742 7  94436227.26744  23062269.870    23062259.1594
        43.200          29.3004
 16  1  1  0  0 26.0000000  0  9G06G26G01G16G09G03G23G32G31
 124589477.433 6  97082686.91143  23708586.743    23708581.6594
        38.600          22.3004
 116251500.370 7  90585596.82545  22121912.579    22121905.1514
        45.800          34.3004
 130738399.807 5                  24878720.950
        34.300
 118966171.004 7  92700899.24344  22638492.628    22638484.0274
        42.000          26.1004
 122110293.493 6  95150903.42944  23236797.912    23236792.3014
        41.400          28.0004
 107754217.263 8  83964324.41147  20504943.865    20504936.0274
        50.800          42.0004
 110662683.705 8  86230647.85746  21058389.012    21058376.0164
        49.600          38.7004
 118057101.294 7  91992504.88645  22465515.582    22465506.9234
        44.700          31.4004
 121196355.961 7  94438734.20944  23062883.101    23062871.8044
        43.200          29.6004
 16  1  1  0  0 27.0000000  0  9G06G26G01G16G09G03G23G32G31
 124588531.453 6  97081949.77943  23708406.719    23708402.0454
        38.400          22.2004
 116250375.621 7  90584720.39745  22121698.307    22121691.2314
        45.800          34.0004
 130741914.876 5                  24879390.389
        34.600
 118963160.676 7  92698553.52944  22637919.753    22637911.7974
        42.200          27.1004
 122107376.138 6  95148630.18844  23236243.918    23236237.1934
        41.400          27.8004
 107755452.950 8  83965287.28046  20505179.057    20505171.0424
        50.900          41.9004
 110661068.187 8  86229389.01246  21058081.584    21058068.8224
        49.800          39.0004
 118060160.329 7  91994888.54845  22466098.136    22466089.2424
        45.000          32.1004
 121199573.472 7  94441241.37144  23063495.066    23063483.9454
        43.400          29.1004
 16  1  1  0  0 28.0000000  0  9G06G26G01G16G09G03G23G32G31
 124587586.162 6  97081213.17743  23708226.851    23708221.7674
        37.700          22.5004
 116249251.509 7  90583844.46845  22121484.669    22121477.2994
        45.400          34.0004
 130745429.946 5                  24880058.592
        34.100
 118960150.799 7  92696208.17044  22637347.611    22637339.0114
        42.400          26.6004
 122104458.945 6  95146357.05544  23235688.637    23235682.0294
        41.900          27.0004
 107756689.252 8  83966250.63646  20505414.450    20505406.0254
        50.700          41.8004
 110659452.963 8  86228130.40046  21057774.274    21057761.3364
        49.500          39.0004
 118063219.740 7  91997272.50345  22466679.979    22466671.0854
        44.900          31.2004
 121202791.164 7  94443748.66944  23064106.936    23064096.2844
        43.900          29.7004
 16  1  1  0  0 29.0000000  0  9G06G26G01G16G09G03G23G32G31
 124586641.341 6  97080476.96143  23708047.268    23708041.6564
        37.600          22.5004
 116248127.844 7  90582968.88445  22121270.210    22121263.4264
        45.600          33.8004
 130748944.858 5                  24880726.764
        33.500
 118957141.151 7  92693862.99544  22636774.675    22636765.9584
        42.400          26.2004
 122101541.702 6  95144083.87744  23235133.666    23235126.8234
        41.700          27.0004
 107757926.000 8  83967214.33746  20505650.055    20505641.5714
        50.800          41.9004
 110657837.867 8  86226871.88446  21057466.309    21057454.1334
        49.900          39.0004
 118066279.227 7  91999656.51845  22467262.111    22467253.2764
        44.700          31.4004
 121206008.924 7  94446256.02844  23064719.273    23064707.9184
        43.800          29.6004
 16  1  1  0  0 30.0000000  0  9G06G26G01G16G09G03G23G32G31
 124585697.395 6  97079741.41343  23707866.948    23707862.0984
        37.700          22.6004
 116247005.071 7  90582094.00845  22121056.937    22121049.7434
        45.400          34.0004
 130752459.973 5                  24881395.925
        34.000
 118954132.155 7  92691518.33844  22636202.851    22636193.5474
        42.000          27.6004
 122098624.831 6  95141810.99344  23234577.682    23234571.2504
        41.300          27.0004
 107759163.577 8  83968178.68147  20505885.181    20505876.8744
        50.900          42.1004
 110656223.298 8  86225613.77946  21057159.155    21057147.2144
        49.500          38.8004
 118069339.281 7  92002040.97245  22467844.413    22467835.7544
        44.700          31.5004
 121209227.106 7  94448763.71644  23065332.266    23065320.7944
        43.600          29.1004
 16  1  1  0  0 31.0000000  0  9G06G26G01G16G09G03G23G32G31
 124584753.765 6  97079006.12643  23707687.970    23707682.8864
        37.800          23.2004
 116245882.633 7  90581219.37445  22120843.424    22120836.4054
        45.700          33.9004
 130755974.744 5                  24882064.458
        34.200
 118951123.252 7  92689173.75744  22635630.004    22635621.0524
        42.100          27.4004
 122095707.800 7  95139537.99444  23234023.322    23234016.4214
        42.000          27.1004
 107760401.411 8  83969143.22946  20506120.989    20506112.7404
        50.700          41.9004
 110654608.693 8  86224355.64946  21056851.970    21056839.5604
        49.400          38.8004
 118072399.275 7  92004425.38545  22468426.691    22468417.4464
        44.300          31.8004
 121212445.159 7  94451271.30044  23065943.965    23065933.0204
        43.200          29.0004
 16  1  1  0  0 32.0000000  0  9G06G26G01G16G09G03G23G32G31
 124583811.078 6  97078271.56143  23707508.270    23707503.1274
        37.700          22.6004
 116244761.118 7  90580345.46945  22120630.322    22120622.6594
        45.500          34.0004
 130759489.848 5                  24882733.568
        33.900
 118948115.050 7  92686829.70444  22635057.184    22635048.5244
        42.400          27.0004
 122092791.172 6  95137265.30744  23233468.929    23233461.5004
        41.900          27.4004
 107761640.176 8  83970108.49746  20506356.595    20506347.9944
        50.500          41.8004
 110652994.691 8  86223097.98046  21056544.949    21056532.7154
        49.400          38.8004
 118075459.884 7  92006810.28245  22469009.003    22469000.6374
        44.500          31.7004
 121215663.721 7  94453779.28744  23066557.109    23066545.5784
        43.300          28.7004
 16  1  1  0  0 33.0000000  0  9G06G26G01G16G09G03G23G32G31
 124582868.722 6  97077537.25943  23707329.094    23707324.1864
        37.800          22.9004
 116243639.904 7  90579471.79745  22120416.682    22120409.5474
        45.200          33.8004
 130763004.601 5                  24883401.955
        33.700
 118945106.973 7  92684485.75444  22634484.419    22634476.2874
        42.300          27.2004
 122089874.383 7  95134992.49044  23232913.618    23232906.3654
        42.300          27.6004
 107762879.227 8  83971073.99346  20506592.529    20506584.1044
        50.700          41.9004
 110651380.669 8  86221840.30146  21056237.993    21056225.1724
        49.500          38.9004
 118078520.501 7  92009195.17345  22469592.264    22469583.0184
        44.500          31.8004
 121218882.185 7  94456287.19844  23067168.699    23067158.1054
        43.000          29.0004
 16  1  1  0  0 34.0000000  0  9G06G26G01G16G09G03G23G32G31
 124581927.146 6  97076803.57343  23707149.499    23707145.0604
        37.600          22.9004
 116242519.527 7  90578598.77945  22120203.491    22120196.1214
        45.400          34.2004
 130766519.480 5                  24884070.148
        32.900
 118942099.448 7  92682142.23144  22633912.801    22633903.9664
        42.100          27.5004
 122086957.867 7  95132719.88244  23232358.663    23232351.1764
        42.200          28.2004
 107764119.025 8  83972040.06447  20506828.105    20506819.8564
        50.300          42.0004
 110649767.087 8  86220582.96846  21055930.672    21055918.3794
        49.200          39.1004
 118081581.557 7  92011580.41045  22470174.328    22470165.2004
        44.700          31.2004
 121222100.987 7  94458795.36444  23067781.352    23067770.7004
        42.800          29.1004
 16  1  1  0  0 35.0000000  0  9G06G26G01G16G09G03G23G32G31
 124580986.209 6  97076070.36643  23706970.548    23706965.9334
        37.100          23.9004
 116241399.770 7  90577726.24145  22119990.198    22119983.0054
        45.900          34.0004
 130770034.323 5                  24884737.541
        32.800
 118939092.348 6  92679799.04044  22633340.501    22633331.6084
        41.800          26.8004
 122084041.508 7  95130447.39344  23231803.405    23231796.0364
        42.300          27.9004
 107765359.427 8  83973006.61246  20507064.330    20507055.9054
        50.600          41.7004
 110648153.804 8  86219325.86446  21055623.924    21055611.5734
        49.300          38.6004
 118084642.912 7  92013965.88045  22470756.661    22470747.7094
        44.800          30.9004
 121225319.998 7  94461303.69444  23068393.735    23068383.0244
        42.500          28.9004
 16  1  1  0  0 36.0000000  0  9G06G26G01G16G09G03G23G32G31
 124580046.062 6  97075337.78643  23706791.620    23706787.1814
        37.700          22.9004
 116240280.780 7  90576854.30145  22119776.958    22119770.2924
        45.800          33.3004
 130773549.335 5                  24885408.391
        32.800
 118936085.799 7  92677456.28344  22632768.258    22632759.1894
        42.200          27.1004
 122081125.393 6  95128175.10144  23231248.346    23231241.3284
        41.900          28.1004
 107766600.560 8  83973973.72646  20507300.284    20507292.2704
        50.500          41.7004
 110646540.943 8  86218069.09646  21055317.663    21055304.4324
        49.600          38.9004
 118087704.682 7  92016351.67545  22471339.199    22471330.2464
        45.000          30.6004
 121228539.350 7  94463812.28944  23069006.262    23068995.4344
        42.700          28.2004
 16  1  1  0  0 37.0000000  0  9G06G26G01G16G09G03G23G32G31
 124579106.392 6  97074605.58243  23706612.849    23706608.5864
        38.000          22.6004
 116239162.289 7  90575982.75745  22119563.941    22119557.2164
        46.000          33.0004
 130777064.186 5                  24886076.398
        33.200
 118933079.473 7  92675113.69244  22632196.840    22632187.1264
        42.200          26.8004
 122078209.270 6  95125902.81144  23230693.243    23230686.3424
        41.800          28.3004
 107767842.131 8  83974941.19146  20507537.048    20507528.4474
        50.400          41.8004
 110644928.220 8  86216812.42946  21055010.200    21054997.2044
        49.700          38.7004
 118090766.593 7  92018737.57545  22471922.072    22471913.0034
        45.200          31.0004
 121231758.733 7  94466320.91944  23069619.469    23069608.2314
        42.400          28.6004
 16  1  1  0  0 38.0000000  0  9G06G26G01G16G09G03G23G32G31
 124578167.310 6  97073873.83543  23706433.669    23706429.2884
        38.500          22.5004
 116238044.403 7  90575111.67945  22119351.256    22119344.4734
        46.000          33.5004
 130780578.927 5                  24886745.721
        33.200
 118930073.552 7  92672771.43344  22631623.868    22631615.6194
        42.300          26.8004
 122075293.275 7  95123630.61844  23230138.767    23230131.8074
        42.000          27.4004
 107769084.299 8  83975909.10446  20507773.047    20507765.0324
        50.900          41.8004
 110643315.753 8  86215555.96546  21054703.566    21054690.8624
        49.700          38.8004
 118093828.811 7  92021123.72345  22472504.942    22472495.8144
        45.000          31.5004
 121234978.322 7  94468829.69644  23070232.080    23070221.0184
        42.800          28.7004
 16  1  1  0  0 39.0000000  0  9G06G26G01G16G09G03G23G32G31
 124577228.881 6  97073142.59643  23706256.241    23706250.8644
        38.500          23.0004
 116236927.142 7  90574241.08445  22119138.856    22119132.3064
        45.800          33.3004
 130784093.645 5                  24887414.088
        33.300
 118927068.045 7  92670429.48244  22631052.334    22631043.3814
        42.200          27.2004
 122072377.377 7  95121358.49644  23229583.872    23229576.8544
        42.100          27.5004
 107770327.044 8  83976877.48746  20508009.733    20508001.5434
        50.700          41.7004
 110641703.575 8  86214299.72346  21054396.510    21054383.7484
        49.800          39.2004
 118096891.303 7  92023510.07945  22473087.647    22473078.3444
        45.100          31.1004
 121238198.052 7  94471338.58744  23070845.126    23070833.7714
        42.700          28.0004
 16  1  1  0  0 40.0000000  0  9G06G26G01G16G09G03G23G32G31
 124576291.278 6  97072411.98543  23706077.681    23706072.5974
        38.300          22.2004
 116235810.712 7  90573371.14645  22118926.417    22118919.4584
        45.700          33.7004
 130787608.572 5                  24888082.308
        33.200
 118924063.123 6  92668087.98444  22630480.041    22630471.3234
        41.800          26.8004
 122069461.787 6  95119086.61544  23229029.284    23229021.7384
        41.800          26.5004
 107771570.578 8  83977846.47346  20508246.095    20508237.9054
        50.500          41.8004
 110640091.897 8  86213043.87146  21054089.706    21054076.8274
        49.900          39.2004
 118099954.282 7  92025896.81745  22473670.684    22473661.0294
        44.800          31.5004
 121241418.211 7  94473847.82144  23071457.707    23071446.4694
        43.300          28.8004
 16  1  1  0  0 41.0000000  0  9G06G26G01G16G09G03G23G32G31
 124575354.265 6  97071681.84543  23705899.099    23705894.2504
        37.800          23.0004
 116234694.875 7  90572501.65945  22118714.345    22118707.0934
        45.600          34.0004
 130791123.397 5                  24888752.141
        33.600
 118921058.606 7  92665746.80944  22629909.047    22629899.6264
        42.000          27.0004
 122066546.302 6  95116814.81944  23228474.029    23228467.0704
        41.700          27.8004
 107772814.657 8  83978815.88146  20508482.943    20508475.0464
        50.300          41.8004
 110638480.431 8  86211788.18646  21053782.588    21053770.1784
        49.400          39.2004
 118103017.499 7  92028283.73745  22474253.449    22474243.8524
        44.600          31.8004
 121244638.516 7  94476357.16244  23072071.249    23072059.1324
        43.200          28.9004
 16  1  1  0  0 42.0000000  0  9G06G26G01G16G09G03G23G32G31
 124574417.683 6  97070952.04643  23705721.192    23705716.2264
        38.300          23.5004
 116233579.457 7  90571632.50845  22118501.961    22118494.7084
        45.900          34.1004
 130794638.036 5                  24889421.451
        33.500
 118918054.232 7  92663405.74044  22629337.314    22629327.8934
        42.100          26.5004
 122063630.712 7  95114542.92544  23227919.406    23227912.1544
        42.000          27.6004
 107774059.125 8  83979785.59746  20508720.088    20508711.5464
        50.200          41.6004
 110636869.062 8  86210532.56746  21053475.842    21053463.9594
        49.300          39.2004
 118106080.811 7  92030670.72845  22474836.155    22474826.5004
        44.800          30.9004
 121247858.793 7  94478866.47744  23072683.385    23072671.7364
        43.400          29.1004
 16  1  1  0  0 43.0000000  0  9G06G26G01G16G09G03G23G32G31
 124573481.665 6  97070222.69343  23705543.175    23705538.2084
        38.300          23.6004
 116232464.631 7  90570763.81245  22118289.436    22118282.7114
        45.900          33.9004
 130798152.595 5                  24890090.051
        33.900
 118915050.250 7  92661064.97744  22628765.177    22628756.4014
        42.000          26.7004
 122060715.250 6  95112271.13844  23227364.072    23227357.4644
        41.400          28.1004
 107775304.157 8  83980755.74946  20508957.009    20508948.4094
        50.300          41.7004
 110635257.936 8  86209277.14546  21053169.329    21053157.0954
        48.900          39.3004
 118109144.382 7  92033057.92445  22475419.841    22475410.1864
        45.000          31.3004
 121251079.192 7  94481375.89544  23073296.755    23073284.9304
        43.200          28.9004
 16  1  1  0  0 44.0000000  0  9G06G26G01G16G09G03G23G32G31
 124572546.487 6  97069493.98844  23705365.415    23705360.0384
        38.100          24.9004
 116231350.618 7  90569895.75645  22118078.545    22118070.8824
        45.700          34.0004
 130801667.334 5                  24890759.719
        33.700
 118912046.862 6  92658724.67844  22628193.839    22628184.3014
        41.700          26.7004
 122057800.053 6  95109999.56344  23226809.194    23226803.0554
        41.400          28.4004
 107776549.963 8  83981726.51046  20509194.012    20509185.3524
        50.300          41.8004
 110633647.284 8  86208022.08746  21052863.527    21052850.8244
        49.300          39.4004
 118112208.411 7  92035445.48245  22476002.487    22475993.3014
        44.700          31.0004
 121254299.998 7  94483885.61444  23073909.505    23073897.6224
        43.500          29.2004
 16  1  1  0  0 45.0000000  0  9G06G26G01G16G09G03G23G32G31
 124571611.914 6  97068765.75844  23705187.337    23705182.1944
        38.300          24.7004
 116230237.245 7  90569028.19045  22117865.444    22117858.9544
        45.600          34.0004
 130805182.009 5                  24891429.562
        34.700
 118909043.899 7  92656384.70944  22627622.850    22627613.0194
        42.200          26.1004
 122054884.993 6  95107728.09744  23226254.561    23226248.0704
        41.300          28.0004
 107777796.351 8  83982697.72546  20509431.195    20509422.4184
        50.200          41.8004
 110632036.923 8  86206767.26846  21052556.450    21052543.8644
        49.300          39.4004
 118115272.739 7  92037833.26845  22476586.208    22476576.4934
        44.800          31.0004
 121257521.006 7  94486395.49744  23074522.003    23074510.2374
        43.600          29.5004
 16  1  1  0  0 46.0000000  0  9G06G26G01G16G09G03G23G32G31
 124570677.774 6  97068037.86543  23705009.181    23705004.5664
        38.100          23.5004
 116229124.289 7  90568160.95045  22117653.870    22117646.9694
        45.400          33.7004
 130808696.446 5                  24892098.597
        34.300
 118906041.127 7  92654044.89844  22627051.731    22627041.4894
        42.200          25.8004
 122051969.869 6  95105456.57944  23225699.168    23225693.4394
        41.600          28.6004
 107779043.140 8  83983669.25047  20509668.776    20509660.1764
        50.200          42.0004
 110630426.621 8  86205512.48646  21052250.358    21052237.7134
        49.400          39.3004
 118118337.157 7  92040221.12745  22477168.748    22477159.3854
        45.300          31.3004
 121260741.990 7  94488905.36344  23075135.444    23075123.4444
        43.600          29.1004
 16  1  1  0  0 47.0000000  0  9G06G26G01G16G09G03G23G32G31
 124569744.659 6  97067310.76443  23704831.636    23704827.3144
        38.700          22.5004
 116228012.295 7  90567294.46745  22117442.231    22117435.2724
        45.400          33.7004
 130812211.228 5                  24892766.274
        34.400
 118903039.102 7  92651705.66044  22626480.197    22626470.2494
        42.600          26.4004
 122049055.223 6  95103185.43944  23225144.621    23225138.7754
        41.600          27.7004
 107780290.844 8  83984641.48646  20509905.844    20509897.3604
        50.400          41.8004
 110628816.964 8  86204258.21046  21051944.349    21051931.1184
        49.000          39.3004
 118121402.170 7  92042609.44545  22477752.092    22477743.1984
        45.100          31.2004
 121263963.507 7  94491415.64644  23075747.712    23075736.3564
        43.600          28.9004
 16  1  1  0  0 48.0000000  0  9G06G26G01G16G09G03G23G32G31
 124568811.857 6  97066583.89843  23704654.828    23704649.8614
        38.900          22.3004
 116226900.708 7  90566428.29645  22117231.120    22117223.9264
        45.000          33.9004
 130815725.717 5                  24893435.133
        35.000
 118900037.203 7  92649366.51644  22625909.139    22625899.0154
        42.600          24.9004
 122046140.422 6  95100914.16644  23224590.363    23224584.4004
        41.600          27.7004
 107781538.873 8  83985613.97547  20510143.280    20510135.0894
        50.100          42.0004
 110627207.316 8  86203003.94346  21051638.453    21051624.9884
        49.300          39.9004
 118124467.211 7  92044997.78445  22478335.565    22478326.1444
        44.700          31.6004
 121267184.961 7  94493925.88344  23076361.250    23076349.7194
        43.800          28.7004
 16  1  1  0  0 49.0000000  0  9G06G26G01G16G09G03G23G32G31
 124567879.680 6  97065857.53043  23704477.533    23704472.6254
        38.400          22.2004
 116225789.668 7  90565562.55745  22117020.050    22117012.9734
        45.000          33.4004
 130819240.168 5                  24894104.531
        35.100
 118897035.695 7  92647027.69044  22625338.039    22625328.3244
        43.000          26.2004
 122043225.690 6  95098642.94944  23224035.392    23224029.3714
        41.600          27.9004
 107782787.476 8  83986586.91947  20510381.045    20510372.3864
        50.200          42.0004
 110625597.906 8  86201749.85346  21051331.839    21051319.0194
        49.400          39.8004
 118127532.545 7  92047386.35045  22478919.142    22478909.3114
        44.600          31.8004
 121270406.549 7  94496436.21044  23076974.015    23076962.9534
        43.800          29.4004
 16  1  1  0  0 50.0000000  0  9G06G26G01G16G09G03G23G32G31
 124566948.243 6  97065131.71943  23704300.091    23704294.5974
        39.000          22.3004
 116224679.389 7  90564697.40845  22116808.391    22116801.6084
        44.900          33.9004
 130822754.640 5                  24894772.742
        34.200
 118894034.701 7  92644689.25944  22624766.867    22624756.4494
        42.800          26.7004
 122040311.236 6  95096371.94944  23223481.345    23223474.6784
        41.700          28.0004
 107784036.778 8  83987560.39147  20510618.313    20510610.1234
        50.300          42.2004
 110623988.915 8  86200496.09846  21051025.479    21051013.2444
        49.200          39.7004
 118130598.257 7  92049775.21845  22479502.650    22479492.4674
        45.200          31.7004
 121273628.471 7  94498946.80644  23077587.203    23077575.6714
        43.000          29.2004
 16  1  1  0  0 51.0000000  0  9G06G26G01G16G09G03G23G32G31
 124566017.470 6  97064406.44443  23704122.898    23704117.6394
        38.800          22.3004
 116223569.803 7  90563832.79345  22116596.826    22116589.9844
        45.100          33.8004
 130826269.205 5                  24895442.100
        34.200
 118891034.170 7  92642351.19144  22624196.197    22624185.9564
        42.600          26.4004
 122037396.935 6  95094101.07544  23222926.811    23222920.6724
        41.800          27.7004
 107785286.731 8  83988534.38547  20510856.182    20510847.9334
        50.500          42.1004
 110622380.256 8  86199242.60146  21050719.614    21050707.0864
        49.200          39.3004
 118133664.311 7  92052164.35045  22480086.042    22480076.3874
        44.800          30.7004
 121276850.627 7  94501457.58244  23078200.386    23078188.9144
        42.700          29.4004
 16  1  1  0  0 52.0000000  0  9G06G26G01G16G09G03G23G32G31
 124565087.218 6  97063681.57243  23703945.635    23703940.3764
        38.600          22.5004
 116222460.692 7  90562968.55445  22116385.998    22116379.3904
        45.100          33.9004
 130829783.583 5                  24896110.073
        34.500
 118888033.907 7  92640013.31444  22623625.091    22623614.6734
        42.700          26.8004
 122034482.644 7  95091830.21044  23222371.646    23222365.8004
        42.300          27.6004
 107786537.126 8  83989508.71647  20511094.643    20511086.2184
        50.600          42.0004
 110620771.736 8  86197989.21446  21050413.230    21050401.0544
        49.400          39.2004
 118136730.503 7  92054553.58445  22480669.805    22480659.6804
        44.700          31.3004
 121280072.834 7  94503968.40544  23078813.074    23078802.3044
        42.700          29.3004
 16  1  1  0  0 53.0000000  0  9G06G26G01G16G09G03G23G32G31
 124564157.628 6  97062957.21443  23703769.687    23703763.5484
        38.000          22.5004
 116221352.287 7  90562104.85745  22116175.273    22116168.0214
        44.800          33.9004
 130833298.011 5                  24896778.618
        33.400
 118885034.091 7  92637675.79644  22623054.424    22623043.7144
        42.500          26.1004
 122031568.492 7  95089559.44944  23221817.911    23221811.3614
        42.500          27.8004
 107787788.192 8  83990483.57446  20511332.480    20511324.1144
        50.600          41.7004
 110619163.558 8  86196736.08446  21050107.275    21050094.3964
        49.600          39.6004
 118139797.081 7  92056943.12645  22481252.861    22481244.0844
        44.600          31.0004
 121283295.263 7  94506479.39244  23079426.583    23079415.3454
        43.000          28.5004
 16  1  1  0  0 54.0000000  0  9G06G26G01G16G09G03G23G32G31
 124563228.706 6  97062233.38743  23703593.143    23703587.0634
        38.400          22.9004
 116220244.560 7  90561241.69845  22115964.646    22115957.2764
        44.700          33.6004
 130836812.407 5                  24897446.827
        33.200
 118882034.739 7  92635338.64744  22622482.889    22622473.1164
        42.500          26.7004
 122028654.570 6  95087288.86444  23221264.346    23221256.6834
        41.900          27.6004
 107789039.851 8  83991458.89546  20511570.779    20511562.2374
        50.700          41.8004
 110617555.699 8  86195483.20346  21049801.458    21049788.9894
        49.600          39.0004
 118142863.943 7  92059332.88945  22481836.327    22481826.9054
        44.400          31.3004
 121286517.960 7  94508990.59744  23080040.345    23080028.5804
        43.700          29.0004
 16  1  1  0  0 55.0000000  0  9G06G26G01G16G09G03G23G32G31
 124562300.320 6  97061509.96043  23703415.953    23703410.2834
        38.100          22.5004
 116219137.354 7  90560378.94345  22115753.771    22115746.4604
        45.000          33.5004
 130840326.703 5                  24898115.726
        33.500
 118879035.663 7  92633001.70844  22621912.573    22621902.3904
        42.500          27.8004
 122025740.618 6  95085018.25244  23220708.994    23220702.3284
        41.700          28.8004
 107790292.031 8  83992434.62146  20511808.535    20511800.2864
        50.400          41.7004
 110615948.022 8  86194230.46946  21049495.391    21049482.8054
        49.500          39.0004
 118145931.029 7  92061722.82745  22482419.659    22482410.4134
        44.500          31.6004
 121289740.710 7  94511501.83144  23080653.675    23080641.7344
        43.600          29.1004
 16  1  1  0  0 56.0000000  0  9G06G26G01G16G09G03G23G32G31
 124561372.752 6  97060787.18843  23703238.934    23703233.7334
        38.600          22.5004
 116218030.919 7  90559516.78845  22115543.122    22115536.5144
        45.200          34.2004
 130843841.140 5                  24898783.141
        32.900
 118876037.177 7  92630665.22444  22621342.008    22621332.0014
        42.500          26.9004
 122022826.960 6  95082747.86944  23220153.444    23220147.5404
        41.400          27.9004
 107791544.962 8  83993410.93046  20512047.273    20512039.1414
        49.800          41.8004
 110614340.779 8  86192978.07246  21049189.722    21049176.9014
        49.400          38.9004
 118148998.530 7  92064113.08645  22483003.444    22482994.3744
        45.000          31.1004
 121292963.843 7  94514013.37544  23081266.338    23081254.9254
        43.700          29.8004
 16  1  1  0  0 57.0000000  0  9G06G26G01G16G09G03G23G32G31
 124560445.669 6  97060064.78843  23703063.365    23703057.1094
        38.100          22.5004
 116216925.040 7  90558655.06445  22115332.849    22115326.0064
        45.300          33.6004
 130847355.380 5                  24899453.700
        33.600
 118873038.993 7  92628328.98044  22620771.176    22620761.3444
        42.800          27.3004
 122019913.323 6  95080477.51244  23219599.417    23219593.2204
        41.100          28.1004
 107792798.359 8  83994387.59746  20512285.580    20512277.5074
        49.900          41.9004
 110612733.737 8  86191725.83346  21048884.264    21048871.0334
        49.200          39.1004
 118152066.231 7  92066503.50445  22483587.596    22483578.2924
        44.900          31.2004
 121296187.025 7  94516524.95244  23081880.526    23081868.5844
        43.500          29.4004
 16  1  1  0  0 58.0000000  0  9G06G26G01G16G09G03G23G32G31
 124559519.325 6  97059342.96643  23702886.470    23702880.9764
        38.300          22.8004
 116215819.849 7  90557793.87245  22115122.411    22115115.5694
        45.300          33.6004
 130850869.779 5                  24900122.740
        33.200
 118870041.290 6  92625993.11544  22620201.151    22620190.8514
        41.800          27.8004
 122016999.893 6  95078207.31844  23219044.362    23219039.0434
        40.900          28.7004
 107794052.443 8  83995364.81446  20512524.410    20512515.8094
        50.200          41.7004
 110611127.042 8  86190473.87246  21048578.004    21048565.7114
        49.400          39.2004
 118155134.292 7  92068894.19445  22484171.428    22484161.9494
        45.100          31.1004
 121299410.480 7  94519036.74144  23082494.054    23082481.8784
        43.600          28.8004
 16  1  1  0  0 59.0000000  0  9G06G26G01G16G09G03G23G32G31
 124558593.518 6  97058621.55343  23702710.040    23702705.1324
        38.600          22.9004
 116214715.230 7  90556933.13945  22114912.010    22114905.1104
        45.600          33.4004
 130854384.010 5                  24900790.970
        33.300
 118867043.925 7  92623657.51044  22619630.532    22619620.5244
        42.200          27.1004
 122014086.524 6  95075937.15844  23218489.929    23218484.4354
        41.000          27.6004
 107795307.054 8  83996342.42946  20512763.034    20512755.1374
        50.700          41.7004
 110609520.553 8  86189222.06246  21048273.121    21048260.0084
        50.000          39.0004
 118158202.590 7  92071285.07245  22484754.444    22484745.9604
        44.800          31.1004
 121302634.098 7  94521548.65344  23083107.269    23083094.9184
        43.500          29.1004
 16  1  1  0  1  0.0000000  0  9G06G26G01G16G09G03G23G32G31
 124557668.454 6  97057900.72643  23702534.875    23702528.8544
        38.800          22.8004
 116213611.353 7  90556072.97745  22114702.118    22114695.2764
        45.500          33.5004
 130857898.341 5                  24901459.557
        33.900
 118864047.084 7  92621322.32444  22619059.859    22619050.2624
        42.000          27.7004
 122011173.373 6  95073667.18344  23217936.208    23217929.9524
        41.200          28.2004
 107796562.348 8  83997320.57646  20513001.743    20512993.6704
        50.500          41.9004
 110607914.466 8  86187970.56446  21047966.549    21047953.6114
        50.100          39.2004
 118161271.263 7  92073676.24645  22485338.533    22485329.8154
        44.500          31.2004
 121305857.965 7  94524060.76444  23083720.498    23083708.6744
        43.900          29.3004
 16  1  1  0  1  1.0000000  0  9G06G26G01G16G09G03G23G32G31
 124556744.013 6  97057180.38443  23702359.272    23702353.1334
        38.400          22.9004
 116212508.057 7  90555213.26345  22114492.419    22114485.3434
        45.400          33.6004
 130861412.601 5                  24902128.818
        33.400
 118861050.612 7  92618987.41444  22618489.831    22618480.2924
        42.400          27.8004
 122008260.343 6  95071397.30044  23217381.647    23217375.4504
        41.300          28.8004
 107797818.211 8  83998299.17446  20513241.012    20513232.7054
        50.100          41.9004
 110606308.640 8  86186719.27746  21047660.873    21047648.7564
        49.700          39.3004
 118164340.184 7  92076067.61145  22485922.713    22485914.0544
        44.600          31.2004
 121309082.011 7  94526573.01644  23084334.099    23084321.9824
        43.900          28.8004
 16  1  1  0  1  2.0000000  0  9G06G26G01G16G09G03G23G32G31
 124555819.999 6  97056460.37043  23702182.485    23702177.1084
        38.600          22.8004
 116211405.247 7  90554353.93045  22114281.759    22114275.2104
        45.300          34.0004
 130864926.758 5                  24902797.470
        33.400
 118858054.400 7  92616652.70544  22617919.254    22617910.1264
        42.300          26.8004
 122005347.239 6  95069127.35244  23216827.664    23216821.5254
        41.500          28.3004
 107799074.485 8  83999278.09146  20513479.962    20513471.8304
        50.000          41.9004
 110604702.905 8  86185468.05846  21047355.248    21047342.8964
        49.400          39.3004
 118167409.252 7  92078459.09545  22486506.817    22486497.9234
        45.000          31.4004
 121312306.075 7  94529085.27744  23084947.416    23084935.6504
        43.700          29.5004
 16  1  1  0  1  3.0000000  0  9G06G26G01G16G09G03G23G32G31
 124554896.617 6  97055740.86643  23702006.877    23702001.6184
        38.600          22.8004
 116210303.029 7  90553495.06645  22114072.785    22114065.8254
        45.300          33.6004
 130868440.701 5                  24903466.932
        33.400
 118855058.537 7  92614318.27444  22617349.090    22617340.0794
        42.600          26.7004
 122002434.260 7  95066857.50444  23216272.961    23216266.8224
        42.000          27.8004
 107800331.348 8  84000257.46247  20513719.231    20513710.9234
        49.900          42.0004
 110603097.454 8  86184217.05546  21047049.299    21047037.2994
        49.100          39.4004
 118170478.564 7  92080850.76045  22487090.628    22487082.0864
        44.900          31.5004
 121315530.281 7  94531597.64044  23085560.970    23085549.2044
        43.400          28.8004
 16  1  1  0  1  4.0000000  0  9G06G26G01G16G09G03G23G32G31
 124553974.285 6  97055022.16143  23701831.367    23701825.6974
        38.800          22.8004
 116209201.846 7  90552636.99445  22113862.802    22113855.6674
        45.000          34.0004
 130871955.110 5                  24904134.764
        33.000
 118852063.503 7  92611984.48644  22616779.276    22616769.9724
        42.300          27.7004
 121999521.787 6  95064588.04444  23215718.951    23215712.6364
        41.800          28.5004
 107801589.207 8  84001237.60946  20513958.597    20513950.1734
        50.000          41.9004
 110601492.701 8  86182966.59646  21046744.455    21046731.7524
        49.200          39.3004
 118173548.574 7  92083242.98145  22487675.220    22487666.2674
        45.100          31.0004
 121318755.107 7  94534110.50244  23086174.735    23086162.6774
        43.400          28.6004
 16  1  1  0  1  5.0000000  0  9G06G26G01G16G09G03G23G32G31
 124553052.280 6  97054303.71143  23701656.244    23701650.2814
        38.800          22.8004
 116208101.025 7  90551779.21745  22113653.199    22113646.4154
        45.500          33.9004
 130875469.192 5                  24904803.547
        33.700
 118849068.619 7  92609650.81044  22616209.176    22616199.9894
        42.100          27.2004
 121996609.212 6  95062318.51544  23215164.744    23215158.1954
        41.800          28.7004
 107802847.369 8  84002217.99546  20514197.826    20514189.4594
        50.100          41.9004
 110599887.947 8  86181716.14846  21046438.694    21046426.8704
        49.100          39.2004
 118176618.592 7  92085635.19745  22488259.462    22488250.5684
        45.000          30.6004
 121321979.839 7  94536623.28044  23086788.763    23086776.2354
        43.600          28.1004
 16  1  1  0  1  6.0000000  0  9G06G26G01G16G09G03G23G32G31
 124552131.071 6  97053585.88743  23701480.611    23701474.9994
        38.200          23.3004
 116207001.035 7  90550922.08845  22113443.900    22113436.7064
        45.400          33.6004
 130878983.450 5                  24905472.924
        34.100
 118846074.266 7  92607317.55144  22615638.854    22615630.0784
        42.500          27.3004
 121993696.898 6  95060049.18244  23214610.700    23214604.5614
        41.800          27.6004
 107804106.280 8  84003198.96846  20514437.680    20514429.1974
        50.600          41.9004
 110598283.630 8  86180466.02846  21046134.050    21046121.6404
        49.300          39.1004
 118179689.074 7  92088027.77645  22488843.789    22488834.6024
        44.600          30.5004
 121325204.918 7  94539136.32044  23087402.026    23087389.8504
        43.200          28.9004
 16  1  1  0  1  7.0000000  0  9G06G26G01G16G09G03G23G32G31
 124551210.306 6  97052868.40643  23701305.870    23701299.8484
        38.300          22.2004
 116205901.415 7  90550065.24045  22113234.603    22113227.8194
        45.500          33.7004
 130882497.445 5                  24906142.298
        34.300
 118843080.166 7  92604984.49644  22615069.753    22615060.8604
        42.500          27.1004
 121990784.500 7  95057779.79444  23214056.906    23214050.1804
        42.000          28.5004
 107805365.574 8  84004180.23346  20514677.286    20514668.8614
        50.600          41.9004
 110596679.383 8  86179215.96646  21045828.633    21045815.9884
        49.600          39.3004
 118182759.636 7  92090420.42145  22489428.436    22489419.3084
        44.500          30.9004
 121328429.992 7  94541649.36344  23088015.984    23088004.0434
        43.800          27.5004
 16  1  1  0  1  8.0000000  0  9G06G26G01G16G09G03G23G32G31
 124550290.240 6  97052151.46943  23701130.380    23701124.8864
        38.300          22.5004
 116204802.494 7  90549208.94045  22113025.752    22113018.6164
        45.600          34.1004
 130886011.487 5                  24906811.270
        34.600
 118840086.479 7  92602651.76144  22614500.131    22614491.0034
        42.600          26.4004
 121987872.271 7  95055510.52544  23213502.993    23213495.8584
        42.400          28.1004
 107806625.542 8  84005162.02746  20514917.036    20514908.9634
        49.700          41.8004
 110595075.474 8  86177966.16746  21045523.537    21045510.6584
        49.100          39.3004
 118185830.511 7  92092813.30945  22490011.987    22490003.5624
        44.400          30.8004
 121331655.265 7  94544162.56344  23088629.460    23088617.8704
        43.200          28.2004
 16  1  1  0  1  9.0000000  0  9G06G26G01G16G09G03G23G32G31
 124549370.800 6  97051435.03043  23700954.705    23700949.7384
        37.700          22.5004
 116203704.246 7  90548353.15845  22112816.506    22112809.6644
        45.000          34.0004
 130889525.517 5                  24907479.672
        34.000
 118837093.270 7  92600319.40444  22613930.993    22613921.6304
        42.700          27.9004
 121984960.214 7  95053241.39444  23212948.567    23212941.7254
        42.300          28.7004
 107807886.105 8  84006144.29246  20515156.886    20515148.6374
        50.000          41.7004
 110593471.887 8  86176716.62046  21045218.330    21045205.5684
        49.300          39.7004
 118188901.741 7  92095206.48145  22490596.921    22490587.6184
        44.100          30.6004
 121334880.819 7  94546675.97744  23089243.228    23089231.4044
        43.000          28.2004
 16  1  1  0  1 10.0000000  0  9G06G26G01G16G09G03G23G32G31
 124548452.174 6  97050719.21643  23700779.782    23700774.6404
        38.400          22.3004
 116202606.769 7  90547497.98545  22112608.252    22112600.7654
        44.900          33.6004
 130893039.651 5                  24908147.818
        33.300
 118834100.610 7  92597987.46444  22613361.410    22613352.2234
        42.800          28.0004
 121982048.435 7  95050972.48944  23212394.506    23212387.7224
        42.700          28.2004
 107809147.400 8  84007127.11446  20515396.861    20515388.4954
        50.100          41.7004
 110591868.712 8  86175467.39646  21044913.076    21044900.2564
        49.500          39.3004
 118191973.380 7  92097599.95645  22491181.264    22491172.0784
        44.100          30.9004
 121338106.673 7  94549189.62844  23089857.332    23089845.2154
        43.500          28.9004
 16  1  1  0  1 11.0000000  0  9G06G26G01G16G09G03G23G32G31
 124547533.853 6  97050003.63743  23700605.180    23700599.9794
        38.300          22.5004
 116201509.636 7  90546643.08545  22112398.953    22112391.8764
        45.200          33.6004
 130896553.503 5                  24908816.432
        33.800
 118831108.062 7  92595655.60744  22612792.298    22612782.9944
        42.700          28.0004
 121979136.474 7  95048703.43244  23211840.712    23211833.7534
        42.200          28.3004
 107810409.039 8  84008110.21546  20515637.083    20515628.1894
        50.300          41.8004
 110590265.579 8  86174218.20946  21044608.034    21044595.5074
        49.400          39.2004
 118195045.038 7  92099993.45645  22491765.513    22491756.6784
        44.100          31.0004
 121341332.444 7  94551703.21744  23090470.977    23090458.5674
        43.500          29.1004
 16  1  1  0  1 12.0000000  0  9G06G26G01G16G09G03G23G32G31
 124546616.256 6  97049288.62743  23700431.238    23700425.0994
        38.300          22.3004
 116200413.246 7  90545788.75645  22112190.178    22112182.9254
        44.900          33.8004
 130900067.436 5                  24909485.598
        33.900
 118828116.025 7  92593324.14444  22612222.040    22612213.3234
        42.700          28.0004
 121976224.748 7  95046434.55544  23211286.704    23211279.5694
        42.100          28.6004
 107811671.328 8  84009093.81146  20515877.169    20515869.2144
        50.100          41.8004
 110588662.781 8  86172969.27446  21044302.814    21044290.6394
        49.500          39.0004
 118198117.077 7  92102387.24445  22492350.428    22492341.2424
        44.500          31.4004
 121344558.502 7  94554217.03644  23091084.748    23091072.9824
        43.700          29.3004
 16  1  1  0  1 13.0000000  0  9G06G26G01G16G09G03G23G32G31
 124545699.358 6  97048574.16143  23700256.185    23700250.9834
        37.900          22.3004
 116199317.493 7  90544934.91945  22111981.636    22111974.3254
        44.700          33.9004
 130903581.325 5                  24910154.594
        34.500
 118825124.420 7  92590993.02144  22611653.055    22611644.2204
        42.100          27.2004
 121973313.159 7  95044165.78744  23210732.738    23210725.0764
        42.700          28.6004
 107812934.241 8  84010077.90046  20516117.674    20516109.4254
        50.400          41.9004
 110587060.298 8  86171720.58346  21043998.015    21043985.8404
        49.500          39.2004
 118201189.389 7  92104781.24845  22492934.517    22492926.0934
        44.600          31.0004
 121347784.774 7  94556731.01744  23091698.249    23091686.8354
        43.600          28.7004
 16  1  1  0  1 14.0000000  0  9G06G26G01G16G09G03G23G32G31
 124544782.868 6  97047860.01743  23700081.744    23700076.6604
        38.300          22.5004
 116198222.187 7  90544081.43645  22111773.046    22111766.5564
        44.700          34.2004
 130907094.988 5                  24910823.032
        34.200
 118822133.012 7  92588662.06044  22611083.738    22611075.0784
        42.600          27.7004
 121970401.524 7  95041896.98644  23210178.907    23210171.2444
        43.300          29.0004
 107814197.563 8  84011062.30746  20516358.322    20516349.4874
        50.500          41.7004
 110585457.914 8  86170471.97546  21043693.371    21043681.0194
        49.400          39.2004
 118204261.851 7  92107175.37145  22493519.078    22493510.7714
        44.600          31.1004
 121351011.033 7  94559244.98344  23092312.717    23092300.6004
        43.700          28.1004
 16  1  1  0  1 15.0000000  0  9G06G26G01G16G09G03G23G32G31
 124543867.348 6  97047146.63743  23699907.782    23699902.2304
        38.400          22.6004
 116197127.847 7  90543228.70445  22111565.356    22111558.1624
        44.900          34.1004
 130910609.014 5                  24911490.889
        33.600
 118819142.395 7  92586331.72744  22610514.695    22610505.7434
        42.200          27.6004
 121967490.395 7  95039628.58244  23209625.039    23209617.2004
        42.900          28.6004
 107815461.828 8  84012047.45146  20516598.296    20516590.2814
        50.300          41.7004
 110583856.185 8  86169223.87346  21043388.079    21043375.2594
        49.200          39.3004
 118207334.909 7  92109569.96845  22494103.883    22494095.4594
        44.600          30.7004
 121354237.867 7  94561759.40044  23092926.209    23092914.9714
        43.000          28.1004
 16  1  1  0  1 16.0000000  0  9G06G26G01G16G09G03G23G32G31
 124542952.341 6  97046433.65043  23699733.084    23699727.9414
        38.700          22.6004
 116196034.020 7  90542376.37445  22111356.903    22111350.0024
        44.700          34.0004
 130914122.848 5                  24912158.639
        33.100
 118816152.010 7  92584001.56744  22609945.682    22609937.3744
        42.100          28.1004
 121964579.181 7  95037360.11044  23209071.792    23209063.6024
        42.700          28.4004
 107816726.511 8  84013032.92146  20516839.145    20516830.8374
        50.300          41.7004
 110582254.574 8  86167975.86846  21043083.768    21043071.5334
        49.800          38.8004
 118210408.119 7  92111964.67445  22494689.042    22494680.2074
        44.600          30.9004
 121357464.675 7  94564273.79344  23093541.102    23093528.8094
        42.300          28.5004
 16  1  1  0  1 17.0000000  0  9G06G26G01G16G09G03G23G32G31
 124542037.892 6  97045721.09243  23699558.836    23699554.1044
        38.900          22.3004
 116194940.763 7  90541524.48445  22111149.023    22111142.0634
        44.200          34.0004
 130917636.562 5                  24912827.041
        33.600
 118813162.011 6  92581671.70044  22609376.325    22609368.3104
        41.600          28.0004
 121961668.049 7  95035091.69644  23208516.232    23208509.4484
        42.600          27.8004
 107817991.741 8  84014018.81247  20517080.047    20517071.5054
        50.500          42.0004
 110580653.201 8  86166728.04546  21042779.042    21042766.3984
        49.600          39.0004
 118213481.576 7  92114359.57445  22495273.757    22495264.9804
        44.000          30.9004
 121360691.667 7  94566788.32944  23094153.963    23094143.0184
        42.300          29.1004
 16  1  1  0  1 18.0000000  0  9G06G26G01G16G09G03G23G32G31
 124541124.290 6  97045009.18543  23699386.075    23699380.4054
        38.700          22.0004
 116193848.313 7  90540673.23045  22110941.002    22110933.9844
        44.700          34.1004
 130921150.508 5                  24913495.073
        32.800
 118810172.569 7  92579342.26944  22608807.595    22608798.9954
        42.000          27.3004
 121958757.244 7  95032823.54644  23207961.878    23207955.5634
        42.100          28.6004
 107819257.755 8  84015005.31247  20517320.865    20517312.4994
        50.400          42.0004
 110579052.291 8  86165480.58446  21042474.420    21042461.5994
        49.600          39.4004
 118216555.492 7  92116754.82845  22495858.607    22495850.0064
        44.100          30.8004
 121363919.012 7  94569303.14244  23094768.240    23094757.1774
        42.900          28.5004
 16  1  1  0  1 19.0000000  0  9G06G26G01G16G09G03G23G32G31
 124540211.277 6  97044297.73643  23699212.469    23699206.5644
        38.600          22.2004
 116192756.516 7  90539822.48145  22110733.239    22110726.4554
        44.900          34.1004
 130924664.388 5                  24914163.090
        32.500
 118807183.576 7  92577013.19144  22608238.450    22608230.2014
        42.500          27.7004
 121955846.583 7  95030555.49944  23207408.601    23207401.7004
        42.000          28.5004
 107820524.378 8  84015992.29746  20517562.244    20517553.6434
        50.000          41.9004
 110577451.698 8  86164233.36346  21042169.667    21042157.3164
        49.400          39.3004
 118219629.740 7  92119150.34145  22496443.967    22496435.4834
        44.300          30.5004
 121367146.572 7  94571818.11244  23095382.551    23095371.3124
        43.200          29.1004
 16  1  1  0  1 20.0000000  0  9G06G26G01G16G09G03G23G32G31
 124539298.775 6  97043586.70643  23699038.515    23699033.1384
        38.600          22.3004
 116191665.198 7  90538972.10745  22110525.372    22110518.4714
        44.800          34.3004
 130928178.060 5                  24914832.488
        33.200
 118804194.837 7  92574684.31744  22607669.998    22607661.8074
        42.600          28.3004
 121952935.894 6  95028287.43744  23206854.528    23206847.6854
        41.700          28.3004
 107821791.438 8  84016979.61146  20517803.026    20517794.4254
        50.100          41.9004
 110575851.225 8  86162986.24846  21041865.759    21041852.4114
        49.700          39.2004
 118222704.101 7  92121545.93745  22497028.747    22497020.2644
        44.300          30.6004
 121370374.155 7  94574333.11344  23095996.875    23095985.8714
        43.300          28.9004
 16  1  1  0  1 21.0000000  0  9G06G26G01G16G09G03G23G32G31
 124538387.017 6  97042876.26743  23698865.093    23698859.4234
        38.500          22.2004
 116190574.620 7  90538122.30145  22110318.159    22110310.9064
        44.600          33.6004
 130931691.842 5                  24915500.741
        32.000
 118801206.614 7  92572355.83444  22607101.575    22607092.7994
        42.500          28.4004
 121950025.440 6  95026019.55944  23206300.458    23206293.9094
        41.900          28.4004
 107823059.187 8  84017967.46446  20518044.229    20518035.6874
        50.200          41.9004
 110574251.147 8  86161739.43146  21041560.876    21041548.4074
        49.300          39.1004
 118225778.833 7  92123941.83445  22497614.263    22497605.2524
        44.500          30.6004
 121373602.028 7  94576848.33944  23096611.066    23096599.6524
        43.500          27.3004
 16  1  1  0  1 22.0000000  0  9G06G26G01G16G09G03G23G32G31
 124537475.986 6  97042166.38043  23698691.492    23698686.1154
        38.400          22.0004
 116189484.781 7  90537273.07545  22110110.617    22110103.4234
        44.700          33.8004
 130935205.708 5                  24916169.511
        32.500
 118798218.920 7  92570027.76344  22606532.058    22606524.2774
        42.500          26.8004
 121947115.215 7  95023751.86344  23205746.600    23205740.0514
        42.100          28.6004
 107824327.632 8  84018955.86747  20518285.722    20518277.6484
        50.200          42.0004
 110572651.454 8  86160492.92546  21041256.946    21041243.7154
        49.400          39.4004
 118228853.966 7  92126338.03545  22498199.284    22498190.1564
        44.500          30.7004
 121376830.184 7  94579363.77444  23097225.145    23097213.9654
        43.700          27.9004
 16  1  1  0  1 23.0000000  0  9G06G26G01G16G09G03G23G32G31
 124536565.489 6  97041456.90843  23698519.188    23698512.7564
        38.800          22.2004
 116188395.452 7  90536424.24445  22109903.192    22109896.3504
        44.900          33.8004
 130938719.412 5                  24916838.384
        32.200
 118795231.501 7  92567699.90844  22605963.846    22605955.4214
        42.800          27.5004
 121944204.975 7  95021484.15244  23205193.049    23205186.2074
        42.100          28.3004
 107825596.563 8  84019944.64247  20518527.159    20518518.3834
        50.500          42.1004
 110571051.938 8  86159246.55146  21040951.732    21040939.1464
        49.400          39.3004
 118231929.296 7  92128734.39644  22498784.662    22498775.8274
        44.500          29.9004
 121380058.400 7  94581879.26344  23097840.131    23097828.1904
        43.600          28.6004
 16  1  1  0  1 24.0000000  0  9G06G26G01G16G09G03G23G32G31
 124535655.605 6  97040747.89643  23698346.141    23698339.7094
        39.000          22.5004
 116187306.755 7  90535575.91945  22109696.264    22109688.7774
        45.000          34.0004
 130942233.060 5                  24917506.246
        32.600
 118792244.476 7  92565372.36444  22605396.169    22605386.9824
        42.900          28.6004
 121941294.876 7  95019216.54944  23204639.428    23204632.9964
        42.100          29.1004
 107826866.065 8  84020933.86447  20518768.440    20518760.1914
        50.500          42.2004
 110569452.680 8  86158000.37246  21040647.362    21040635.4214
        49.200          39.2004
 118235004.899 7  92131130.97145  22499369.999    22499360.6364
        44.700          30.2004
 121383286.799 7  94584394.88444  23098454.236    23098442.2364
        43.600          28.3004
 16  1  1  0  1 25.0000000  0  9G06G26G01G16G09G03G23G32G31
 124534746.352 6  97040039.38043  23698172.251    23698166.5224
        38.500          22.3004
 116186218.687 7  90534728.07945  22109489.230    22109481.9194
        45.000          33.8004
 130945746.756 5                  24918175.043
        32.500
 118789257.904 7  92563045.16444  22604828.064    22604819.0534
        42.700          28.3004
 121938384.901 7  95016949.03244  23204085.531    23204079.0994
        42.300          28.2004
 107828136.160 8  84021923.54747  20519010.235    20519002.0454
        50.400          42.3004
 110567853.710 8  86156754.42346  21040343.342    21040330.2294
        49.000          39.2004
 118238080.759 7  92133527.74145  22499954.919    22499946.2594
        44.700          30.5004
 121386515.350 7  94586910.60744  23099068.911    23099057.4394
        43.300          28.5004
 16  1  1  0  1 26.0000000  0  9G06G26G01G16G09G03G23G32G31
 124533837.662 6  97039331.31543  23697999.051    23697993.7914
        38.300          22.2004
 116185131.200 7  90533880.68345  22109282.306    22109275.2874
        45.200          34.0004
 130949260.286 5                  24918843.985
        32.200
 118786271.652 7  92560718.22044  22604259.843    22604250.8904
        42.900          27.2004
 121935475.000 6  95014681.58544  23203531.674    23203525.3014
        41.700          28.8004
 107829406.789 8  84022913.65147  20519252.202    20519244.1294
        50.200          42.0004
 110566254.994 8  86155508.67246  21040039.187    21040026.1904
        49.100          39.1004
 118241156.865 7  92135924.70845  22500540.515    22500531.5044
        44.400          30.4004
 121389744.046 7  94589426.45444  23099683.176    23099671.7624
        43.500          29.0004
 16  1  1  0  1 27.0000000  0  9G06G26G01G16G09G03G23G32G31
 124532929.738 6  97038623.83943  23697825.495    23697820.8214
        38.200          22.3004
 116184044.445 7  90533033.87145  22109075.524    22109068.3884
        44.800          33.6004
 130952773.938 5                  24919512.141
        32.000
 118783285.935 7  92558391.70144  22603691.820    22603682.4574
        42.600          27.4004
 121932565.334 6  95012414.32344  23202978.180    23202971.2204
        41.800          28.4004
 107830678.153 8  84023904.32847  20519493.987    20519485.7974
        50.000          42.0004
 110564656.661 8  86154263.21746  21039735.534    21039722.3034
        49.500          39.1004
 118244233.385 7  92138321.99145  22501125.700    22501117.1584
        44.400          30.9004
 121392973.042 7  94591942.51044  23100298.051    23100286.5194
        43.400          29.4004
 16  1  1  0  1 28.0000000  0  9G06G26G01G16G09G03G23G32G31
 124532022.336 6  97037916.76343  23697652.980    23697648.1894
        38.100          22.3004
 116182958.231 7  90532187.46745  22108868.702    22108861.6844
        44.600          33.3004
 130956287.440 5                  24920182.068
        32.300
 118780300.534 7  92556065.42544  22603123.354    22603114.4604
        42.500          27.1004
 121929655.702 7  95010147.08644  23202424.642    23202417.3314
        42.300          28.1004
 107831949.949 8  84024895.33446  20519735.518    20519727.8554
        50.200          41.9004
 110563058.495 8  86153017.90046  21039430.878    21039417.8824
        49.100          38.9004
 118247310.080 7  92140719.42045  22501711.960    22501702.4224
        44.400          30.4004
 121396202.096 7  94594458.61044  23100912.359    23100900.6524
        43.200          29.1004
 16  1  1  0  1 29.0000000  0  9G06G26G01G16G09G03G23G32G31
 124531115.595 6  97037210.19843  23697481.239    23697475.8044
        38.100          22.5004
 116181872.686 7  90531341.59045  22108662.467    22108655.0974
        44.500          33.4004
 130959800.963 5                  24920851.606
        32.600
 118777315.571 7  92553739.49144  22602555.559    22602546.2554
        42.600          27.6004
 121926746.204 7  95007879.94944  23201870.545    23201863.9374
        42.500          28.1004
 107833222.403 8  84025886.85447  20519977.946    20519969.7554
        50.300          42.1004
 110561460.658 8  86151772.83546  21039127.216    21039113.9264
        49.500          39.1004
 118250387.081 7  92143117.08645  22502296.715    22502288.3484
        43.800          30.5004
 121399431.378 7  94596974.89344  23101527.023    23101515.2574
        43.100          29.0004
 16  1  1  0  1 30.0000000  0  9G06G26G01G16G09G03G23G32G31
 124530209.492 6  97036504.14943  23697308.505    23697303.3624
        38.400          22.8004
 116180787.781 7  90530496.20545  22108455.820    22108448.6844
        44.700          33.6004
 130963314.455 5                  24921520.637
        33.200
 118774331.034 7  92551413.87644  22601987.592    22601978.1124
        43.100          27.1004
 121923836.873 7  95005612.93944  23201317.348    23201310.4474
        42.400          28.3004
 107834495.467 8  84026878.85747  20520220.176    20520212.1034
        50.500          42.1004
 110559863.118 8  86150527.99546  21038823.441    21038809.4484
        49.800          39.1004
 118253464.405 7  92145514.99545  22502881.545    22502873.2964
        43.500          30.8004
 121402660.851 7  94599491.32944  23102141.478    23102130.0064
        43.300          29.1004
 16  1  1  0  1 31.0000000  0  9G06G26G01G16G09G03G23G32G31
 124529304.043 6  97035798.61043  23697135.717    23697130.9844
        38.700          22.8004
 116179703.506 7  90529651.31945  22108248.877    22108242.1524
        44.300          33.6004
 130966827.876 5                  24922188.960
        34.000
 118771346.895 7  92549088.57944  22601419.865    22601410.1514
        43.100          26.6004
 121920927.664 7  95003346.03244  23200763.196    23200756.6474
        42.200          28.3004
 107835769.104 8  84027871.29447  20520462.922    20520454.8494
        50.400          42.1004
 110558265.882 8  86149283.40246  21038519.366    21038506.4294
        50.400          39.2004
 118256541.995 7  92147913.11845  22503467.559    22503459.1934
        43.800          31.2004
 121405890.499 7  94602007.89244  23102756.018    23102744.4294
        42.600          28.9004
 16  1  1  0  1 32.0000000  0  9G06G26G01G16G09G03G23G32G31
 124528399.289 6  97035093.62343  23696963.999    23696958.6814
        39.400          22.8004
 116178619.962 7  90528807.00445  22108042.907    22108035.8884
        44.300          33.7004
 130970341.459 5                  24922858.443
        33.900
 118768363.278 7  92546763.68544  22600851.720    22600842.7104
        43.100          26.4004
 121918018.671 6  95001079.28744  23200209.783    23200202.8234
        41.900          28.7004
 107837043.434 8  84028864.28147  20520705.418    20520697.0524
        50.200          42.1004
 110556668.992 8  86148039.07346  21038215.548    21038202.7284
        50.000          39.5004
 118259619.974 7  92150311.54245  22504053.185    22504044.5254
        43.000          30.6004
 121409120.434 7  94604524.67244  23103370.676    23103358.8524
        43.100          29.6004
 16  1  1  0  1 33.0000000  0  9G06G26G01G16G09G03G23G32G31
 124527495.061 6  97034389.03943  23696792.054    23696786.9124
        39.000          22.5004
 116177536.907 7  90527963.06945  22107836.413    22107830.2154
        44.800          33.9004
 130973854.847 5                  24923527.656
        33.700
 118765379.945 7  92544439.00744  22600283.723    22600274.5364
        42.800          27.1004
 121915109.678 6  94998812.54644  23199656.035    23199649.6624
        41.600          28.6004
 107838318.229 8  84029857.62647  20520948.166    20520939.9174
        50.000          42.1004
 110555072.262 8  86146794.87246  21037911.663    21037898.4914
        49.800          39.2004
 118262698.089 7  92152710.06445  22504638.722    22504630.4734
        43.600          31.2004
 121412350.412 7  94607041.47944  23103985.080    23103973.7834
        43.300          28.9004
 16  1  1  0  1 34.0000000  0  9G06G26G01G16G09G03G23G32G31
 124526591.322 6  97033684.82543  23696620.231    23696614.5614
        39.100          22.5004
 116176454.364 7  90527119.52745  22107630.858    22107624.0164
        45.100          34.1004
 130977367.981 5                  24924195.819
        33.500
 118762396.847 7  92542114.52344  22599716.313    22599707.1844
        42.800          26.3004
 121912200.642 6  94996545.76544  23199102.706    23199095.9224
        41.700          28.4004
 107839593.458 8  84030851.31546  20521190.740    20521182.1404
        50.000          41.9004
 110553475.681 8  86145550.78446  21037607.674    21037594.7364
        49.800          39.5004
 118265776.353 7  92155108.70745  22505224.950    22505216.6424
        43.800          30.5004
 121415580.410 7  94609558.30145  23104600.070    23104588.5394
        43.200          30.1004
 16  1  1  0  1 35.0000000  0  9G06G26G01G16G09G03G23G32G31
 124525688.527 6  97032981.35043  23696448.477    23696442.8664
        38.600          22.2004
 116175372.765 7  90526276.72845  22107425.180    22107418.0454
        44.900          34.0004
 130980881.469 5                  24924864.237
        33.600
 118759414.537 7  92539790.64544  22599149.107    22599139.7444
        42.500          27.1004
 121909292.082 7  94994279.36344  23198549.297    23198543.0414
        42.100          27.6004
 107840869.604 8  84031845.71547  20521433.481    20521425.1154
        50.000          42.1004
 110551879.723 8  86144307.17846  21037303.685    21037290.8654
        49.500          39.4004
 118268855.245 7  92157507.83845  22505810.338    22505802.5004
        43.400          30.4004
 121418810.923 7  94612075.52244  23105214.905    23105203.0814
        43.100          29.4004
 16  1  1  0  1 36.0000000  0  9G06G26G01G16G09G03G23G32G31
 124524786.282 6  97032278.28843  23696277.325    23696271.1864
        38.800          22.5004
 116174291.722 7  90525434.35845  22107219.438    22107212.3614
        44.900          33.9004
 130984394.847 5                  24925532.335
        33.500
 118756432.526 7  92537467.00844  22598581.338    22598572.4444
        42.300          26.9004
 121906383.548 7  94992012.97644  23197995.401    23197989.0274
        42.200          27.1004
 107842146.271 8  84032840.51347  20521676.840    20521668.3564
        50.200          42.1004
 110550283.955 8  86143063.72646  21037000.409    21036987.1194
        49.100          39.5004
 118271934.323 7  92159907.11445  22506396.143    22506388.1874
        43.000          30.4004
 121422041.586 7  94614592.86444  23105829.760    23105818.2294
        43.400          28.5004
 16  1  1  0  1 37.0000000  0  9G06G26G01G16G09G03G23G32G31
 124523884.588 6  97031575.68243  23696105.804    23696099.6654
        38.600          22.2004
 116173211.240 7  90524592.42045  22107014.062    22107006.6334
        44.700          33.6004
 130987908.139 5                  24926201.404
        34.300
 118753450.849 7  92535143.62844  22598013.939    22598004.9864
        42.300          27.1004
 121903475.089 6  94989746.65444  23197442.092    23197435.4844
        41.600          28.0004
 107843423.436 8  84033835.71146  20521919.828    20521911.1104
        49.600          41.9004
 110548688.408 8  86141820.44546  21036696.386    21036683.6244
        48.600          39.8004
 118275013.605 7  92162306.55545  22506982.649    22506974.4004
        43.600          30.1004
 121425272.301 7  94617110.25444  23106444.603    23106433.3064
        43.300          28.6004
 16  1  1  0  1 38.0000000  0  9G06G26G01G16G09G03G23G32G31
 124522983.581 6  97030873.60543  23695934.520    23695928.4984
        38.800          22.3004
 116172131.397 7  90523750.98045  22106807.980    22106801.1374
        44.800          34.0004
 130991421.400 5                  24926869.382
        33.500
 118750469.643 7  92532820.60944  22597446.396    22597437.3854
        42.700          27.0004
 121900566.773 6  94987480.44444  23196888.629    23196882.1384
        41.700          28.3004
 107844701.229 8  84034831.39646  20522162.741    20522154.7264
        49.500          41.7004
 110547093.168 8  86140577.40046  21036392.714    21036379.7174
        49.100          39.4004
 118278093.226 7  92164706.26445  22507568.544    22507560.5884
        44.100          30.6004
 121428503.262 7  94619627.82644  23107059.682    23107048.0924
        43.000          29.3004
 16  1  1  0  1 39.0000000  0  9G06G26G01G16G09G03G23G32G31
 124522083.114 6  97030171.94443  23695762.885    23695756.9804
        39.000          22.8004
 116171052.162 7  90522910.02645  22106603.172    22106595.7444
        45.200          34.0004
 130994934.599 5                  24927538.956
        34.100
 118747488.751 7  92530497.84244  22596879.410    22596870.5754
        42.900          27.2004
 121897658.506 6  94985214.27044  23196335.130    23196328.5814
        41.700          29.0004
 107845979.539 8  84035827.47846  20522406.173    20522397.3974
        50.000          41.8004
 110545498.140 8  86139334.52146  21036089.428    21036076.7244
        49.300          39.6004
 118281173.043 7  92167106.11945  22508154.299    22508146.8124
        43.600          30.4004
 121431734.364 7  94622145.50944  23107674.967    23107662.9084
        43.100          28.8004
 16  1  1  0  1 40.0000000  0  9G06G26G01G16G09G03G23G32G31
 124521183.412 6  97029470.87043  23695592.054    23695585.5634
        39.400          22.8004
 116169973.647 7  90522069.62445  22106397.415    22106390.7484
        45.200          33.6004
 130998447.863 5                  24928206.883
        34.300
 118744508.377 7  92528175.47844  22596312.468    22596302.9884
        42.600          27.5004
 121894750.503 6  94982948.29744  23195781.986    23195775.3194
        41.800          28.2004
 107847258.578 8  84036824.12646  20522649.159    20522641.1454
        50.000          41.9004
 110543903.513 8  86138091.95246  21035786.177    21035772.7704
        49.300          39.5004
 118284253.297 7  92169506.31645  22508740.595    22508732.6394
        43.700          30.6004
 121434965.766 7  94624663.41644  23108289.362    23108277.8904
        42.900          29.3004
 16  1  1  0  1 41.0000000  0  9G06G26G01G16G09G03G23G32G31
 124520284.245 6  97028770.23143  23695420.624    23695414.4854
        39.200          22.0004
 116168895.695 7  90521229.66245  22106192.206    22106185.4814
        45.100          33.3004
 131001960.995 5                  24928875.452
        33.500
 118741528.398 7  92525853.41844  22595745.912    22595735.7294
        43.000          27.2004
 121891842.536 7  94980682.35344  23195228.567    23195222.1354
        42.300          28.6004
 107848538.118 8  84037821.17646  20522892.874    20522884.2154
        49.900          41.9004
 110542309.094 8  86136849.55746  21035483.140    21035469.4404
        49.500          39.2004
 118287333.731 7  92171906.65145  22509327.250    22509318.8844
        43.800          30.2004
 121438197.273 7  94627181.41144  23108904.502    23108892.6204
        43.100          29.4004
 16  1  1  0  1 42.0000000  0  9G06G26G01G16G09G03G23G32G31
 124519385.815 6  97028070.15343  23695249.177    23695243.7424
        39.600          22.2004
 116167818.462 7  90520390.25645  22105987.668    22105980.3574
        44.900          33.3004
 131005474.236 5                  24929544.335
        33.800
 118738548.872 7  92523531.71444  22595178.647    22595168.6404
        43.400          26.8004
 121888934.782 7  94978416.57244  23194675.796    23194669.0134
        42.400          27.9004
 107849818.328 8  84038818.73947  20523136.666    20523128.1244
        50.000          42.0004
 110540715.048 8  86135607.44146  21035179.907    21035166.5004
        49.900          39.3004
 118290414.550 7  92174307.28145  22509912.756    22509905.1524
        44.000          31.3004
 121441429.081 7  94629699.65144  23109519.935    23109507.8174
        43.600          29.4004
 16  1  1  0  1 43.0000000  0  9G06G26G01G16G09G03G23G32G31
 124518487.787 6  97027370.37943  23695078.704    23695072.6834
        39.200          22.3004
 116166741.629 7  90519551.17045  22105782.743    22105775.6674
        45.200          33.6004
 131008987.135 5                  24930213.316
        33.300
 118735569.528 7  92521210.15044  22594611.517    22594601.5694
        43.400          26.0004
 121886026.934 7  94976150.71844  23194122.547    23194115.3534
        42.800          28.5004
 107851098.897 8  84039816.59046  20523380.760    20523371.6324
        49.600          41.8004
 110539121.045 8  86134365.36746  21034876.042    21034862.4604
        49.400          39.3004
 118293495.400 7  92176707.93445  22510499.348    22510491.3924
        44.100          31.9004
 121444660.829 7  94632217.85044  23110133.996    23110123.0514
        43.000          29.3004
 16  1  1  0  1 44.0000000  0  9G06G26G01G16G09G03G23G32G31
 124517590.541 6  97026671.21843  23694907.458    23694901.4954
        39.000          22.6004
 116165665.606 7  90518712.70845  22105578.102    22105570.6744
        45.500          33.1004
 131012500.188 5                  24930880.442
        33.100
 118732590.782 7  92518889.05144  22594044.421    22594034.9424
        43.600          26.8004
 121883119.359 7  94973885.08444  23193568.545    23193561.9954
        42.000          27.5004
 107852380.227 8  84040815.02646  20523624.091    20523615.7254
        49.900          41.9004
 110537527.507 8  86133123.64846  21034572.567    21034559.8054
        49.600          39.3004
 118296576.739 7  92179108.98145  22511085.516    22511077.8534
        43.400          31.5004
 121447892.952 7  94634736.35344  23110749.555    23110737.5554
        42.500          29.4004
 16  1  1  0  1 45.0000000  0  9G06G26G01G16G09G03G23G32G31
 124516693.987 6  97025972.62643  23694736.737    23694731.0674
        39.000          22.5004
 116164590.240 7  90517874.76545  22105373.851    22105366.0714
        45.900          33.6004
 131016013.324 5                  24931548.611
        33.700
 118729612.498 7  92516568.31444  22593477.969    22593468.6064
        43.200          27.3004
 121880211.986 6  94971619.60144  23193015.360    23193008.8694
        41.800          28.8004
 107853662.189 8  84041813.95847  20523867.577    20523859.5044
        49.400          42.1004
 110535934.291 8  86131882.18346  21034269.441    21034256.8554
        49.100          39.4004
 118299658.384 7  92181510.26145  22511671.970    22511664.0724
        43.500          31.9004
 121451125.323 7  94637255.04445  23111364.238    23111353.0584
        42.500          30.1004
 16  1  1  0  1 46.0000000  0  9G06G26G01G16G09G03G23G32G31
 124515797.821 6  97025274.32443  23694565.431    23694560.3474
        38.500          22.3004
 116163515.301 7  90517037.15045  22105168.957    22105161.7054
        45.800          33.4004
 131019526.121 5                  24932217.208
        33.100
 118726634.372 7  92514247.69944  22592910.750    22592901.5634
        43.100          26.4004
 121877304.504 7  94969354.04444  23192462.173    23192455.5654
        42.200          28.4004
 107854944.530 8  84042813.18347  20524111.496    20524103.7164
        49.600          42.3004
 110534341.142 8  86130640.76846  21033966.412    21033953.8264
        49.100          39.5004
 118302740.100 7  92183911.59345  22512258.116    22512250.7464
        43.300          31.0004
 121454357.644 7  94639773.70344  23111979.475    23111968.5894
        42.200          29.6004
 16  1  1  0  1 47.0000000  0  9G06G26G01G16G09G03G23G32G31
 124514902.609 6  97024576.76043  23694395.115    23694390.2654
        38.900          22.2004
 116162441.312 7  90516200.27845  22104964.776    22104957.3484
        45.600          33.7004
 131023039.199 5                  24932885.693
        33.000
 118723656.984 7  92511927.66244  22592344.050    22592335.1574
        42.700          27.1004
 121874397.436 7  94967088.79944  23191908.721    23191902.4654
        42.100          28.9004
 107856227.734 8  84043813.08447  20524356.176    20524347.7514
        49.400          42.1004
 110532748.563 8  86129399.79946  21033662.557    21033650.6164
        49.600          39.3004
 118305822.370 7  92186313.36245  22512845.070    22512837.1144
        43.200          31.2004
 121457590.466 6  94642292.76544  23112595.015    23112583.9534
        41.700          29.5004
 16  1  1  0  1 48.0000000  0  9G06G26G01G16G09G03G23G32G31
 124514007.703 6  97023879.42843  23694224.394    23694219.7204
        38.600          21.8004
 116161367.562 7  90515363.59145  22104760.341    22104753.2064
        45.900          33.8004
 131026551.951 5                  24933553.586
        32.300
 118720679.641 7  92509607.66244  22591778.041    22591768.4444
        42.600          27.5004
 121871490.159 7  94964823.39344  23191355.092    23191349.0704
        42.000          28.3004
 107857511.214 8  84044813.19947  20524600.368    20524592.1784
        49.800          42.2004
 110531155.948 8  86128158.79746  21033359.891    21033347.3634
        49.400          39.5004
 118308904.608 7  92188715.09845  22513431.083    22513423.4794
        43.800          31.1004
 121460823.117 7  94644811.68044  23113209.934    23113199.0474
        42.100          29.5004
 16  1  1  0  1 49.0000000  0  9G06G26G01G16G09G03G23G32G31
 124513113.786 6  97023182.86143  23694055.281    23694050.0214
        38.100          22.2004
 116160294.904 7  90514527.75545  22104556.151    22104548.6054
        45.600          33.7004
 131030065.021 5                  24934222.369
        32.600
 118717703.167 7  92507288.34144  22591211.304    22591202.0594
        42.500          27.4004
 121868583.430 7  94962558.41144  23190801.895    23190796.0494
        42.000          28.4004
 107858795.672 8  84045814.07747  20524844.617    20524836.4854
        49.800          42.1004
 110529564.025 8  86126918.33646  21033056.621    21033044.5044
        49.200          39.6004
 118311987.546 7  92191117.38345  22514017.944    22514010.4574
        43.400          30.9004
 121464056.387 7  94647331.08744  23113825.420    23113814.2994
        42.700          29.8004
 16  1  1  0  1 50.0000000  0  9G06G26G01G16G09G03G23G32G31
 124512220.429 6  97022486.73043  23693884.738    23693879.6544
        38.400          22.6004
 116159222.773 7  90513692.33545  22104352.249    22104344.6454
        45.300          33.4004
 131033577.974 5                  24934890.223
        32.400
 118714726.989 7  92504969.25644  22590644.247    22590635.2364
        42.400          27.0004
 121865676.729 7  94960293.46344  23190248.914    23190242.7754
        42.000          29.1004
 107860080.645 8  84046815.34947  20525089.024    20525080.6004
        49.700          42.3004
 110527972.286 8  86125678.02646  21032753.682    21032741.1544
        49.500          39.3004
 118315070.684 7  92193519.82745  22514605.343    22514597.4464
        42.900          30.7004
 121467289.751 7  94649850.56544  23114440.073    23114429.5384
        42.300          29.9004
 16  1  1  0  1 51.0000000  0  9G06G26G01G16G09G03G23G32G31
 124511327.589 6  97021791.02643  23693715.262    23693709.6504
        38.300          22.5004
 116158151.121 7  90512857.28045  22104148.640    22104140.6254
        45.200          33.6004
 131037090.804 5                  24935559.236
        31.600
 118711751.040 7  92502650.33344  22590078.817    22590069.0454
        42.700          27.3004
 121862769.999 7  94958028.47844  23189696.026    23189689.6524
        42.100          29.1004
 107861366.055 8  84047816.96647  20525334.098    20525325.7324
        49.600          42.3004
 110526380.713 8  86124437.84446  21032451.458    21032438.3444
        49.700          39.0004
 118318153.933 7  92195922.35545  22515192.082    22515184.0094
        43.300          30.6004
 121470523.159 7  94652370.07044  23115055.729    23115044.7264
        42.400          29.9004
 16  1  1  0  1 52.0000000  0  9G06G26G01G16G09G03G23G32G31
 124510435.360 6  97021095.78743  23693545.491    23693540.2904
        38.600          22.8004
 116157080.119 7  90512022.73245  22103944.664    22103937.5294
        44.700          33.5004
 131040603.562 5                  24936225.948
        30.800
 118708775.574 7  92500331.78844  22589512.366    22589502.9454
        42.300          27.0004
 121859863.407 6  94955763.60844  23189142.712    23189136.4554
        41.700          28.5004
 107862652.063 8  84048819.05847  20525578.587    20525570.2794
        49.600          42.3004
 110524789.396 8  86123197.85946  21032148.700    21032135.5284
        49.900          39.0004
 118321237.484 7  92198325.12445  22515778.830    22515770.6984
        43.500          30.9004
 121473756.750 7  94654889.72944  23115670.941    23115659.8204
        42.500          28.8004
 16  1  1  0  1 53.0000000  0  9G06G26G01G16G09G03G23G32G31
 124509543.943 6  97020401.17543  23693376.068    23693370.3394
        38.800          22.9004
 116156009.908 7  90511188.79745  22103740.670    22103732.9484
        44.700          33.6004
 131044116.489 5                  24936893.937
        31.200
 118705800.612 7  92498013.64544  22588946.193    22588936.8304
        42.700          27.7004
 121856957.110 6  94953498.96944  23188589.180    23188583.3344
        41.500          28.2004
 107863938.804 8  84049821.70947  20525823.324    20525815.7784
        49.700          42.3004
 110523198.541 8  86121958.22946  21031845.887    21031832.6564
        49.600          39.1004
 118324321.459 7  92200728.22145  22516365.986    22516357.5614
        43.800          31.4004
 121476990.666 7  94657409.63445  23116285.767    23116275.3494
        42.500          30.0004
 16  1  1  0  1 54.0000000  0  9G06G26G01G16G09G03G23G32G31
 124508653.127 6  97019707.04043  23693206.854    23693200.5984
        38.400          22.9004
 116154940.298 7  90510355.33845  22103537.934    22103529.4514
        44.900          33.6004
 131047629.345 5                  24937561.914
        30.800
 118702826.096 7  92495695.83744  22588380.134    22588370.8894
        42.700          26.7004
 121854050.886 7  94951234.39144  23188036.695    23188030.4394
        42.000          27.9004
 107865226.146 8  84050824.83147  20526068.257    20526060.3604
        49.500          42.2004
 110521607.939 8  86120718.79846  21031543.950    21031530.4854
        49.800          39.1004
 118327405.731 7  92203131.54845  22516952.913    22516944.3714
        44.000          31.1004
 121480224.780 7  94659929.70344  23116902.043    23116891.0984
        42.900          29.4004
 16  1  1  0  1 55.0000000  0  9G06G26G01G16G09G03G23G32G31
 124507762.884 6  97019013.35143  23693037.362    23693031.0484
        38.500          22.9004
 116153871.297 7  90509522.35245  22103333.689    22103326.4374
        44.700          33.0004
 131051142.146 5                  24938231.103
        31.500
 118699851.954 7  92493378.33144  22587814.311    22587805.0654
        42.700          28.2004
 121851144.787 7  94948969.90144  23187484.093    23187477.2504
        42.100          27.8004
 107866514.011 8  84051828.36147  20526313.672    20526305.2484
        49.900          42.3004
 110520017.576 8  86119479.55946  21031240.771    21031228.0684
        50.400          39.0004
 118330490.236 7  92205535.05945  22517539.963    22517531.2464
        43.800          31.7004
 121483459.031 7  94662449.87744  23117518.096    23117506.5064
        42.800          29.3004
 16  1  1  0  1 56.0000000  0  9G06G26G01G16G09G03G23G32G31
 124506873.272 6  97018320.14043  23692868.233    23692861.8604
        39.000          22.6004
 116152802.947 7  90508689.87245  22103129.803    22103122.8434
        44.400          33.2004
 131054654.869 5                  24938900.543
        31.900
 118696878.230 7  92491061.14444  22587248.583    22587239.0454
        42.700          27.7004
 121848238.817 7  94946705.51444  23186931.000    23186924.1574
        42.300          27.6004
 107867802.500 8  84052832.37747  20526558.771    20526550.3474
        49.800          42.4004
 110518427.536 8  86118240.56846  21030938.544    21030925.0784
        50.000          39.3004
 118333575.042 7  92207938.79845  22518127.093    22518118.7274
        43.900          31.8004
 121486693.512 7  94664970.24644  23118133.662    23118122.4834
        43.000          28.8004
 16  1  1  0  1 57.0000000  0  9G06G26G01G16G09G03G23G32G31
 124505984.387 6  97017627.49243  23692699.161    23692692.9054
        39.300          22.6004
 116151735.243 7  90507857.90045  22102926.486    22102919.9374
        44.000          32.8004
 131058167.623 5                  24939568.787
        32.500
 118693904.947 7  92488744.30744  22586682.437    22586672.8404
        42.000          28.5004
 121845332.991 7  94944441.23244  23186377.675    23186371.3014
        42.100          28.5004
 107869091.583 8  84053836.85847  20526803.614    20526795.6004
        49.900          42.3004
 110516837.797 8  86117001.81146  21030635.702    21030622.7644
        50.000          39.4004
 118336660.148 7  92210342.77645  22518714.103    22518705.5034
        43.800          31.4004
 121489928.189 7  94667490.75044  23118749.502    23118737.9124
        43.300          29.3004
 16  1  1  0  1 58.0000000  0  9G06G26G01G16G09G03G23G32G31
 124505096.048 6  97016935.28243  23692530.284    23692523.6184
        38.600          22.8004
 116150668.146 7  90507026.39745  22102723.602    22102716.6424
        44.000          32.9004
 131061680.348 5                  24940237.543
        33.300
 118690932.035 7  92486427.75744  22586116.654    22586107.8774
        42.100          28.1004
 121842427.261 6  94942177.02544  23185824.664    23185817.8804
        41.700          28.8004
 107870381.235 8  84054841.78947  20527049.333    20527041.0844
        49.900          42.3004
 110515248.311 8  86115763.25546  21030333.395    21030320.2224
        50.000          39.2004
 118339745.523 7  92212746.96245  22519301.206    22519292.5474
        43.900          31.2004
 121493162.993 7  94670011.36244  23119364.395    23119353.3334
        43.000          29.4004
 16  1  1  0  1 59.0000000  0  9G06G26G01G16G09G03G23G32G31
 124504208.081 6  97016243.35443  23692361.237    23692354.8634
        38.300          22.8004
 116149601.414 7  90506195.17745  22102520.612    22102513.7704
        43.800          32.8004
 131065192.664 5                  24940906.027
        32.800
 118687959.287 7  92484111.33344  22585550.785    22585541.5994
        42.200          28.2004
 121839521.396 6  94939912.72644  23185272.081    23185265.4734
        41.900          29.1004
 107871671.205 8  84055846.95947  20527294.806    20527286.7334
        49.900          42.6004
 110513658.822 8  86114524.68846  21030030.684    21030017.7464
        50.000          39.5004
 118342830.879 7  92215151.13345  22519888.342    22519880.0934
        43.900          30.8004
 121496397.732 7  94672531.91544  23119979.808    23119968.8634
        43.000          29.8004
 16  1  1  0  2  0.0000000  0  9G06G26G01G16G09G03G23G32G31
 124503321.173 6  97015552.27344  23692192.393    23692185.3754
        38.400          24.3004
 116148535.732 7  90505364.77245  22102318.057    22102311.3904
        44.000          33.1004
 131068705.441 5                  24941574.752
        32.400
 118684987.343 7  92481795.53644  22584985.211    22584976.2004
        42.200          27.4004
 121836616.073 7  94937648.84744  23184719.329    23184712.4284
        42.000          28.3004
 107872962.186 8  84056852.91347  20527540.531    20527532.4584
        49.500          42.5004
 110512070.047 8  86113286.68146  21029728.395    21029715.1064
        49.900          39.6004
 118345916.970 7  92217555.88445  22520475.885    22520466.9914
        43.900          31.6004
 121499633.103 7  94675052.97144  23120595.584    23120584.8734
        43.000          29.2004
 16  1  1  0  2  1.0000000  0  9G06G26G01G16G09G03G23G32G31
 124502434.667 6  97014861.48043  23692023.591    23692016.9844
        38.800          23.2004
 116147470.465 7  90504534.69445  22102114.986    22102108.5544
        44.100          32.7004
 131072217.984 5                  24942243.556
        32.400
 118682015.635 6  92479479.92644  22584419.750    22584410.9744
        41.800          28.0004
 121833710.654 6  94935384.88544  23184165.062    23184159.3334
        41.300          27.6004
 107874253.527 8  84057859.15647  20527786.210    20527777.9024
        49.200          42.3004
 110510481.336 8  86112048.73046  21029426.206    21029412.5654
        49.900          39.7004
 118349003.111 7  92219960.66345  22521062.665    22521054.2994
        43.700          31.6004
 121502868.409 7  94677573.98044  23121211.074    23121200.3044
        43.000          29.1004
 16  1  1  0  2  2.0000000  0  9G06G26G01G16G09G03G23G32G31
 124501548.968 6  97014171.32243  23691855.648    23691848.5134
        38.700          22.8004
 116146405.958 7  90503705.20445  22101912.453    22101905.6694
        43.500          32.6004
 131075730.576 5                  24942913.485
        32.000
 118679044.437 7  92477164.71344  22583854.722    22583845.4184
        42.100          27.8004
 121830805.502 6  94933121.13344  23183613.340    23183606.6154
        41.700          27.4004
 107875545.601 8  84058865.96747  20528031.623    20528024.0774
        49.300          42.2004
 110508893.060 8  86110811.11646  21029123.508    21029110.6294
        50.000          39.3004
 118352089.666 7  92222365.76045  22521649.839    22521641.4724
        43.400          30.2004
 121506104.056 7  94680095.26044  23121827.408    23121816.2284
        42.700          28.4004
 16  1  1  0  2  3.0000000  0  9G06G26G01G16G09G03G23G32G31
 124500663.525 6  97013481.37143  23691686.895    23691679.9364
        38.900          22.8004
 116145341.801 7  90502876.00045  22101709.869    22101703.5554
        43.300          32.8004
 131079242.851 5                  24943581.015
        31.600
 118676073.354 6  92474849.59044  22583289.469    22583279.8134
        41.900          27.9004
 121827900.173 6  94930857.24844  23183060.670    23183053.4764
        41.600          27.9004
 107876837.954 8  84059872.99347  20528277.636    20528269.3884
        49.300          42.2004
 110507304.748 8  86109573.47546  21028822.266    21028808.1564
        49.700          39.1004
 118355176.203 7  92224770.85345  22522237.869    22522229.0344
        43.100          30.2004
 121509339.593 7  94682616.45144  23122442.785    23122431.6064
        42.700          28.8004
 16  1  1  0  2  4.0000000  0  9G06G26G01G16G09G03G23G32G31
 124499779.122 6  97012792.22844  23691518.492    23691512.0604
        39.500          24.0004
 116144278.593 7  90502047.52545  22101508.024    22101500.9474
        43.400          32.7004
 131082755.438 5                  24944248.867
        32.200
 118673103.053 7  92472535.07544  22582723.806    22582714.9124
        42.000          27.8004
 121824995.309 6  94928593.72144  23182507.731    23182501.1814
        41.500          27.7004
 107878131.242 8  84060880.75647  20528523.919    20528516.2574
        49.100          42.2004
 110505717.073 8  86108336.32146  21028519.944    21028506.3034
        50.200          39.4004
 118358263.373 7  92227176.43745  22522824.966    22522816.2484
        43.600          30.4004
 121512575.646 7  94685138.03944  23123058.377    23123047.3744
        42.300          28.4004
 16  1  1  0  2  5.0000000  0  9G06G26G01G16G09G03G23G32G31
 124498895.050 6  97012103.34843  23691350.489    23691343.4124
        38.800          22.8004
 116143215.775 7  90501219.35645  22101304.819    22101298.6804
        43.800          33.1004
 131086267.750 5                  24944917.052
        31.600
 118670132.883 7  92470220.66044  22582159.132    22582149.6524
        42.100          27.9004
 121822090.331 6  94926330.10744  23181954.567    23181948.1354
        41.400          28.0004
 107879424.848 8  84061888.75147  20528770.266    20528761.9594
        48.800          42.4004
 110504129.439 8  86107099.21246  21028218.083    21028204.4424
        49.900          39.5004
 118361350.561 7  92229582.04345  22523412.707    22523403.5204
        43.700          30.9004
 121515811.631 7  94687659.59344  23123674.744    23123663.4474
        42.200          29.0004
 16  1  1  0  2  6.0000000  0  9G06G26G01G16G09G03G23G32G31
 124498011.835 6  97011415.13443  23691181.777    23691175.4624
        38.600          22.9004
 116142153.815 7  90500391.85845  22101103.542    22101096.6414
        44.000          33.0004
 131089780.202 5                  24945584.710
        31.200
 118667163.361 7  92467906.75844  22581593.957    22581584.5944
        42.200          28.1004
 121819185.667 6  94924066.75244  23181401.767    23181395.3354
        41.200          28.1004
 107880719.293 8  84062897.41347  20529016.412    20529008.4564
        49.200          42.5004
 110502542.289 8  86105862.47246  21027916.081    21027901.9134
        50.000          39.2004
 118364438.256 7  92231988.03345  22524000.161    22523991.3264
        43.800          30.2004
 121519048.036 7  94690181.46244  23124289.869    23124279.2174
        42.500          29.2004
 16  1  1  0  2  7.0000000  0  9G06G26G01G16G09G03G23G32G31
 124497129.065 6  97010727.26343  23691013.897    23691007.4064
        38.300          22.6004
 116141092.299 7  90499564.70145  22100901.166    22100894.6764
        44.300          33.3004
 131093292.450 5                  24946253.519
        32.200
 118664194.092 6  92465593.04344  22581029.213    22581019.9674
        41.800          27.8004
 121816280.953 6  94921803.33344  23180848.892    23180842.6364
        41.600          28.4004
 107882014.132 8  84063906.38247  20529262.981    20529254.8494
        49.800          42.7004
 110500955.266 8  86104625.83246  21027613.564    21027600.1574
        49.900          39.2004
 118367526.071 7  92234394.11645  22524587.233    22524579.0434
        43.800          30.1004
 121522284.441 7  94692703.33844  23124905.641    23124895.1074
        42.600          28.9004
 16  1  1  0  2  8.0000000  0  9G06G26G01G16G09G03G23G32G31
 124496247.125 6  97010040.02443  23690846.289    23690839.8574
        38.200          23.0004
 116140031.540 7  90498738.13245  22100699.196    22100692.5884
        44.900          33.2004
 131096804.746 5                  24946921.222
        30.800
 118661225.344 7  92463279.73444  22580464.017    22580454.9484
        42.100          28.1004
 121813376.525 6  94919540.14744  23180296.443    23180290.3634
        41.300          28.2004
 107883309.668 8  84064915.88647  20529509.498    20529501.6014
        50.200          42.3004
 110499368.629 8  86103389.48946  21027311.174    21027297.8854
        50.000          39.1004
 118370614.248 7  92236800.48945  22525175.239    22525166.6394
        44.100          30.4004
 121525521.129 7  94695225.44144  23125522.093    23125510.7964
        42.700          28.9004
 16  1  1  0  2  9.0000000  0  9G06G26G01G16G09G03G23G32G31
 124495365.968 6  97009353.40643  23690678.048    23690672.5544
        38.100          22.0004
 116138971.675 7  90497912.26345  22100497.233    22100491.0944
        44.800          32.9004
 131100317.337 5                  24947589.153
        31.600
 118658257.241 7  92460966.92444  22579899.290    22579889.9284
        42.000          27.9004
 121810472.414 6  94917277.20244  23179743.207    23179737.7134
        40.800          27.8004
 107884606.048 8  84065926.05347  20529756.052    20529747.9794
        49.900          42.3004
 110497782.531 8  86102153.56746  21027009.958    21026996.9044
        49.900          39.2004
 118373702.980 7  92239207.29345  22525762.684    22525754.5534
        43.900          30.6004
 121528758.282 7  94697747.90544  23126138.117    23126127.3484
        42.600          28.9004
 16  1  1  0  2 10.0000000  0  9G06G26G01G16G09G03G23G32G31
 124494484.988 6  97008666.93043  23690510.445    23690504.3644
        38.700          22.5004
 116137911.934 7  90497086.49845  22100296.372    22100289.7644
        44.300          33.0004
 131103829.316 5                  24948255.989
        30.700
 118655289.066 7  92458654.06444  22579334.851    22579325.3134
        42.600          27.8004
 121807567.966 6  94915014.00244  23179191.511    23179185.4304
        40.700          27.9004
 107885902.521 8  84066936.28847  20530002.975    20529994.8444
        49.700          42.4004
 110496196.217 8  86100917.48646  21026708.370    21026694.4354
        49.700          39.4004
 118376791.499 7  92241613.93945  22526350.689    22526342.2644
        43.700          30.6004
 121531995.117 7  94700270.11744  23126753.509    23126742.9154
        42.500          27.9004
 16  1  1  0  2 11.0000000  0  9G06G26G01G16G09G03G23G32G31
 124493605.091 6  97007981.28543  23690342.507    23690336.9554
        38.700          22.5004
 116136853.311 7  90496261.60345  22100095.238    22100087.8094
        44.600          32.6004
 131107341.777 5                  24948924.680
        30.700
 118652321.788 6  92456341.91444  22578769.782    22578760.9474
        41.500          28.6004
 121804664.124 6  94912751.27844  23178638.742    23178632.5454
        40.900          28.9004
 107887200.057 8  84067947.35847  20530249.956    20530241.4724
        49.400          42.4004
 110494610.665 8  86099681.99546  21026406.663    21026392.7294
        49.600          39.3004
 118379880.770 7  92244021.15845  22526938.061    22526930.2814
        43.900          30.2004
 121535232.587 7  94702792.83244  23127369.455    23127358.9214
        42.800          28.4004
 16  1  1  0  2 12.0000000  0  9G06G26G01G16G09G03G23G32G31
 124492725.610 6  97007295.97343  23690175.311    23690169.6414
        38.300          22.6004
 116135795.060 7  90495436.99245  22099894.153    22099886.1394
        44.600          32.9004
 131110854.016 5                  24949593.097
        31.000
 118649354.662 6  92454029.88044  22578205.045    22578196.0344
        41.600          28.1004
 121801760.163 6  94910488.46244  23178085.954    23178079.9324
        40.400          28.6004
 107888497.950 8  84068958.70747  20530497.504    20530488.7864
        49.300          42.3004
 110493025.158 8  86098446.52846  21026104.451    21026091.1624
        49.900          39.3004
 118382970.076 7  92246428.40645  22527525.697    22527518.2684
        43.800          30.0004
 121538470.022 7  94705315.50644  23127985.397    23127975.3324
        43.100          28.8004
 16  1  1  0  2 13.0000000  0  9G06G26G01G16G09G03G23G32G31
 124491846.760 6  97006611.15443  23690008.345    23690002.4404
        37.900          22.8004
 116134737.469 7  90494612.89545  22099692.358    22099685.1064
        44.900          32.8004
 131114366.136 5                  24950261.268
        30.700
 118646387.972 6  92451718.18144  22577640.664    22577631.6534
        41.400          28.4004
 121798856.305 6  94908225.72044  23177533.252    23177527.2314
        40.800          27.5004
 107889796.411 8  84069970.49647  20530743.838    20530735.4724
        49.600          42.3004
 110491439.930 8  86097211.29246  21025802.830    21025789.5414
        49.600          39.3004
 118386059.674 7  92248835.88045  22528114.216    22528106.2604
        44.100          30.4004
 121541707.620 7  94707838.30044  23128601.715    23128591.0054
        43.000          28.6004
 16  1  1  0  2 14.0000000  0  9G06G26G01G16G09G03G23G32G31
 124490968.565 6  97005926.86543  23689841.338    23689835.3164
        38.400          22.2004
 116133680.575 7  90493789.34545  22099491.930    22099484.3854
        44.900          33.2004
 131117878.346 4                  24950930.115
        29.600
 118643421.778 6  92449406.86444  22577076.216    22577067.4394
        41.800          27.9004
 121795952.685 6  94905963.16544  23176981.156    23176974.7834
        40.700          28.6004
 107891095.552 8  84070982.81047  20530991.294    20530982.7524
        49.400          42.2004
 110489855.073 8  86095976.33646  21025501.477    21025487.7194
        49.400          39.3004
 118389149.635 7  92251243.64045  22528701.558    22528693.9544
        44.300          30.1004
 121544945.494 7  94710361.32544  23129217.890    23129207.5314
        42.800          28.9004
 16  1  1  0  2 15.0000000  0  9G06G26G01G16G09G03G23G32G31
 124490091.062 6  97005243.09943  23689674.253    23689668.8174
        38.200          22.2004
 116132624.334 7  90492966.29845  22099290.375    22099283.1824
        44.600          33.2004
 131121390.482 5                  24951597.596
        30.700
 118640455.978 6  92447095.85544  22576511.305    22576503.0564
        41.600          27.0004
 121793049.185 6  94903700.69544  23176428.873    23176422.2074
        40.100          28.4004
 107892395.270 8  84071995.57547  20531238.970    20531230.3704
        49.600          42.2004
 110488270.508 8  86094741.61046  21025199.658    21025186.2514
        49.200          39.6004
 118392239.877 7  92253651.61345  22529290.107    22529281.8584
        44.000          30.4004
 121548183.564 7  94712884.50444  23129833.964    23129823.8984
        43.300          29.3004
 16  1  1  0  2 16.0000000  0  9G06G26G01G16G09G03G23G32G31
 124489214.243 6  97004559.87143  23689507.857    23689501.6604
        38.600          22.3004
 116131568.758 7  90492143.76545  22099089.384    22099082.3664
        44.600          33.6004
 131124902.693 5                  24952266.204
        30.500
 118637490.665 6  92444785.22544  22575947.740    22575938.4954
        41.900          27.9004
 121790145.844 6  94901438.36144  23175875.432    23175869.7034
        40.200          28.5004
 107893695.642 8  84073008.85547  20531486.357    20531477.9324
        49.700          42.2004
 110486686.273 8  86093507.14146  21024898.191    21024885.0774
        49.100          39.5004
 118395330.444 7  92256059.84345  22529878.388    22529870.0224
        44.400          30.5004
 121551421.869 6  94715407.87544  23130450.082    23130439.6064
        41.600          29.3004
 16  1  1  0  2 17.0000000  0  9G06G26G01G16G09G03G23G32G31
 124488337.853 6  97003876.97743  23689341.756    23689334.9144
        38.500          22.3004
 116130513.626 7  90491321.59145  22098888.838    22098881.7614
        44.800          33.8004
 131128414.621 5                  24952935.767
        30.700
 118634525.568 7  92442474.76844  22575382.867    22575374.3254
        42.100          28.1004
 121787242.427 6  94899175.95544  23175323.443    23175317.0114
        40.500          28.4004
 107894996.423 8  84074022.45047  20531733.625    20531725.2004
        49.600          42.1004
 110485102.146 8  86092272.76846  21024596.614    21024583.5014
        49.300          39.5004
 118398421.112 7  92258468.15445  22530466.539    22530458.0554
        44.300          31.0004
 121554660.158 6  94717931.21644  23131065.895    23131056.0054
        41.500          29.3004
 16  1  1  0  2 18.0000000  0  9G06G26G01G16G09G03G23G32G31
 124487462.309 6  97003194.74843  23689175.607    23689167.9444
        38.800          22.3004
 116129459.336 7  90490500.06545  22098688.122    22098680.6354
        44.500          32.8004
 131131926.746 5                  24953604.193
        31.000
 118631561.079 6  92440164.78544  22574818.832    22574810.3494
        41.500          27.5004
 121784339.375 6  94896913.85044  23174770.794    23174765.1244
        40.600          28.6004
 107896297.972 8  84075036.64747  20531981.155    20531972.9654
        49.600          42.1004
 110483518.506 8  86091038.75546  21024294.782    21024282.3134
        49.000          39.4004
 118401512.270 7  92260876.84045  22531054.701    22531046.5704
        44.000          30.2004
 121557898.850 6  94720454.88344  23131682.813    23131672.5134
        41.400          28.9004
 16  1  1  0  2 19.0000000  0  9G06G26G01G16G09G03G23G32G31
 124486587.136 6  97002512.80643  23689008.341    23689001.6164
        38.700          22.6004
 116128405.445 7  90489678.86145  22098487.767    22098480.7494
        44.500          32.8004
 131135438.615 5                  24954272.511
        31.300
 118628596.809 6  92437854.97144  22574255.132    22574245.8864
        41.600          28.0004
 121781436.226 6  94894651.66144  23174218.659    23174212.5204
        40.900          28.5004
 107897599.896 8  84076051.13047  20532228.939    20532220.9254
        49.800          42.0004
 110481934.905 8  86089804.78646  21023993.544    21023981.1934
        49.300          39.6004
 118404603.452 7  92263285.55445  22531643.739    22531634.7874
        43.500          30.4004
 121561137.473 6  94722978.49244  23132298.677    23132288.8454
        41.800          29.2004
 16  1  1  0  2 20.0000000  0  9G06G26G01G16G09G03G23G32G31
 124485712.815 6  97001831.51143  23688841.294    23688835.1554
        39.000          22.8004
 116127352.390 7  90488858.30545  22098287.265    22098280.0134
        44.300          33.4004
 131138950.554 5                  24954941.540
        31.800
 118625633.098 7  92435545.58244  22573690.822    22573682.0454
        42.000          28.1004
 121778533.375 6  94892389.70244  23173666.126    23173660.0454
        40.500          28.4004
 107898902.602 8  84077066.22347  20532476.518    20532468.0944
        49.000          42.0004
 110480351.820 8  86088571.20846  21023692.536    21023679.7744
        49.200          39.4004
 118407695.127 7  92265694.65645  22532231.802    22532222.9084
        43.600          30.5004
 121564376.491 7  94725502.40544  23132915.081    23132904.7814
        42.100          29.2004
 16  1  1  0  2 21.0000000  0  9G06G26G01G16G09G03G23G32G31
 124484839.139 6  97001150.71743  23688675.696    23688668.9714
        39.300          22.9004
 116126299.957 7  90488038.22645  22098086.560    22098079.6014
        44.300          33.6004
 131142462.615 5                  24955610.099
        31.900
 118622669.860 7  92433236.57244  22573126.699    22573118.3334
        42.200          28.3004
 121775630.660 6  94890127.85244  23173113.548    23173107.6444
        40.500          27.5004
 107900205.866 8  84078081.75747  20532724.788    20532716.6564
        49.400          42.1004
 110478768.970 8  86087337.82546  21023391.252    21023377.9624
        49.200          39.4004
 118410787.086 7  92268103.97645  22532819.697    22532811.5074
        43.600          30.8004
 121567615.681 7  94728026.46344  23133531.764    23133521.2294
        42.400          28.9004
 16  1  1  0  2 22.0000000  0  9G06G26G01G16G09G03G23G32G31
 124483965.660 6  97000470.08343  23688509.538    23688502.7544
        38.600          22.5004
 116125247.791 7  90487218.35445  22097886.513    22097879.4954
        44.700          33.3004
 131145974.107 5                  24956278.562
        32.500
 118619706.632 7  92430927.56744  22572563.003    22572554.2274
        42.200          27.8004
 121772727.662 6  94887865.79144  23172560.986    23172555.3754
        41.100          28.1004
 107901509.348 8  84079097.45547  20532972.613    20532964.9504
        49.300          42.3004
 110477186.023 8  86086104.35946  21023089.998    21023077.4124
        49.500          39.1004
 118413878.911 7  92270513.18245  22533408.360    22533399.7594
        43.700          30.3004
 121570854.670 7  94730550.36944  23134148.416    23134137.7064
        42.100          29.2004
 16  1  1  0  2 23.0000000  0  9G06G26G01G16G09G03G23G32G31
 124483093.353 6  96999790.37343  23688343.087    23688336.4204
        38.600          22.3004
 116124196.769 7  90486399.37145  22097686.433    22097679.3564
        44.600          33.4004
 131149486.149 5                  24956947.309
        31.800
 118616744.321 7  92428619.27444  22571999.338    22571990.4444
        42.500          26.8004
 121769825.323 6  94885604.23344  23172009.172    23172002.7404
        41.400          28.5004
 107902813.950 8  84080114.03046  20533220.908    20533212.6014
        49.500          41.9004
 110475603.905 8  86084871.54146  21022788.765    21022775.7694
        49.700          39.0004
 118416971.556 7  92272923.03645  22533996.459    22533988.2684
        43.600          30.4004
 121574094.350 6  94733074.80444  23134764.739    23134754.1464
        41.900          29.3004
 16  1  1  0  2 24.0000000  0  9G06G26G01G16G09G03G23G32G31
 124482221.552 6  96999111.04943  23688177.526    23688170.6254
        39.200          22.3004
 116123146.250 7  90485580.78545  22097486.725    22097479.4144
        44.400          33.2004
 131152998.014 5                  24957616.024
        32.200
 118613782.330 7  92426311.23144  22571435.531    22571426.9304
        42.000          26.8004
 121766923.003 6  94883342.68644  23171457.502    23171450.2494
        41.800          28.7004
 107904119.007 8  84081130.95646  20533469.278    20533461.2634
        49.400          41.9004
 110474021.930 8  86083638.83146  21022488.265    21022475.2694
        49.100          39.0004
 118420064.380 7  92275333.02145  22534585.591    22534577.0494
        43.700          30.9004
 121577334.102 7  94735599.28944  23135381.703    23135370.9924
        42.600          28.6004
 16  1  1  0  2 25.0000000  0  9G06G26G01G16G09G03G23G32G31
 124481350.020 6  96998431.93143  23688011.020    23688004.9984
        38.800          22.6004
 116122095.991 7  90484762.40645  22097286.455    22097279.7304
        44.600          33.1004
 131156509.468 5                  24958284.616
        32.500
 118610820.352 6  92424003.20644  22570872.684    22570863.2624
        41.800          27.1004
 121764020.416 6  94881080.93044  23170904.697    23170898.2074
        41.900          27.9004
 107905424.263 8  84082148.03847  20533717.498    20533709.8354
        49.300          42.0004
 110472439.875 8  86082406.06246  21022187.173    21022174.0594
        48.800          39.5004
 118423157.096 7  92277742.92445  22535173.752    22535165.1514
        43.400          30.2004
 121580573.654 7  94738123.62944  23135998.085    23135987.4334
        42.800          28.6004
 16  1  1  0  2 26.0000000  0  9G06G26G01G16G09G03G23G32G31
 124480479.594 6  96997753.67343  23687845.948    23687839.4574
        38.700          22.5004
 116121046.835 7  90483944.87845  22097086.871    22097080.2044
        44.100          32.8004
 131160021.337 5                  24958952.742
        32.200
 118607859.302 6  92421695.90944  22570308.432    22570299.4214
        41.800          27.0004
 121761118.424 6  94878819.64544  23170352.269    23170345.8374
        41.700          28.1004
 107906730.602 8  84083165.96847  20533966.277    20533958.0874
        49.200          42.3004
 110470858.568 8  86081173.88046  21021886.425    21021873.2534
        48.600          39.5004
 118426250.560 7  92280153.40545  22535761.922    22535754.2014
        43.400          31.3004
 121583813.856 7  94740648.47844  23136614.261    23136604.2544
        42.900          29.7004
 16  1  1  0  2 27.0000000  0  9G06G26G01G16G09G03G23G32G31
 124479609.636 6  96997075.79043  23687679.358    23687673.7474
        38.800          22.3004
 116119998.205 7  90483127.76245  22096887.491    22096880.8834
        44.400          33.2004
 131163533.084 5                  24959621.319
        33.000
 118604898.536 7  92419388.82244  22569745.489    22569736.1274
        42.000          27.7004
 121758216.486 6  94876558.39444  23169800.176    23169793.7444
        41.900          28.3004
 107908037.389 8  84084184.24247  20534215.317    20534207.2444
        49.600          42.2004
 110469277.435 8  86079941.82646  21021585.313    21021571.9654
        49.000          39.3004
 118429344.179 7  92282564.02045  22536350.569    22536342.8484
        43.800          30.8004
 121587054.159 7  94743173.40044  23137230.634    23137220.6864
        42.600          28.2004
 16  1  1  0  2 28.0000000  0  9G06G26G01G16G09G03G23G32G31
 124478740.284 6  96996398.37243  23687513.757    23687508.2044
        37.900          22.2004
 116118950.151 7  90482311.10145  22096687.795    22096681.1294
        44.000          33.5004
 131167044.727 5                  24960289.617
        32.400
 118601938.114 7  92417082.00144  22569182.296    22569172.6994
        42.100          26.8004
 121755314.537 7  94874297.13944  23169247.733    23169241.5354
        42.000          28.0004
 107909344.712 8  84085202.93347  20534463.953    20534455.9984
        49.900          42.1004
 110467696.507 8  86078709.94046  21021284.174    21021271.1194
        49.500          39.2004
 118432438.010 7  92284974.79845  22536939.728    22536931.8314
        43.400          30.7004
 121590294.563 7  94745698.40544  23137847.282    23137836.8644
        42.600          28.8004
 16  1  1  0  2 29.0000000  0  9G06G26G01G16G09G03G23G32G31
 124477871.391 6  96995721.32443  23687348.517    23687342.9644
        37.700          22.0004
 116117902.531 7  90481494.77745  22096488.435    22096481.5924
        43.900          33.7004
 131170556.062 5                  24960957.881
        32.400
 118598977.928 7  92414775.36744  22568619.177    22568609.2874
        42.400          26.9004
 121752412.582 7  94872035.88444  23168695.319    23168689.4154
        42.000          28.9004
 107910652.432 8  84086221.94047  20534712.458    20534704.4434
        49.700          42.0004
 110466115.693 8  86077478.14046  21020983.804    21020970.1634
        49.700          39.2004
 118435531.983 7  92287385.68545  22537528.193    22537520.4134
        43.400          31.0004
 121593534.931 7  94748223.37444  23138463.519    23138453.6294
        42.600          28.6004
 16  1  1  0  2 30.0000000  0  9G06G26G01G16G09G03G23G32G31
 124477003.507 6  96995045.04643  23687183.731    23687177.8264
        38.100          22.2004
 116116855.945 7  90480679.25345  22096289.407    22096282.5654
        43.900          33.4004
 131174067.841 5                  24961625.166
        31.600
 118596018.565 7  92412469.37844  22568055.822    22568046.2254
        42.000          27.1004
 121749511.116 6  94869775.00444  23168142.623    23168136.8944
        41.300          28.9004
 107911961.160 8  84087241.72546  20534961.587    20534953.3384
        49.900          41.7004
 110464535.565 8  86076246.86746  21020683.067    21020669.6604
        49.600          39.3004
 118438626.602 7  92289797.08045  22538117.336    22538109.4394
        43.600          30.6004
 121596775.909 7  94750748.81144  23139080.422    23139070.1214
        42.300          29.8004
 16  1  1  0  2 31.0000000  0  9G06G26G01G16G09G03G23G32G31
 124476136.086 6  96994369.11443  23687018.800    23687012.7194
        38.100          21.8004
 116115809.833 7  90479864.09845  22096089.681    22096083.1324
        44.100          33.5004
 131177579.453 5                  24962292.291
        31.500
 118593059.410 7  92410163.54344  22567492.761    22567482.8714
        42.500          26.5004
 121746609.621 6  94867514.10244  23167590.819    23167585.1494
        41.600          28.5004
 107913270.266 8  84088261.80446  20535210.640    20535202.6844
        49.600          41.9004
 110462955.540 8  86075015.67846  21020382.308    21020368.8424
        49.800          39.4004
 118441721.329 7  92292208.54745  22538706.206    22538698.3684
        43.500          31.2004
 121600016.874 7  94753274.25844  23139696.960    23139686.9534
        42.100          29.7004
 16  1  1  0  2 32.0000000  0  9G06G26G01G16G09G03G23G32G31
 124475269.289 6  96993693.70043  23686853.422    23686847.8114
        38.400          22.2004
 116114764.322 7  90479049.41945  22095891.238    22095884.5134
        44.300          33.5004
 131181090.928 5                  24962959.879
        31.200
 118590100.708 7  92407858.06644  22566929.118    22566919.7554
        42.400          27.4004
 121743708.255 6  94865253.30944  23167038.691    23167032.9624
        41.800          28.1004
 107914579.972 8  84089282.35646  20535459.615    20535451.8934
        49.600          41.8004
 110461375.780 8  86073784.70746  21020081.535    21020069.0674
        49.600          39.3004
 118444816.333 7  92294620.23245  22539295.429    22539286.9454
        43.800          30.8004
 121603258.021 7  94755799.84245  23140314.014    23140304.1244
        42.000          30.2004
 16  1  1  0  2 33.0000000  0  9G06G26G01G16G09G03G23G32G31
 124474403.219 6  96993018.83943  23686689.052    23686682.9714
        38.800          22.5004
 116113719.534 7  90478235.30145  22095692.264    22095685.8914
        44.500          33.2004
 131184602.497 5                  24963628.427
        31.200
 118587142.482 7  92405552.96344  22566367.145    22566356.7284
        42.500          27.3004
 121740807.095 6  94862992.66744  23166486.009    23166480.3974
        41.500          27.9004
 107915890.347 8  84090303.42947  20535709.584    20535701.2184
        49.800          42.1004
 110459796.418 8  86072554.03146  21019780.965    21019768.0274
        49.900          39.4004
 118447911.676 7  92297032.18945  22539884.038    22539876.0824
        43.700          30.9004
 121606499.435 7  94758325.63144  23140930.713    23140920.7064
        42.000          29.9004
 16  1  1  0  2 34.0000000  0  9G06G26G01G16G09G03G23G32G31
 124473537.614 6  96992344.34943  23686523.733    23686518.0634
        38.700          22.2004
 116112675.234 7  90477421.56545  22095493.790    22095486.9484
        44.000          32.8004
 131188113.835 5                  24964295.814
        31.200
 118584184.538 7  92403248.07744  22565804.406    22565793.9884
        42.600          25.8004
 121737905.893 6  94860731.98444  23165934.371    23165928.8774
        41.500          28.1004
 107917201.147 8  84091324.82647  20535958.956    20535951.3524
        50.000          42.0004
 110458217.166 8  86071323.44446  21019480.693    21019467.9324
        50.100          39.3004
 118451007.164 7  92299444.25445  22540473.608    22540465.0664
        43.700          30.9004
 121609740.883 6  94760851.44944  23141547.637    23141537.3374
        41.800          29.4004
 16  1  1  0  2 35.0000000  0  9G06G26G01G16G09G03G23G32G31
 124472672.776 6  96991670.44743  23686359.737    23686354.0664
        38.800          22.3004
 116111631.712 7  90476608.43345  22095295.472    22095288.3364
        44.300          33.3004
 131191625.276 5                  24964964.266
        31.000
 118581227.153 7  92400943.62444  22565241.132    22565231.4774
        42.400          26.7004
 121735004.973 6  94858471.53544  23165382.446    23165376.5424
        41.800          28.9004
 107918512.699 8  84092346.81447  20536208.354    20536200.5744
        49.800          42.0004
 110456638.345 8  86070093.20346  21019180.368    21019167.3134
        50.200          39.3004
 118454103.086 7  92301856.65845  22541062.577    22541054.5034
        43.900          30.7004
 121612982.645 7  94763377.50944  23142164.258    23142154.3684
        42.300          29.4004
 16  1  1  0  2 36.0000000  0  9G06G26G01G16G09G03G23G32G31
 124471808.666 6  96990997.10643  23686195.882    23686189.4504
        39.100          22.5004
 116110588.868 7  90475795.83045  22095096.612    22095089.8874
        44.400          33.0004
 131195136.758 4                  24965632.033
        29.600
 118578270.192 7  92398639.50544  22564678.242    22564668.6454
        42.600          26.7004
 121732104.195 6  94856211.19744  23164830.208    23164824.6554
        41.700          28.8004
 107919824.857 8  84093369.28247  20536458.009    20536449.8194
        49.100          42.3004
 110455059.850 8  86068863.20346  21018880.034    21018866.6864
        49.700          39.3004
 118457199.343 7  92304269.32245  22541651.566    22541643.4344
        43.600          30.6004
 121616224.628 6  94765903.74744  23142781.504    23142771.3804
        40.300          29.6004
 16  1  1  0  2 37.0000000  0  9G06G26G01G16G09G03G23G32G31
 124470945.117 6  96990324.21443  23686030.872    23686025.3784
        39.000          22.3004
 116109546.652 7  90474983.71245  22094898.556    22094891.5384
        44.600          33.0004
 131198648.185 4                  24966299.321
        29.900
 118575313.667 7  92396335.72244  22564115.889    22564105.9994
        42.900          27.2004
 121729203.569 6  94853950.97244  23164279.062    23164272.5724
        41.600          28.0004
 107921137.593 8  84094392.19147  20536708.247    20536699.7644
        49.500          42.3004
 110453481.623 8  86067633.42146  21018579.697    21018566.4074
        50.200          39.5004
 118460295.836 7  92306682.17745  22542241.405    22542233.0984
        43.900          30.4004
 121619466.766 6  94768430.10544  23143398.238    23143388.1144
        40.800          29.2004
 16  1  1  0  2 38.0000000  0  9G06G26G01G16G09G03G23G32G31
 124470082.158 6  96989651.78643  23685866.785    23685860.8224
        39.200          22.2004
 116108505.010 7  90474172.03545  22094700.281    22094693.2044
        44.800          33.4004
 131202159.532 4                  24966967.676
        29.600
 118572357.486 7  92394032.20544  22563553.027    22563543.3714
        43.000          26.2004
 121726303.009 6  94851690.79844  23163726.427    23163720.6984
        41.400          28.1004
 107922450.887 8  84095415.53447  20536958.207    20536949.5484
        49.800          42.4004
 110451903.634 8  86066403.81946  21018279.639    21018266.5844
        50.300          39.4004
 118463392.548 7  92309095.19244  22542830.362    22542821.9964
        43.900          29.8004
 121622709.067 6  94770956.59744  23144015.151    23144004.7924
        41.000          29.0004
 16  1  1  0  2 39.0000000  0  9G06G26G01G16G09G03G23G32G31
 124469219.882 6  96988979.87843  23685702.925    23685696.9624
        39.200          21.8004
 116107464.062 7  90473360.91645  22094502.166    22094495.1484
        44.900          33.8004
 131205670.864 4                  24967635.940
        29.400
 118569401.800 7  92391729.07344  22562990.610    22562981.1894
        43.300          25.1004
 121723402.611 6  94849430.76044  23163174.499    23163168.5364
        41.700          28.5004
 107923764.802 8  84096439.36047  20537208.130    20537199.7644
        49.000          42.2004
 110450326.008 8  86065174.50246  21017979.240    21017965.8344
        49.900          39.4004
 118466489.642 7  92311508.50044  22543419.460    22543411.5044
        44.100          29.7004
 121625951.571 6  94773483.24044  23144632.450    23144621.8564
        40.800          28.5004
 16  1  1  0  2 40.0000000  0  9G06G26G01G16G09G03G23G32G31
 124468358.192 6  96988308.43543  23685539.324    23685532.8344
        38.800          21.7004
 116106423.708 7  90472550.24645  22094304.425    22094297.2314
        45.200          33.7004
 131209182.125 5                  24968304.027
        31.000
 118566446.494 7  92389426.24344  22562427.129    22562418.4124
        42.600          26.3004
 121720502.305 6  94847170.78544  23162622.453    23162616.9004
        41.700          28.9004
 107925079.244 8  84097463.60847  20537458.072    20537450.0584
        48.500          42.4004
 110448748.593 8  86063945.34946  21017678.813    21017665.9344
        50.000          39.7004
 118469586.936 7  92313921.97645  22544009.404    22544000.4514
        44.000          30.0004
 121629194.216 6  94776009.99044  23145249.216    23145239.0334
        40.600          29.0004
 16  1  1  0  2 41.0000000  0  9G06G26G01G16G09G03G23G32G31
 124467497.188 6  96987637.51943  23685374.927    23685368.4364
        38.800          21.8004
 116105384.010 7  90471740.09645  22094106.514    22094099.9654
        44.900          33.7004
 131212693.362 5                  24968971.926
        30.100
 118563491.639 7  92387123.76044  22561865.527    22561855.9304
        42.700          26.1004
 121717602.157 6  94844910.92744  23162071.145    23162064.4794
        41.700          28.9004
 107926394.325 8  84098488.34547  20537708.323    20537700.3084
        48.800          42.1004
 110447171.493 8  86062716.44246  21017378.767    21017365.3604
        49.900          39.5004
 118472684.552 7  92316335.70244  22544599.151    22544590.1404
        44.100          29.8004
 121632437.074 6  94778536.91044  23145866.893    23145856.4174
        41.300          28.9004
 16  1  1  0  2 42.0000000  0  9G06G26G01G16G09G03G23G32G31
 124466636.798 6  96986967.09343  23685211.030    23685204.8914
        38.400          21.8004
 116104344.948 7  90470930.43245  22093908.603    22093901.5274
        45.000          33.6004
 131216204.579 4                  24969639.223
        29.100
 118560537.159 7  92384821.57644  22561303.561    22561293.9644
        42.700          26.5004
 121714702.158 6  94842651.19244  23161518.963    23161512.9414
        41.800          28.8004
 107927709.997 8  84099513.54046  20537958.332    20537950.6114
        49.100          41.8004
 110445594.698 8  86061487.77146  21017078.721    21017065.8424
        49.900          39.6004
 118475782.450 7  92318749.64045  22545187.688    22545179.4394
        44.100          30.2004
 121635680.140 6  94781064.00144  23146483.357    23146473.1164
        41.100          29.6004
 16  1  1  0  2 43.0000000  0  9G06G26G01G16G09G03G23G32G31
 124465776.990 6  96986297.12443  23685047.827    23685041.5124
        38.000          22.2004
 116103306.519 7  90470121.27245  22093711.403    22093703.9754
        44.800          33.7004
 131219715.750 4                  24970307.913
        29.400
 118557583.130 7  92382519.74344  22560740.910    22560731.2544
        43.100          25.8004
 121711802.237 7  94840391.51944  23160967.524    23160961.4444
        42.100          28.5004
 107929026.231 8  84100539.18146  20538209.052    20538200.8624
        49.100          41.8004
 110444018.153 8  86060259.29946  21016778.468    21016765.7064
        49.400          39.9004
 118478880.599 7  92321163.78545  22545777.425    22545769.4694
        44.600          30.2004
 121638923.339 6  94783591.17744  23147100.697    23147090.5144
        41.600          29.3004
 16  1  1  0  2 44.0000000  0  9G06G26G01G16G09G03G23G32G31
 124464917.976 6  96985627.75843  23684884.020    23684877.8814
        38.300          22.3004
 116102268.786 7  90469312.64545  22093513.850    22093506.5974
        44.500          33.6004
 131223226.968 5                  24970977.641
        30.700
 118554629.592 7  92380218.28744  22560178.487    22560169.5354
        42.900          25.6004
 121708902.535 7  94838132.02044  23160415.828    23160409.4554
        42.000          28.1004
 107930343.141 8  84101565.34746  20538459.599    20538451.9364
        49.400          41.5004
 110442441.991 8  86059031.12246  21016478.578    21016466.0514
        49.400          39.8004
 118481979.119 7  92323578.21845  22546367.577    22546358.7424
        44.400          30.7004
 121642166.835 7  94786118.59344  23147718.084    23147707.7254
        42.100          28.7004
 16  1  1  0  2 45.0000000  0  9G06G26G01G16G09G03G23G32G31
 124464059.454 6  96984958.78343  23684720.543    23684714.6384
        38.400          22.3004
 116101231.663 7  90468504.49545  22093315.974    22093308.9564
        44.700          33.4004
 131226738.096 5                  24971645.789
        31.900
 118551676.422 7  92377917.12144  22559617.139    22559607.4834
        42.600          26.1004
 121706002.912 6  94835872.58044  23159864.061    23159858.0984
        41.800          29.1004
 107931660.583 8  84102591.91946  20538710.424    20538701.8824
        49.500          41.9004
 110440866.061 8  86057803.12246  21016178.362    21016165.7184
        49.400          39.8004
 118485077.861 7  92325992.81545  22546957.245    22546948.4694
        44.600          30.5004
 121645410.413 7  94788646.07344  23148335.509    23148324.9744
        42.000          28.5004
 16  1  1  0  2 46.0000000  0  9G06G26G01G16G09G03G23G32G31
 124463201.418 6  96984290.18943  23684557.449    23684551.7794
        38.700          22.3004
 116100194.944 7  90467696.66745  22093119.278    22093111.5564
        44.700          33.2004
 131230248.899 5                  24972316.039
        31.500
 118548723.434 7  92375616.09644  22559055.261    22559045.7814
        42.200          26.9004
 121703103.216 7  94833613.08344  23159311.898    23159306.0524
        42.400          28.7004
 107932978.402 8  84103618.78646  20538961.036    20538953.3144
        49.000          41.8004
 110439290.202 8  86056575.18146  21015878.581    21015865.6434
        49.300          40.1004
 118488176.657 7  92328407.45645  22547547.183    22547538.4064
        44.600          30.6004
 121648653.993 7  94791173.55444  23148952.338    23148942.0384
        42.000          28.3004
 16  1  1  0  2 47.0000000  0  9G06G26G01G16G09G03G23G32G31
 124462344.225 6  96983622.24143  23684393.978    23684387.9564
        39.000          22.6004
 116099159.080 7  90466889.50445  22092921.702    22092914.9184
        44.800          33.4004
 131233759.970 5                  24972984.824
        31.800
 118545771.089 7  92373315.57744  22558493.412    22558483.9914
        42.100          25.6004
 121700203.833 7  94831353.82544  23158760.305    23158754.1664
        42.200          29.3004
 107934297.025 8  84104646.29546  20539211.881    20539203.8664
        48.900          41.8004
 110437714.843 8  86055347.63146  21015579.174    21015566.1194
        48.800          39.8004
 118491275.999 7  92330822.52745  22548136.538    22548127.9964
        44.300          30.6004
 121651897.971 7  94793701.34844  23149570.307    23149559.3034
        42.300          28.1004
 16  1  1  0  2 48.0000000  0  9G06G26G01G16G09G03G23G32G31
 124461487.755 6  96982954.85643  23684231.523    23684225.2674
        39.000          22.8004
 116098123.934 7  90466082.89245  22092725.532    22092718.0454
        44.300          33.5004
 131237271.037 5                  24973651.113
        31.300
 118542819.272 7  92371015.46144  22557931.339    22557921.9764
        42.200          25.8004
 121697304.679 7  94829094.75644  23158208.546    23158202.5244
        42.400          27.9004
 107935616.328 8  84105674.32047  20539462.871    20539455.2084
        48.700          42.0004
 110436139.878 8  86054120.38846  21015279.907    21015266.9104
        48.900          39.9004
 118494375.676 7  92333237.86645  22548726.305    22548717.8804
        43.900          30.7004
 121655142.179 7  94796229.32744  23150187.100    23150176.6834
        42.600          29.6004
 16  1  1  0  2 49.0000000  0  9G06G26G01G16G09G03G23G32G31
 124460631.758 6  96982287.83843  23684068.583    23684062.2104
        38.800          22.8004
 116097089.260 7  90465276.65245  22092528.679    22092520.7234
        44.600          33.9004
 131240781.978 5                  24974318.241
        31.600
 118539867.680 7  92368715.52544  22557369.780    22557360.4184
        42.500          27.2004
 121694405.520 7  94826835.67544  23157656.576    23157651.0234
        42.400          27.9004
 107936936.047 8  84106702.66646  20539713.984    20539706.2044
        49.000          41.8004
 110434565.010 8  86052893.22346  21014979.906    21014966.6164
        49.200          39.8004
 118497475.446 7  92335653.26445  22549315.900    22549308.0034
        43.800          30.6004
 121658386.441 6  94798757.34944  23150803.911    23150794.0804
        41.700          29.7004
 16  1  1  0  2 50.0000000  0  9G06G26G01G16G09G03G23G32G31
 124459776.260 6  96981621.22943  23683905.374    23683899.6454
        39.200          23.2004
 116096055.163 7  90464470.86045  22092331.464    22092323.8014
        44.500          33.8004
 131244292.659 5                  24974988.098
        32.600
 118536916.446 7  92366415.87344  22556808.671    22556798.8404
        42.700          26.5004
 121691506.356 7  94824576.58944  23157105.348    23157099.0914
        42.300          29.7004
 107938256.276 8  84107731.42147  20539965.095    20539957.1974
        49.400          42.0004
 110432990.366 8  86051666.22146  21014680.171    21014667.0584
        49.500          39.7004
 118500575.468 7  92338068.85945  22549905.732    22549897.8354
        43.800          30.9004
 121661630.811 7  94801285.45244  23151421.677    23151411.9634
        42.000          28.8004
 16  1  1  0  2 51.0000000  0  9G06G26G01G16G09G03G23G32G31
 124458921.757 6  96980955.38544  23683742.579    23683736.9094
        38.200          24.3004
 116095021.989 7  90463665.79045  22092135.078    22092127.6494
        44.900          34.1004
 131247803.745 5                  24975656.910
        32.900
 118533965.944 7  92364116.78644  22556247.593    22556237.5274
        42.700          25.7004
 121688607.667 7  94822317.87844  23156553.929    23156547.9074
        42.400          29.1004
 107939577.418 8  84108760.88147  20540216.926    20540209.2054
        49.300          42.1004
 110431416.307 8  86050439.69146  21014380.703    21014367.3554
        49.400          39.8004
 118503676.031 7  92340484.87945  22550496.058    22550487.6924
        43.800          30.9004
 121664875.655 7  94803813.92244  23152039.347    23152028.9304
        42.100          28.1004
 16  1  1  0  2 52.0000000  0  9G06G26G01G16G09G03G23G32G31
 124458067.530 6  96980289.76144  23683580.074    23683574.6964
        38.200          25.5004
 116093989.152 7  90462860.98345  22091938.035    22091931.0174
        45.100          33.6004
 131251314.422 5                  24976326.264
        32.600
 118531015.553 7  92361817.78344  22555685.640    22555675.9854
        42.300          26.5004
 121685708.780 7  94820059.00344  23156002.556    23155996.0074
        42.200          28.6004
 107940898.822 8  84109790.54347  20540468.302    20540459.9954
        49.500          42.3004
 110429842.229 8  86049213.13146  21014080.971    21014068.0334
        49.600          39.6004
 118506776.596 7  92342900.89845  22551085.960    22551078.1214
        43.700          31.0004
 121668120.372 6  94806342.29144  23152656.693    23152646.1584
        41.600          28.0004
 16  1  1  0  2 53.0000000  0  9G06G26G01G16G09G03G23G32G31
 124457214.126 6  96979624.76143  23683417.042    23683411.9004
        37.800          23.2004
 116092957.065 7  90462056.76445  22091741.822    22091734.6284
        44.700          34.2004
 131254825.188 5                  24976994.275
        32.600
 118528065.732 7  92359519.22044  22555124.281    22555114.8604
        42.200          26.4004
 121682810.177 7  94817800.35444  23155450.798    23155444.4834
        42.200          29.4004
 107942220.956 8  84110820.78147  20540719.817    20540711.8034
        49.700          42.3004
 110428268.569 8  86047986.89746  21013781.460    21013768.5224
        49.600          38.9004
 118509877.597 7  92345317.26145  22551676.105    22551667.6214
        43.800          30.2004
 121671365.404 7  94808870.90844  23153274.393    23153263.8584
        42.300          28.5004
 16  1  1  0  2 54.0000000  0  9G06G26G01G16G09G03G23G32G31
 124456361.284 6  96978960.20843  23683254.726    23683249.7594
        38.100          22.6004
 116091925.611 7  90461253.03645  22091545.500    22091538.5404
        44.900          33.7004
 131258335.876 5                  24977662.259
        32.500
 118525116.258 7  92357220.92544  22554562.338    22554553.2104
        42.100          26.4004
 121679911.648 6  94815541.76244  23154899.363    23154893.2834
        41.800          28.7004
 107943543.630 8  84111851.43647  20540971.701    20540963.8624
        49.800          42.0004
 110426695.147 8  86046760.85746  21013481.813    21013468.8174
        49.500          39.1004
 118512978.806 7  92347733.79245  22552266.138    22552258.0654
        43.800          30.6004
 121674610.593 6  94811399.65044  23153891.642    23153881.2254
        41.900          28.7004
 16  1  1  0  2 55.0000000  0  9G06G26G01G16G09G03G23G32G31
 124455509.016 6  96978296.11043  23683093.198    23683087.7044
        38.100          22.6004
 116090894.714 7  90460449.73945  22091349.303    22091342.2854
        44.300          34.0004
 131261846.461 5                  24978329.635
        32.900
 118522167.189 7  92354922.94744  22554001.088    22553992.2534
        42.000          25.6004
 121677013.181 6  94813283.22644  23154347.639    23154341.3244
        40.800          28.7004
 107944866.845 8  84112882.51446  20541223.502    20541215.3114
        49.200          41.9004
 110425121.977 8  86045535.01446  21013182.437    21013169.6754
        49.400          39.2004
 118516080.236 7  92350150.48445  22552856.675    22552847.7234
        44.100          30.6004
 121677855.897 7  94813928.48644  23154509.447    23154498.6774
        42.300          29.4004
 16  1  1  0  2 56.0000000  0  9G06G26G01G16G09G03G23G32G31
 124454657.686 6  96977632.72543  23682931.262    23682926.0024
        38.100          22.8004
 116089864.732 7  90459647.15845  22091153.242    22091146.3414
        44.400          33.6004
 131265357.341 5                  24978997.981
        33.600
 118519218.786 7  92352625.50644  22553439.944    22553431.1674
        42.300          26.5004
 121674115.141 6  94811025.02344  23153796.001    23153789.5694
        41.300          29.0004
 107946190.913 8  84113914.25347  20541475.387    20541467.4314
        49.300          42.1004
 110423549.325 8  86044309.57146  21012883.519    21012870.3474
        48.800          39.3004
 118519182.234 7  92352567.61545  22553447.486    22553438.0654
        44.000          30.9004
 121681101.641 7  94816457.66444  23155127.214    23155116.5624
        42.200          29.3004
 16  1  1  0  2 57.0000000  0  9G06G26G01G16G09G03G23G32G31
 124453806.592 6  96976969.54243  23682768.816    23682763.7914
        38.100          22.6004
 116088835.013 7  90458844.77745  22090957.214    22090950.3714
        44.600          33.6004
 131268867.769 5                  24979666.965
        33.700
 118516270.431 7  92350328.08144  22552879.119    22552869.9334
        42.100          26.9004
 121671216.801 6  94808766.57844  23153244.619    23153237.3674
        41.500          29.4004
 107947515.189 8  84114946.15747  20541727.313    20541719.5334
        48.800          42.0004
 110421976.619 8  86043084.08946  21012583.826    21012571.2404
        48.900          39.6004
 118522284.139 7  92354984.68445  22554037.342    22554028.6834
        44.700          30.4004
 121684347.214 6  94818986.70944  23155745.075    23155733.5444
        41.800          28.1004
 16  1  1  0  2 58.0000000  0  9G06G26G01G16G09G03G23G32G31
 124452956.155 6  96976306.86443  23682607.120    23682601.9784
        37.500          22.6004
 116087805.968 7  90458042.92745  22090761.703    22090754.6274
        44.700          33.7004
 131272378.198 5                  24980334.163
        33.600
 118513322.538 7  92348031.03144  22552318.343    22552309.1574
        42.300          27.0004
 121668318.685 7  94806508.32144  23152692.299    23152686.9224
        42.100          29.6004
 107948840.107 8  84115978.56147  20541979.239    20541971.4594
        49.200          42.2004
 110420404.223 8  86041858.84546  21012284.948    21012272.2454
        49.200          39.1004
 118525386.342 7  92357401.97945  22554627.723    22554618.7714
        44.700          30.8004
 121687592.999 6  94821515.91844  23156363.165    23156351.8104
        41.700          28.3004
 16  1  1  0  2 59.0000000  0  9G06G26G01G16G09G03G23G32G31
 124452106.696 6  96975644.95643  23682445.763    23682440.1524
        38.000          22.8004
 116086777.876 7  90457241.80845  22090565.612    22090558.3604
        45.000          34.1004
 131275888.884 5                  24981001.603
        32.400
 118510375.364 7  92345734.53744  22551757.730    22551748.3084
        42.400          26.4004
 121665420.988 6  94804250.37744  23152140.923    23152135.3114
        41.700          28.6004
 107950165.904 8  84117011.65047  20542231.681    20542223.7254
        49.500          42.2004
 110418832.449 8  86040634.08346  21011986.453    21011972.7534
        49.500          39.3004
 118528489.159 7  92359819.76445  22555218.563    22555209.8464
        44.300          31.3004
 121690839.296 6  94824045.52344  23156980.665    23156969.2514
        41.600          28.4004
 16  1  1  0  3  0.0000000  0  9G06G26G01G16G09G03G23G32G31
 124451257.562 6  96974983.29143  23682284.402    23682278.9664
        38.100          23.0004
 116085750.109 7  90456440.95245  22090370.416    22090363.2804
        44.900          33.4004
 131279399.213 5                  24981670.144
        32.200
 118507428.331 7  92343438.15744  22551196.922    22551187.6184
        42.800          25.9004
 121662523.123 6  94801992.30544  23151589.505    23151583.8944
        41.700          28.3004
 107951491.984 8  84118044.95747  20542483.890    20542476.1104
        49.600          42.4004
 110417260.612 8  86039409.28246  21011687.053    21011673.9394
        49.500          39.2004
 118531591.926 7  92362237.51045  22555808.813    22555799.7434
        44.200          30.2004
 121694085.441 6  94826575.01444  23157598.179    23157586.9414
        41.800          29.0004
 16  1  1  0  3  1.0000000  0  9G06G26G01G16G09G03G23G32G31
 124450409.276 6  96974322.28743  23682122.904    23682117.5274
        38.500          23.2004
 116084723.191 7  90455640.75745  22090174.708    22090167.9244
        44.500          33.3004
 131282909.734 5                  24982337.629
        30.800
 118504481.886 7  92341142.22744  22550636.059    22550627.1654
        42.800          26.6004
 121659625.588 7  94799734.50144  23151038.231    23151032.4434
        42.100          29.2004
 107952818.889 8  84119078.90747  20542736.561    20542728.6644
        49.700          42.3004
 110415689.301 8  86038184.88946  21011387.724    21011375.0214
        49.300          39.2004
 118534695.194 7  92364655.64045  22556399.225    22556390.5084
        44.500          30.0004
 121697331.998 6  94829104.82444  23158215.516    23158204.5714
        41.800          29.4004
 16  1  1  0  3  2.0000000  0  9G06G26G01G16G09G03G23G32G31
 124449561.492 6  96973661.67643  23681962.028    23681956.1824
        38.800          22.9004
 116083696.810 7  90454840.97845  22089979.443    22089972.7184
        44.300          33.8004
 131286420.172 5                  24983005.413
        31.500
 118501535.822 7  92338846.60344  22550075.619    22550066.1404
        42.500          27.7004
 121656728.086 7  94797476.70944  23150487.041    23150481.0784
        42.100          29.1004
 107954146.276 8  84120113.24147  20542988.874    20542981.3874
        49.900          42.2004
 110414118.191 8  86036960.64246  21011088.628    21011075.5144
        49.100          39.1004
 118537798.660 7  92367073.91745  22556990.020    22556981.3024
        44.300          30.2004
 121700578.639 6  94831634.71444  23158833.197    23158822.6624
        41.100          28.6004
 16  1  1  0  3  3.0000000  0  9G06G26G01G16G09G03G23G32G31
 124448714.363 6  96973001.57343  23681800.090    23681794.8304
        38.100          22.6004
 116082671.114 7  90454041.73545  22089784.450    22089777.5494
        44.300          33.8004
 131289930.478 5                  24983672.576
        31.200
 118498590.197 7  92336551.31744  22549515.373    22549505.5414
        42.300          28.1004
 121653830.754 7  94795219.05144  23149936.124    23149929.8684
        42.100          28.7004
 107955474.271 8  84121148.03347  20543242.206    20543233.6064
        49.600          42.3004
 110412547.375 8  86035736.63546  21010789.630    21010776.6924
        49.200          39.4004
 118540902.432 7  92369492.44045  22557580.529    22557571.6354
        44.100          31.5004
 121703825.462 6  94834164.73344  23159450.472    23159440.1724
        41.300          29.0004
 16  1  1  0  3  4.0000000  0  9G06G26G01G16G09G03G23G32G31
 124447868.018 6  96972342.08543  23681638.937    23681634.1464
        37.700          22.6004
 116081646.145 7  90453243.06045  22089589.548    22089582.2964
        44.000          33.6004
 131293440.980 5                  24984340.716
        31.000
 118495645.072 7  92334256.41844  22548955.176    22548944.7594
        42.700          26.9004
 121650933.625 7  94792961.54344  23149384.647    23149378.9184
        42.400          29.1004
 107956802.945 8  84122183.36647  20543495.251    20543487.1194
        49.300          42.2004
 110410976.962 8  86034512.93346  21010490.682    21010478.3894
        48.900          39.1004
 118544006.559 7  92371911.23845  22558171.289    22558162.4544
        44.400          30.6004
 121707072.597 6  94836695.00044  23160068.472    23160057.9374
        41.700          28.8004
 16  1  1  0  3  5.0000000  0  9G06G26G01G16G09G03G23G32G31
 124447021.939 6  96971682.80143  23681477.787    23681472.7624
        38.000          22.8004
 116080621.469 7  90452444.61245  22089394.833    22089387.6394
        44.100          34.3004
 131296950.989 5                  24985009.052
        31.900
 118492700.036 7  92331961.58344  22548395.053    22548384.5764
        42.400          27.0004
 121648036.312 7  94790703.88744  23148832.857    23148826.8354
        42.100          29.2004
 107958131.881 8  84123218.90247  20543748.066    20543739.5824
        49.100          42.1004
 110409406.486 8  86033289.18946  21010191.756    21010179.0524
        49.000          39.2004
 118547110.667 7  92374330.01845  22558762.226    22558753.0984
        44.500          30.5004
 121710319.575 6  94839225.13544  23160686.424    23160676.0654
        41.800          27.8004
 16  1  1  0  3  6.0000000  0  9G06G26G01G16G09G03G23G32G31
 124446176.791 6  96971024.25243  23681316.979    23681311.6614
        38.100          22.6004
 116079597.728 7  90451646.88745  22089200.084    22089193.0664
        44.200          33.6004
 131300461.261 5                  24985676.997
        31.800
 118489755.702 7  92329667.30744  22547834.549    22547824.5414
        42.500          27.1004
 121645139.371 7  94788446.53744  23148281.541    23148275.6954
        42.300          29.0004
 107959461.678 8  84124255.10747  20544001.217    20543992.8504
        49.200          42.3004
 110407836.601 8  86032065.90746  21009893.130    21009880.6624
        49.400          39.5004
 118550215.300 7  92376749.20844  22559352.594    22559343.5244
        44.300          29.8004
 121713566.981 6  94841755.60644  23161303.947    23161293.8814
        41.300          27.6004
 16  1  1  0  3  7.0000000  0  9G06G26G01G16G09G03G23G32G31
 124445332.349 6  96970366.24543  23681156.371    23681151.2294
        37.700          22.9004
 116078574.688 7  90450849.71745  22089005.558    22088997.8374
        44.200          34.0004
 131303971.598 5                  24986344.170
        31.900
 118486811.893 7  92327373.42844  22547273.983    22547264.3274
        42.900          27.3004
 121642242.676 7  94786189.38144  23147730.111    23147724.4414
        42.200          28.1004
 107960792.157 8  84125291.84347  20544253.992    20544246.2124
        48.500          42.3004
 110406267.079 8  86030842.90146  21009594.651    21009581.7714
        48.500          39.6004
 118553320.329 7  92379168.71045  22559942.808    22559934.6764
        44.100          30.5004
 121716814.678 6  94844286.29544  23161922.193    23161911.9524
        40.600          27.9004
 16  1  1  0  3  8.0000000  0  9G06G26G01G16G09G03G23G32G31
 124444488.646 6  96969708.81443  23680995.507    23680990.3064
        38.300          22.9004
 116077552.356 7  90450053.10345  22088810.742    22088803.6654
        44.500          33.6004
 131307481.948 5                  24987012.371
        31.200
 118483868.569 7  92325079.93844  22546714.486    22546704.9484
        42.600          26.6004
 121639346.171 7  94783932.37944  23147179.317    23147173.2954
        42.100          28.6004
 107962123.312 8  84126329.10747  20544507.057    20544499.5114
        48.900          42.3004
 110404697.904 8  86029620.17846  21009296.357    21009282.7744
        49.000          39.7004
 118556425.688 7  92381588.46845  22560534.244    22560525.4674
        43.900          30.7004
 121720062.599 6  94846817.16244  23162539.948    23162530.0584
        41.000          28.0004
 16  1  1  0  3  9.0000000  0  9G06G26G01G16G09G03G23G32G31
 124443645.360 6  96969051.72043  23680835.347    23680829.9124
        37.700          22.0004
 116076530.525 7  90449256.86845  22088616.455    22088609.0864
        43.900          33.5004
 131310992.196 5                  24987680.193
        32.000
 118480925.499 7  92322786.64144  22546153.827    22546144.5234
        42.600          27.0004
 121636449.641 7  94781675.35144  23146628.997    23146622.0384
        42.100          28.8004
 107963454.877 8  84127366.69747  20544760.582    20544752.4504
        49.100          42.6004
 110403128.870 8  86028397.54646  21008997.550    21008984.7294
        48.700          39.5004
 118559531.195 7  92384008.33644  22561124.838    22561116.6484
        43.900          29.8004
 121723310.582 6  94849348.08044  23163158.046    23163148.0394
        41.300          28.2004
 16  1  1  0  3 10.0000000  0  9G06G26G01G16G09G03G23G32G31
 124442802.555 6  96968394.99443  23680674.916    23680669.5984
        37.800          22.3004
 116075509.153 7  90448460.99845  22088421.630    22088414.3774
        44.100          33.9004
 131314502.146 5                  24988348.459
        32.600
 118477982.705 7  92320493.55944  22545593.501    22545585.0184
        42.700          26.9004
 121633553.070 7  94779418.29244  23146077.770    23146070.9274
        42.300          29.2004
 107964786.860 8  84128404.60047  20545014.131    20545005.9994
        49.400          42.7004
 110401559.937 8  86027175.00146  21008699.182    21008685.7164
        49.100          39.6004
 118562636.775 7  92386428.26745  22561715.733    22561707.6024
        43.800          30.0004
 121726558.521 6  94851878.96844  23163776.244    23163766.1204
        41.700          29.1004
 16  1  1  0  3 11.0000000  0  9G06G26G01G16G09G03G23G32G31
 124441960.616 6  96967738.92243  23680514.084    23680509.4114
        37.700          22.0004
 116074488.644 7  90447665.79445  22088227.773    22088220.4624
        44.600          33.6004
 131318012.292 5                  24989017.066
        33.100
 118475040.557 7  92318200.98344  22545033.070    22545024.4694
        42.000          26.0004
 121630656.886 7  94777161.52944  23145525.360    23145519.7494
        42.300          29.1004
 107966119.675 8  84129443.15447  20545267.608    20545259.6534
        48.800          42.7004
 110399991.567 8  86025952.89646  21008400.525    21008387.4124
        49.000          39.7004
 118565742.875 7  92388848.59945  22562306.873    22562298.6834
        43.700          30.3004
 121729806.945 6  94854410.23844  23164395.224    23164384.2794
        41.300          27.9004
 16  1  1  0  3 12.0000000  0  9G06G26G01G16G09G03G23G32G31
 124441119.428 6  96967083.45543  23680353.676    23680349.7064
        37.500          22.2004
 116073468.890 7  90446871.18245  22088033.764    22088026.1024
        44.200          34.0004
 131321522.524 5                  24989685.686
        32.800
 118472098.931 6  92315908.80844  22544473.622    22544464.4354
        41.500          26.1004
 121627760.909 7  94774904.92044  23144974.648    23144968.3924
        42.300          27.9004
 107967453.185 8  84130482.25347  20545521.167    20545513.2114
        48.700          42.7004
 110398423.552 8  86024731.06246  21008102.138    21008089.0834
        48.200          39.5004
 118568849.369 7  92391269.24245  22562898.368    22562889.8264
        43.700          30.9004
 121733055.615 6  94856941.69344  23165013.091    23165002.4394
        41.300          28.9004
 16  1  1  0  3 13.0000000  0  9G06G26G01G16G09G03G23G32G31
 124440278.733 6  96966428.38343  23680194.454    23680189.6634
        37.500          22.3004
 116072449.571 7  90446076.90445  22087839.536    22087832.1664
        44.300          34.3004
 131325032.519 5                  24990353.897
        33.200
 118469157.577 7  92313616.84944  22543913.983    22543904.9134
        42.300          26.8004
 121624864.902 7  94772648.29344  23144423.974    23144417.4834
        42.200          28.1004
 107968787.095 8  84131521.66647  20545775.606    20545767.3574
        49.100          42.7004
 110396855.655 8  86023509.33146  21007804.000    21007791.1204
        48.400          39.4004
 118571955.955 7  92393689.96545  22563489.108    22563481.1534
        43.400          30.6004
 121736304.267 6  94859473.13844  23165630.645    23165620.8144
        41.500          28.5004
 16  1  1  0  3 14.0000000  0  9G06G26G01G16G09G03G23G32G31
 124439438.358 6  96965773.55643  23680034.365    23680029.5744
        37.900          22.5004
 116071430.629 7  90445282.92845  22087645.749    22087638.4964
        44.600          34.2004
 131328542.228 5                  24991022.057
        33.300
 118466216.343 7  92311324.98244  22543354.613    22543345.5444
        42.300          27.3004
 121621968.734 6  94770391.54344  23143872.782    23143866.1744
        41.700          28.9004
 107970121.320 8  84132561.31947  20546029.360    20546020.9364
        49.400          42.8004
 110395287.777 8  86022287.61046  21007505.565    21007492.4514
        48.700          39.8004
 118575062.571 7  92396110.69745  22564080.208    22564072.3104
        43.900          31.0004
 121739552.816 6  94862004.49944  23166248.455    23166238.8004
        41.800          27.9004
 16  1  1  0  3 15.0000000  0  9G06G26G01G16G09G03G23G32G31
 124438599.082 6  96965119.58143  23679875.219    23679870.2524
        37.700          22.5004
 116070412.780 7  90444489.79445  22087451.969    22087444.2484
        45.000          34.2004
 131332052.317 5                  24991689.517
        33.500
 118463276.001 7  92309033.80844  22542795.240    22542785.6434
        42.600          28.1004
 121619073.134 6  94768135.23644  23143321.521    23143315.0304
        41.800          28.7004
 107971456.575 8  84133601.77547  20546283.545    20546275.5304
        49.500          42.7004
 110393720.612 8  86021066.45046  21007207.043    21007194.3394
        48.800          39.7004
 118578169.900 7  92398531.99345  22564671.667    22564663.3014
        43.800          30.9004
 121742801.988 6  94864536.33744  23166868.023    23166857.2544
        41.800          27.4004
 16  1  1  0  3 16.0000000  0  9G06G26G01G16G09G03G23G32G31
 124437760.307 6  96964465.99343  23679715.632    23679710.5484
        37.700          22.2004
 116069395.459 7  90443697.08145  22087258.722    22087250.8834
        45.100          33.9004
 131335562.221 5                  24992357.167
        33.900
 118460335.950 7  92306742.86044  22542235.665    22542226.3024
        42.800          27.9004
 121616177.567 6  94765878.95744  23142770.537    23142764.4564
        41.600          28.9004
 107972792.307 8  84134642.60947  20546537.476    20546529.2854
        49.100          42.6004
 110392153.636 8  86019845.42546  21006909.162    21006896.1074
        49.100          39.7004
 118581277.378 7  92400953.39845  22565263.460    22565255.2704
        43.700          30.6004
 121746051.205 6  94867068.20844  23167486.134    23167475.0134
        40.600          28.3004
 16  1  1  0  3 17.0000000  0  9G06G26G01G16G09G03G23G32G31
 124436922.090 6  96963812.83743  23679555.892    23679551.1594
        38.300          22.3004
 116068378.698 7  90442904.80045  22087065.192    22087057.4704
        45.200          33.8004
 131339072.084 5                  24993025.610
        33.100
 118457396.260 7  92304452.20844  22541676.588    22541666.6394
        42.800          28.1004
 121613282.053 6  94763622.71044  23142219.410    23142213.0364
        41.400          28.2004
 107974128.538 8  84135683.82047  20546791.794    20546783.7804
        48.800          42.5004
 110390586.869 8  86018624.57146  21006610.593    21006598.0074
        49.500          39.6004
 118584385.109 7  92403375.00145  22565854.538    22565845.9964
        43.700          30.5004
 121749300.572 6  94869600.19344  23168104.582    23168093.6954
        40.900          29.0004
 16  1  1  0  3 18.0000000  0  9G06G26G01G16G09G03G23G32G31
 124436084.516 6  96963160.17243  23679396.106    23679391.4324
        37.500          22.5004
 116067362.578 7  90442113.01545  22086872.138    22086864.2994
        45.000          33.9004
 131342581.805 5                  24993693.465
        32.500
 118454457.000 7  92302161.88244  22541117.058    22541107.5784
        42.800          28.1004
 121610386.668 6  94761366.56844  23141668.486    23141662.0544
        41.800          27.7004
 107975465.409 8  84136725.53947  20547046.402    20547038.3884
        49.200          42.7004
 110389020.399 8  86017403.94746  21006312.550    21006299.4954
        49.600          39.6004
 118587493.074 7  92405796.78745  22566446.314    22566438.0074
        43.900          30.4004
 121752550.103 6  94872132.31044  23168722.537    23168711.7104
        41.400          28.1004
 16  1  1  0  3 19.0000000  0  9G06G26G01G16G09G03G23G32G31
 124435247.670 6  96962508.08343  23679237.205    23679232.0634
        38.400          22.6004
 116066347.170 7  90441321.79345  22086678.292    22086670.6884
        44.900          34.2004
 131346091.660 5                  24994362.076
        33.700
 118451518.228 7  92299871.94144  22540558.328    22540548.5554
        42.800          27.7004
 121607491.486 7  94759110.58044  23141117.159    23141111.3134
        42.000          28.6004
 107976802.894 8  84137767.73847  20547300.750    20547292.7944
        49.100          42.6004
 110387454.292 8  86016183.60546  21006014.213    21006001.5104
        49.800          39.4004
 118590601.430 7  92408218.87845  22567037.591    22567029.2834
        43.800          30.5004
 121755799.881 6  94874664.62844  23169341.213    23169330.5034
        41.300          28.3004
 16  1  1  0  3 20.0000000  0  9G06G26G01G16G09G03G23G32G31
 124434411.256 6  96961856.34043  23679077.698    23679072.9074
        38.700          22.9004
 116065332.206 7  90440530.91045  22086484.890    22086477.7554
        44.700          34.1004
 131349601.202 5                  24995028.558
        33.100
 118448579.694 7  92297582.17844  22539998.981    22539989.3264
        42.900          26.9004
 121604596.241 7  94756854.55544  23140567.067    23140560.1084
        42.100          28.9004
 107978140.792 8  84138810.25847  20547554.949    20547546.8184
        49.200          42.7004
 110385888.275 8  86014963.33246  21005716.714    21005703.6014
        49.600          39.3004
 118593709.852 7  92410641.02745  22567629.266    22567621.0174
        44.300          30.5004
 121759049.634 6  94877196.92544  23169959.229    23169949.2224
        41.100          28.1004
 16  1  1  0  3 21.0000000  0  9G06G26G01G16G09G03G23G32G31
 124433575.594 6  96961205.17743  23678918.974    23678914.2424
        38.700          22.6004
 116064318.009 7  90439740.63045  22086292.626    22086284.8464
        44.500          33.8004
 131353110.910 5                  24995697.038
        32.500
 118445641.681 7  92295292.82044  22539439.833    22539429.8254
        42.900          27.1004
 121601701.235 6  94754598.71644  23140016.071    23140009.4634
        41.700          28.9004
 107979479.379 8  84139853.31047  20547810.098    20547802.0254
        49.300          42.6004
 110384322.665 8  86013743.37346  21005418.437    21005405.6754
        48.800          39.3004
 118596818.677 7  92413063.48745  22568220.726    22568212.3604
        44.100          30.6004
 121762299.701 6  94879729.45944  23170577.773    23170567.2384
        41.500          28.0004
 16  1  1  0  3 22.0000000  0  9G06G26G01G16G09G03G23G32G31
 124432740.569 6  96960554.51343  23678760.581    23678755.4384
        38.600          22.6004
 116063304.449 7  90438950.84245  22086099.189    22086091.8194
        44.900          33.9004
 131356620.480 5                  24996364.224
        32.300
 118442704.117 7  92293003.81244  22538880.119    22538870.8154
        43.400          27.1004
 121598806.406 7  94752343.01344  23139465.534    23139458.5164
        42.200          29.6004
 107980818.595 8  84140896.85747  20548064.582    20548056.7434
        49.200          42.5004
 110382757.372 8  86012523.66846  21005120.990    21005107.9354
        48.600          39.5004
 118599927.811 7  92415486.18345  22568811.665    22568804.1194
        44.200          30.8004
 121765549.980 6  94882262.15544  23171196.737    23171185.8514
        41.500          27.6004
 16  1  1  0  3 23.0000000  0  9G06G26G01G16G09G03G23G32G31
 124431906.334 6  96959904.44643  23678601.435    23678596.2344
        38.200          22.6004
 116062291.675 7  90438161.66645  22085906.779    22085899.2334
        44.900          34.1004
 131360130.267 5                  24997030.653
        31.500
 118439767.152 7  92290715.27244  22538321.492    22538312.0124
        43.700          27.3004
 121595911.823 6  94750087.49244  23138914.810    23138908.0854
        41.500          28.8004
 107982158.527 8  84141940.96247  20548319.872    20548311.7994
        49.300          42.7004
 110381192.478 8  86011304.27046  21004823.300    21004810.0114
        48.900          39.4004
 118603037.349 7  92417909.19645  22569404.458    22569395.6824
        43.900          31.0004
 121768800.563 7  94884795.08944  23171814.989    23171803.8684
        42.200          27.8004
 16  1  1  0  3 24.0000000  0  9G06G26G01G16G09G03G23G32G31
 124431072.547 6  96959254.73743  23678443.577    23678437.5554
        38.300          22.5004
 116061279.358 7  90437372.85045  22085714.212    22085706.7254
        45.000          34.4004
 131363639.768 5                  24997697.678
        31.200
 118436830.402 7  92288426.89744  22537762.703    22537752.9304
        43.900          28.0004
 121593017.194 6  94747831.94244  23138363.112    23138356.6804
        41.400          28.0004
 107983498.881 8  84142985.38947  20548575.294    20548567.1034
        49.300          42.7004
 110379627.713 8  86010084.97946  21004525.386    21004512.2734
        48.800          39.2004
 118606146.987 7  92420332.29145  22569996.217    22569987.7344
        43.500          31.1004
 121772051.155 7  94887328.02844  23172434.003    23172422.8824
        42.200          28.4004
 16  1  1  0  3 25.0000000  0  9G06G26G01G16G09G03G23G32G31
 124430239.290 6  96958605.44043  23678284.579    23678279.0854
        38.700          22.9004
 116060267.574 7  90436584.44545  22085521.148    22085513.8374
        44.900          34.0004
 131367149.126 5                  24998365.920
        31.200
 118433893.962 7  92286138.76144  22537203.947    22537194.1154
        43.500          27.9004
 121590122.578 6  94745576.40344  23137813.031    23137805.9544
        41.700          27.6004
 107984839.685 8  84144030.17547  20548830.280    20548822.0314
        49.200          42.8004
 110378063.133 8  86008865.82446  21004227.590    21004214.5944
        48.800          39.4004
 118609256.780 7  92422755.50445  22570587.601    22570579.2354
        43.700          30.7004
 121775301.788 6  94889861.00244  23173052.659    23173041.3034
        41.900          28.8004
 16  1  1  0  3 26.0000000  0  9G06G26G01G16G09G03G23G32G31
 124429407.036 6  96957956.93443  23678125.834    23678120.9264
        38.600          23.0004
 116059256.785 7  90435796.81845  22085328.741    22085322.1924
        44.500          34.3004
 131370658.788 5                  24999033.867
        32.600
 118430958.301 7  92283851.24344  22536645.438    22536635.4894
        43.400          26.9004
 121587228.452 6  94743321.25644  23137261.568    23137255.0784
        41.900          27.5004
 107986181.454 8  84145075.71347  20549085.729    20549077.3624
        48.500          42.8004
 110376499.188 8  86007647.16446  21003929.793    21003916.9144
        48.300          39.5004
 118612367.224 7  92425179.21845  22571179.140    22571171.1854
        43.800          31.2004
 121778552.985 6  94892394.41944  23173671.121    23173659.8824
        41.600          27.7004
 16  1  1  0  3 27.0000000  0  9G06G26G01G16G09G03G23G32G31
 124428575.188 6  96957308.76744  23677968.941    23677962.5684
        38.800          24.3004
 116058246.405 7  90435009.50745  22085137.062    22085129.5164
        44.400          33.9004
 131374168.215 5                  24999702.894
        32.600
 118428022.868 7  92281563.89544  22536087.025    22536076.7254
        43.600          27.4004
 121584334.261 6  94741066.04944  23136711.143    23136704.3014
        41.700          28.5004
 107987523.581 8  84146121.52647  20549340.925    20549332.9694
        48.600          42.7004
 110374935.326 7  86006428.57546  21003632.404    21003619.3494
        47.900          39.5004
 118615477.723 7  92427602.97445  22571771.270    22571763.1974
        43.900          31.5004
 121781804.155 6  94894927.81944  23174289.551    23174278.5484
        41.100          29.1004
 16  1  1  0  3 28.0000000  0  9G06G26G01G16G09G03G23G32G31
 124427744.019 6  96956661.09344  23677809.917    23677804.2474
        39.000          24.8004
 116057236.749 7  90434222.76345  22084945.292    22084937.1604
        44.800          33.9004
 131377677.624 5                  25000370.038
        32.900
 118425087.915 7  92279276.92844  22535528.618    22535518.4354
        43.300          27.6004
 121581440.234 6  94738810.96444  23136160.599    23136153.8744
        41.600          28.7004
 107988866.377 8  84147167.85647  20549595.972    20549588.1924
        48.900          42.5004
 110373371.796 8  86005210.23946  21003334.731    21003321.9694
        48.600          39.7004
 118618588.562 7  92430027.00845  22572364.003    22572355.2854
        44.200          30.6004
 121785055.548 6  94897461.39244  23174908.316    23174897.3714
        40.900          28.2004
 16  1  1  0  3 29.0000000  0  9G06G26G01G16G09G03G23G32G31
 124426913.505 6  96956013.94543  23677652.560    23677646.1284
        38.400          23.5004
 116056227.720 7  90433436.51045  22084752.972    22084745.4264
        44.700          33.8004
 131381186.995 5                  25001038.736
        32.800
 118422153.393 7  92276990.29644  22534969.657    22534959.7674
        43.300          27.1004
 121578546.341 6  94736555.98044  23135609.377    23135603.2394
        41.400          28.8004
 107990209.748 8  84148214.64347  20549852.212    20549844.0804
        49.000          42.3004
 110371808.592 8  86003992.16346  21003036.995    21003024.0584
        48.600          39.8004
 118621699.699 7  92432451.27245  22572955.634    22572946.8584
        44.300          31.2004
 121788307.123 6  94899995.10944  23175527.475    23175516.4134
        41.300          28.3004
 16  1  1  0  3 30.0000000  0  9G06G26G01G16G09G03G23G32G31
 124426083.601 6  96955367.26043  23677493.303    23677488.2774
        37.900          23.6004
 116055219.269 7  90432650.70345  22084560.855    22084553.4864
        44.900          33.7004
 131384696.342 5                  25001706.325
        31.900
 118419219.240 7  92274703.94544  22534411.782    22534401.3064
        42.900          26.4004
 121575652.531 6  94734301.06744  23135058.780    23135052.4074
        41.700          28.9004
 107991553.659 8  84149261.84447  20550107.953    20550099.4694
        48.500          42.3004
 110370245.595 8  86002774.23646  21002739.759    21002727.1154
        48.000          39.6004
 118624811.048 7  92434875.69345  22573547.641    22573539.0994
        44.600          31.1004
 121791558.803 6  94902528.92444  23176145.601    23176135.1254
        41.300          28.5004
 16  1  1  0  3 31.0000000  0  9G06G26G01G16G09G03G23G32G31
 124425254.265 6  96954721.01943  23677335.986    23677330.6094
        38.300          22.8004
 116054211.449 7  90431865.39745  22084369.186    22084361.9344
        44.700          33.7004
 131388205.583 5                  25002374.636
        31.600
 118416285.487 7  92272417.90444  22533853.346    22533843.2214
        42.800          27.5004
 121572758.829 7  94732046.23744  23134507.203    23134501.7674
        42.100          28.1004
 107992898.136 8  84150309.48647  20550363.778    20550355.6474
        48.800          42.3004
 110368682.859 8  86001556.52446  21002442.440    21002429.6204
        48.300          39.7004
 118627922.676 7  92437300.34445  22574139.444    22574131.3124
        44.900          30.7004
 121794810.650 6  94905062.84144  23176765.422    23176753.8324
        41.900          28.9004
 16  1  1  0  3 32.0000000  0  9G06G26G01G16G09G03G23G32G31
 124424425.683 6  96954075.37243  23677177.988    23677173.1384
        37.900          22.9004
 116053204.395 7  90431080.67245  22084177.858    22084170.0784
        44.900          33.5004
 131391714.933 5                  25003042.479
        32.400
 118413352.268 7  92270132.28344  22533295.000    22533285.0514
        42.600          27.9004
 121569865.356 7  94729791.59344  23133957.432    23133951.2934
        42.300          28.3004
 107994243.291 8  84151357.65647  20550619.255    20550611.2414
        49.000          42.1004
 110367120.528 8  86000339.12846  21002145.253    21002132.1394
        48.600          39.6004
 118631034.664 7  92439725.26445  22574731.873    22574723.6834
        44.800          30.8004
 121798062.778 7  94907596.97944  23177383.364    23177372.4774
        42.100          28.3004
 16  1  1  0  3 33.0000000  0  9G06G26G01G16G09G03G23G32G31
 124423597.606 6  96953430.12543  23677019.801    23677015.2454
        38.100          22.9004
 116052197.827 7  90430296.33945  22083986.418    22083978.4624
        44.700          33.6004
 131395224.011 5                  25003710.057
        31.800
 118410419.364 7  92267846.89944  22532736.710    22532727.0544
        42.500          27.1004
 121566971.944 7  94727536.98644  23133407.058    23133400.6854
        42.100          28.6004
 107995588.940 8  84152406.21747  20550875.359    20550867.4624
        48.500          42.1004
 110365558.367 8  85999121.85446  21001847.920    21001834.9824
        48.800          39.4004
 118634146.801 7  92442150.29145  22575324.290    22575315.3384
        44.500          30.7004
 121801314.958 7  94910131.15544  23178002.556    23177991.1424
        42.100          27.5004
 16  1  1  0  3 34.0000000  0  9G06G26G01G16G09G03G23G32G31
 124422770.292 6  96952785.46243  23676862.274    23676857.8944
        37.700          23.4004
 116051192.000 7  90429512.57945  22083794.982    22083787.0274
        44.500          34.1004
 131398733.171 5                  25004377.959
        32.000
 118407486.988 7  92265561.93944  22532179.194    22532168.7774
        42.400          27.5004
 121564078.677 7  94725282.49844  23132856.542    23132850.0514
        42.400          28.8004
 107996935.254 7  84153455.29347  20551132.054    20551123.6294
        47.900          42.2004
 110363996.589 8  85997904.89246  21001551.083    21001537.6184
        48.500          39.3004
 118637259.345 7  92444575.64945  22575916.901    22575907.7154
        43.700          30.4004
 121804567.428 7  94912665.54044  23178621.101    23178610.0394
        42.300          28.6004
 16  1  1  0  3 35.0000000  0  9G06G26G01G16G09G03G23G32G31
 124421943.549 6  96952141.25943  23676705.640    23676700.6144
        37.300          23.9004
 116050186.816 7  90428729.31845  22083603.222    22083595.7354
        44.100          33.8004
 131402242.368 5                  25005045.475
        31.500
 118404555.015 7  92263277.28344  22531621.154    22531611.2644
        42.500          27.2004
 121561185.591 6  94723028.15444  23132306.037    23132299.4294
        41.800          28.5004
 107998282.154 8  84154504.82947  20551387.719    20551380.0564
        48.500          42.2004
 110362435.086 8  85996688.13646  21001253.958    21001240.3764
        48.800          39.4004
 118640372.125 7  92447001.19045  22576509.001    22576500.1664
        43.600          31.1004
 121807820.039 7  94915200.04944  23179239.371    23179229.0124
        42.300          27.8004
 16  1  1  0  3 36.0000000  0  9G06G26G01G16G09G03G23G32G31
 124421117.461 6  96951497.56043  23676547.427    23676543.1054
        37.900          23.2004
 116049182.234 7  90427946.52545  22083412.054    22083404.8604
        43.900          33.0004
 131405751.486 5                  25005713.800
        31.200
 118401623.448 7  92260992.95544  22531063.371    22531053.1884
        42.300          26.6004
 121558292.566 6  94720773.85344  23131755.227    23131748.8544
        41.600          28.2004
 107999629.633 8  84155554.80647  20551644.443    20551636.2524
        48.800          42.2004
 110360873.848 8  85995471.59446  21000956.828    21000943.4804
        48.600          39.8004
 118643485.178 7  92449426.94545  22577101.477    22577092.9354
        43.900          30.7004
 121811072.814 7  94917734.70344  23179859.100    23179847.9804
        42.500          28.5004
 16  1  1  0  3 37.0000000  0  9G06G26G01G16G09G03G23G32G31
 124420291.995 6  96950854.33243  23676391.487    23676386.0514
        37.200          23.0004
 116048178.311 7  90427164.25545  22083220.872    22083213.5024
        44.300          33.6004
 131409260.526 5                  25006382.068
        31.600
 118398692.318 7  92258708.96844  22530505.356    22530495.2904
        42.600          27.4004
 121555399.690 6  94718519.67244  23131205.341    23131198.7344
        41.500          28.1004
 108000977.685 8  84156605.24247  20551900.863    20551893.0244
        48.800          42.0004
 110359312.910 8  85994255.27446  21000659.419    21000646.4234
        48.300          39.7004
 118646598.515 7  92451852.91445  22577693.629    22577685.1464
        43.800          30.8004
 121814325.788 7  94920269.50344  23180478.814    23180467.0484
        42.100          28.2004
 16  1  1  0  3 38.0000000  0  9G06G26G01G16G09G03G23G32G31
 124419467.172 6  96950211.61543  23676234.579    23676229.1434
        38.200          22.9004
 116047174.972 7  90426382.42545  22083029.858    22083022.7234
        44.700          33.5004
 131412769.444 5                  25007049.138
        32.200
 118395761.581 7  92256425.27844  22529947.488    22529937.7744
        42.400          27.4004
 121552506.950 7  94716265.59144  23130653.827    23130648.0984
        42.100          28.3004
 108002326.283 8  84157656.09247  20552157.360    20552149.5804
        48.500          42.1004
 110357752.226 8  85993039.16346  21000362.628    21000349.8664
        48.100          39.7004
 118649712.090 7  92454279.07345  22578286.330    22578277.7884
        43.700          30.7004
 121817578.898 6  94922804.41244  23181097.177    23181085.8224
        41.800          28.4004
 16  1  1  0  3 39.0000000  0  9G06G26G01G16G09G03G23G32G31
 124418642.878 6  96949569.31043  23676077.766    23676072.6244
        38.500          22.8004
 116046172.238 7  90425601.08145  22082839.327    22082832.1334
        44.300          33.6004
 131416278.320 5                  25007716.936
        32.900
 118392831.202 7  92254141.86444  22529390.055    22529380.3414
        42.100          27.0004
 121549614.250 7  94714011.53544  23130103.604    23130097.2894
        42.300          28.3004
 108003675.430 8  84158707.38146  20552414.353    20552406.5734
        48.100          41.9004
 110356191.777 7  85991823.23146  21000066.130    21000052.7234
        47.900          39.8004
 118652825.889 7  92456705.41445  22578878.454    22578870.3814
        43.800          31.1004
 121820832.087 6  94925339.37744  23181716.494    23181705.0214
        41.900          27.8004
 16  1  1  0  3 40.0000000  0  9G06G26G01G16G09G03G23G32G31
 124417819.449 6  96948927.68043  23675920.718    23675915.8104
        38.700          22.9004
 116045170.321 7  90424820.36545  22082648.889    22082641.2854
        43.900          33.5004
 131419787.296 5                  25008384.390
        33.100
 118389901.457 7  92251858.95544  22528832.785    22528822.6604
        42.000          26.9004
 121546721.861 7  94711757.73244  23129553.297    23129546.9834
        42.200          28.6004
 108005025.356 8  84159759.26647  20552671.631    20552663.0304
        48.800          42.0004
 110354631.791 8  85990607.65246  20999768.869    20999755.6974
        48.300          39.9004
 118655940.159 7  92459132.11645  22579471.544    22579463.4714
        43.400          30.4004
 121824085.692 7  94927874.66944  23182335.865    23182323.6314
        42.200          28.5004
 16  1  1  0  3 41.0000000  0  9G06G26G01G16G09G03G23G32G31
 124416996.452 6  96948286.38343  23675764.235    23675759.3274
        37.800          23.0004
 116044168.871 7  90424040.01445  22082458.279    22082450.0304
        43.800          33.7004
 131423296.094 5                  25009052.800
        33.100
 118386971.937 7  92249576.21744  22528274.612    22528264.7224
        42.300          26.8004
 121543829.438 7  94709503.90044  23129002.271    23128996.1324
        42.100          28.5004
 108006375.678 8  84160811.46647  20552928.337    20552920.0884
        49.000          42.1004
 110353071.925 8  85989392.17746  20999471.772    20999459.0104
        48.600          40.0004
 118659054.532 7  92461558.89945  22580063.802    22580055.6704
        43.400          31.0004
 121827339.280 6  94930409.94044  23182954.549    23182943.3114
        41.400          28.3004
 16  1  1  0  3 42.0000000  0  9G06G26G01G16G09G03G23G32G31
 124416174.296 6  96947645.73443  23675607.956    23675602.9894
        38.400          22.9004
 116043168.273 7  90423260.32645  22082267.593    22082259.9304
        43.900          33.6004
 131426805.080 5                  25009719.701
        33.300
 118384043.090 7  92247293.99744  22527717.776    22527707.4174
        42.200          27.2004
 121540937.396 6  94707250.36844  23128453.058    23128446.3924
        41.700          28.8004
 108007726.822 8  84161864.30947  20553185.567    20553177.4354
        49.100          42.1004
 110351512.574 8  85988177.09946  20999175.410    20999162.2974
        48.400          39.9004
 118662169.394 7  92463986.05645  22580656.531    22580648.3414
        43.800          30.6004
 121830593.267 7  94932945.52244  23183573.749    23183562.1594
        42.100          28.6004
 16  1  1  0  3 43.0000000  0  9G06G26G01G16G09G03G23G32G31
 124415352.829 6  96947005.63344  23675451.732    23675446.0624
        38.200          24.6004
 116042168.327 7  90422481.14745  22082077.156    22082070.0214
        44.100          33.5004
 131430313.995 5                  25010387.904
        33.600
 118381114.675 7  92245012.13444  22527160.353    22527150.1114
        42.500          27.9004
 121538045.457 6  94704996.91144  23127901.733    23127895.7694
        41.800          28.7004
 108009078.558 8  84162917.60347  20553442.736    20553434.4284
        49.100          42.3004
 110349953.528 8  85986962.25346  20998878.784    20998865.6704
        48.800          39.8004
 118665284.548 7  92466413.44445  22581249.193    22581241.0614
        43.700          31.4004
 121833847.437 7  94935481.26244  23184192.993    23184181.8724
        42.600          28.6004
 16  1  1  0  3 44.0000000  0  9G06G26G01G16G09G03G23G32G31
 124414531.812 6  96946365.87943  23675295.342    23675290.1994
        38.100          22.8004
 116041168.880 7  90421702.35845  22081886.771    22081879.9884
        44.400          33.7004
 131433822.620 5                  25011056.174
        33.300
 118378186.514 7  92242730.45044  22526603.044    22526592.9784
        42.600          27.7004
 121535153.506 6  94702743.44644  23127351.531    23127345.6854
        41.200          29.0004
 108010430.719 8  84163971.24047  20553699.915    20553691.6084
        49.100          42.4004
 110348394.593 8  85985747.50146  20998582.185    20998568.6614
        48.800          39.8004
 118668399.834 7  92468840.93445  22581842.265    22581833.7824
        44.100          31.1004
 121837101.621 7  94938017.00944  23184812.115    23184801.1114
        42.400          29.1004
 16  1  1  0  3 45.0000000  0  9G06G26G01G16G09G03G23G32G31
 124413711.576 6  96945726.74143  23675138.765    23675134.0914
        38.700          22.5004
 116040170.215 7  90420924.17745  22081696.992    22081689.7394
        44.600          33.8004
 131437331.505 5                  25011723.410
        33.100
 118375258.943 7  92240449.22544  22526045.914    22526035.9654
        43.000          28.6004
 121532261.858 6  94700490.22144  23126801.738    23126795.0134
        41.300          28.9004
 108011783.628 8  84165025.45847  20553957.357    20553948.9914
        49.000          42.5004
 110346836.118 8  85984533.10646  20998285.514    20998271.9904
        49.500          39.7004
 118671515.536 7  92471268.75845  22582435.176    22582426.4584
        44.600          30.7004
 121840356.150 7  94940553.02044  23185431.481    23185420.2434
        42.600          29.3004
 16  1  1  0  3 46.0000000  0  9G06G26G01G16G09G03G23G32G31
 124412891.633 6  96945087.82943  23674982.522    23674978.2004
        38.500          23.4004
 116039171.842 7  90420146.22645  22081506.528    22081499.6274
        44.400          33.9004
 131440839.935 5                  25012390.972
        32.900
 118372331.442 7  92238168.06344  22525489.107    22525478.9244
        42.600          28.1004
 121529369.965 6  94698236.79644  23126251.412    23126244.9214
        41.300          28.6004
 108013136.765 8  84166079.84647  20554214.944    20554206.9884
        49.300          42.2004
 110345277.574 8  85983318.66046  20997988.657    20997975.6604
        49.500          39.8004
 118674631.154 7  92473696.51045  22583028.033    22583019.4914
        44.300          30.8004
 121843610.471 7  94943088.86744  23186050.235    23186039.7594
        42.400          28.3004
 16  1  1  0  3 47.0000000  0  9G06G26G01G16G09G03G23G32G31
 124412072.650 6  96944449.66543  23674826.259    23674822.2304
        38.300          23.5004
 116038174.411 7  90419369.00445  22081316.934    22081310.0334
        44.600          33.5004
 131444348.614 5                  25013057.975
        33.400
 118369404.686 7  92235887.48144  22524932.391    22524921.9144
        43.100          27.4004
 121526478.467 6  94695983.69144  23125701.075    23125694.8194
        41.300          28.6004
 108014490.805 8  84167134.94547  20554472.651    20554464.6374
        48.600          42.1004
 110343719.612 7  85982104.66546  20997692.285    20997679.1724
        47.900          39.7004
 118677747.370 7  92476124.72745  22583621.650    22583612.7564
        44.400          30.5004
 121846865.304 6  94945625.11044  23186670.238    23186659.1764
        41.800          28.2004
 16  1  1  0  3 48.0000000  0  9G06G26G01G16G09G03G23G32G31
 124411254.252 6  96943811.95144  23674671.475    23674666.6854
        38.100          24.3004
 116037177.587 7  90418592.25945  22081127.310    22081119.8234
        44.400          33.7004
 131447857.257 5                  25013726.092
        32.900
 118366478.335 7  92233607.20444  22524375.016    22524364.9504
        42.700          27.3004
 121523587.120 6  94693730.69544  23125150.852    23125144.5964
        41.700          29.3004
 108015845.398 8  84168190.46547  20554730.270    20554722.2554
        48.800          42.0004
 110342161.934 8  85980890.89046  20997395.520    20997382.9344
        48.300          39.4004
 118680863.819 7  92478553.13545  22584214.347    22584205.9814
        44.200          30.8004
 121850120.252 7  94948161.44044  23187290.073    23187278.3084
        42.200          28.4004
 16  1  1  0  3 49.0000000  0  9G06G26G01G16G09G03G23G32G31
 124410436.397 6  96943174.65743  23674515.666    23674510.8754
        38.300          23.4004
 116036181.279 7  90417815.91945  22080937.835    22080930.7594
        44.700          33.5004
 131451365.690 5                  25014394.088
        32.400
 118363552.282 7  92231327.16444  22523818.094    22523808.5564
        43.200          27.9004
 121520695.797 7  94691477.71744  23124601.090    23124594.4244
        42.000          28.4004
 108017200.460 8  84169246.36347  20554987.781    20554979.8254
        48.700          42.3004
 110340604.413 8  85979677.24246  20997098.927    20997086.4004
        48.600          39.5004
 118683980.443 7  92480981.66744  22584806.992    22584798.5684
        44.400          29.7004
 121853375.295 7  94950697.84344  23187909.222    23187897.8084
        42.000          27.0004
 16  1  1  0  3 50.0000000  0  9G06G26G01G16G09G03G23G32G31
 124409619.286 6  96942537.95343  23674360.525    23674355.3824
        38.300          22.5004
 116035185.755 7  90417040.18845  22080748.394    22080740.9654
        44.400          33.5004
 131454874.261 5                  25015061.335
        31.300
 118360626.812 7  92229047.58444  22523261.697    22523251.7484
        43.500          27.1004
 121517804.719 6  94689224.93144  23124050.527    23124044.1544
        41.500          28.5004
 108018556.232 8  84170302.80847  20555246.196    20555238.1824
        49.100          42.4004
 110339047.335 8  85978463.93446  20996802.653    20996790.0674
        48.800          39.5004
 118687097.473 7  92483410.51845  22585400.595    22585391.7014
        44.100          30.1004
 121856630.675 6  94953234.52244  23188528.226    23188517.7504
        41.500          28.6004
 16  1  1  0  3 51.0000000  0  9G06G26G01G16G09G03G23G32G31
 124408802.773 6  96941901.71443  23674205.036    23674200.0114
        38.300          22.8004
 116034190.797 7  90416264.89145  22080559.205    22080551.6604
        44.500          33.7004
 131458382.755 5                  25015728.870
        31.000
 118357701.683 7  92226768.26744  22522704.384    22522694.3184
        43.600          25.7004
 121514913.694 6  94686972.19544  23123500.909    23123493.8914
        41.300          28.6004
 108019912.531 8  84171359.66747  20555504.469    20555496.3384
        49.300          42.3004
 110337490.449 8  85977250.77446  20996506.339    20996493.9874
        48.800          39.4004
 118690214.713 7  92485839.53145  22585993.285    22585984.7434
        44.300          31.0004
 121859886.119 6  94955771.26144  23189147.861    23189136.5644
        41.400          28.5004
 16  1  1  0  3 52.0000000  0  9G06G26G01G16G09G03G23G32G31
 124407986.709 6  96941265.82243  23674049.831    23674044.6294
        38.100          22.9004
 116033196.343 7  90415489.99245  22080370.060    22080362.3974
        44.500          33.5004
 131461891.005 5                  25016395.802
        31.900
 118354776.834 7  92224489.16844  22522148.272    22522138.0894
        43.400          26.6004
 121512022.678 6  94684719.45944  23122950.123    23122943.8674
        41.400          28.7004
 108021269.286 8  84172416.87347  20555762.536    20555754.1704
        49.500          42.3004
 110335933.734 8  85976037.75146  20996210.638    20996197.7004
        49.000          39.4004
 118693332.113 7  92488268.66845  22586586.692    22586578.3254
        44.000          30.8004
 121863141.608 6  94958308.02644  23189767.236    23189756.4094
        41.500          28.0004
 16  1  1  0  3 53.0000000  0  9G06G26G01G16G09G03G23G32G31
 124407171.591 6  96940630.65943  23673894.025    23673889.8784
        38.100          22.9004
 116032202.842 7  90414715.84045  22080181.247    22080173.4674
        44.700          33.8004
 131465399.530 5                  25017064.320
        31.500
 118351852.736 7  92222210.66444  22521592.246    22521581.9454
        43.300          27.4004
 121509132.087 6  94682467.05744  23122400.177    23122393.9804
        41.300          29.0004
 108022626.932 8  84173474.77647  20556020.690    20556012.6174
        49.500          42.1004
 110334377.609 8  85974825.19046  20995914.202    20995901.2064
        48.800          39.6004
 118696450.111 7  92490698.27845  22587180.344    22587171.6264
        44.300          30.8004
 121866397.586 6  94960845.15644  23190386.798    23190376.0284
        41.400          27.2004
 16  1  1  0  3 54.0000000  0  9G06G26G01G16G09G03G23G32G31
 124406356.919 6  96939995.85643  23673739.205    23673734.7664
        37.900          23.0004
 116031209.780 7  90413942.02645  22079992.172    22079984.6274
        44.900          33.8004
 131468907.794 5                  25017731.044
        31.600
 118348928.878 7  92219932.34544  22521035.756    22521025.6314
        43.200          27.5004
 121506241.455 6  94680214.61744  23121849.973    23121843.7764
        41.400          28.7004
 108023984.971 8  84174532.98947  20556279.434    20556271.0094
        49.600          42.2004
 110332821.568 8  85973612.69346  20995618.566    20995605.5694
        48.700          39.8004
 118699568.115 7  92493127.88745  22587773.824    22587764.9304
        44.500          31.2004
 121869653.550 6  94963382.28844  23191006.269    23190995.6174
        41.800          26.7004
 16  1  1  0  3 55.0000000  0  9G06G26G01G16G09G03G23G32G31
 124405543.046 6  96939361.67144  23673584.305    23673580.0424
        38.600          24.0004
 116030217.486 7  90413168.81245  22079803.274    22079795.4354
        45.100          33.9004
 131472416.119 5                  25018397.675
        31.900
 118346005.576 7  92217654.44344  22520479.130    22520469.6504
        43.300          27.5004
 121503351.040 6  94677962.34444  23121300.246    23121293.6974
        41.600          29.3004
 108025343.707 8  84175591.74846  20556537.847    20556530.0674
        49.700          41.8004
 110331265.951 8  85972400.51946  20995322.111    20995309.6424
        48.800          39.8004
 118702686.597 7  92495557.87045  22588367.159    22588357.9724
        44.300          31.0004
 121872909.805 6  94965919.63844  23191626.381    23191615.3194
        41.700          27.8004
 16  1  1  0  3 56.0000000  0  9G06G26G01G16G09G03G23G32G31
 124404729.791 6  96938727.98743  23673429.545    23673425.5164
        39.000          22.8004
 116029225.856 7  90412396.11545  22079614.293    22079606.8064
        44.800          33.8004
 131475924.581 5                  25019064.969
        31.300
 118343082.703 7  92215376.87844  22519922.531    22519913.1104
        43.000          27.2004
 121500460.812 6  94675710.22044  23120749.868    23120743.5534
        41.400          28.3004
 108026703.068 8  84176650.98846  20556796.498    20556788.4254
        49.800          41.8004
 110329710.658 8  85971188.60446  20995026.023    20995013.3784
        48.500          39.3004
 118705805.372 7  92497988.07945  22588960.048    22588952.1514
        44.100          31.5004
 121876166.260 6  94968457.16444  23192245.419    23192234.8254
        41.300          28.7004
 16  1  1  0  3 57.0000000  0  9G06G26G01G16G09G03G23G32G31
 124403917.126 6  96938094.73643  23673275.662    23673270.6954
        38.300          22.5004
 116028234.804 7  90411623.86845  22079425.984    22079418.4384
        44.900          34.0004
 131479432.777 5                  25019733.117
        31.300
 118340160.211 7  92213099.61544  22519367.157    22519357.0914
        43.200          27.0004
 121497570.632 6  94673458.13644  23120200.394    23120193.6694
        41.600          28.7004
 108028062.941 8  84177710.62447  20557055.400    20557047.4454
        50.100          42.0004
 110328155.568 8  85969976.84646  20994730.328    20994717.6244
        48.700          39.6004
 118708924.354 7  92500418.45445  22589553.412    22589545.5144
        43.800          30.7004
 121879422.844 6  94970994.77744  23192864.654    23192854.5884
        41.500          28.5004
 16  1  1  0  3 58.0000000  0  9G06G26G01G16G09G03G23G32G31
 124403104.864 6  96937461.79543  23673120.688    23673116.1904
        38.400          22.8004
 116027244.199 7  90410851.97045  22079237.513    22079229.9084
        44.600          34.0004
 131482940.748 5                  25020401.391
        30.800
 118337237.946 7  92210822.53244  22518810.634    22518800.8614
        42.700          26.9004
 121494680.398 6  94671206.01544  23119649.372    23119643.1164
        41.800          28.7004
 108029423.198 8  84178770.56947  20557314.372    20557305.9474
        49.800          42.1004
 110326600.585 8  85968765.17646  20994434.544    20994421.4894
        48.900          39.4004
 118712043.400 7  92502848.87745  22590147.607    22590138.6554
        44.100          31.4004
 121882679.342 6  94973532.32544  23193484.537    23193474.0614
        41.800          28.5004
 16  1  1  0  3 59.0000000  0  9G06G26G01G16G09G03G23G32G31
 124402293.563 6  96936829.61943  23672967.163    23672961.6104
        38.600          23.2004
 116026254.488 7  90410080.76745  22079049.070    22079041.4074
        44.500          34.3004
 131486448.965 5                  25021069.545
        31.000
 118334316.419 7  92208546.01744  22518255.050    22518245.0434
        43.000          27.6004
 121491790.593 6  94668954.21844  23119099.987    23119093.7904
        41.300          28.3004
 108030784.369 8  84179831.22247  20557573.395    20557565.1464
        49.500          42.0004
 110325046.177 8  85967553.94746  20994138.743    20994126.2154
        48.200          39.5004
 118715163.024 7  92505279.75045  22590740.607    22590732.4764
        43.700          31.5004
 121885936.345 7  94976070.25644  23194104.371    23194093.8954
        42.000          28.7004
 16  1  1  0  4  0.0000000  0  9G06G26G01G16G09G03G23G32G31
 124401482.758 6  96936197.80543  23672812.635    23672807.1994
        38.200          22.8004
 116025265.316 7  90409309.98545  22078860.930    22078853.5014
        44.300          34.2004
 131489956.983 5                  25021736.751
        31.200
 118331395.161 7  92206269.71844  22517699.711    22517689.2344
        42.800          27.9004
 121488900.738 6  94666702.39244  23118549.318    23118543.7064
        41.600          28.6004
 108032145.957 8  84180892.20246  20557832.317    20557824.3024
        49.600          41.8004
 110323491.920 8  85966342.83746  20993842.893    20993830.0734
        48.800          39.4004
 118718282.793 7  92507710.73445  22591334.555    22591326.4824
        43.900          30.9004
 121889193.363 7  94978608.20544  23194723.923    23194713.6814
        42.300          28.7004
 16  1  1  0  4  1.0000000  0  9G06G26G01G16G09G03G23G32G31
 124400672.594 6  96935566.52543  23672658.332    23672653.1894
        38.400          22.9004
 116024276.790 7  90408539.69745  22078672.403    22078665.0334
        44.500          34.2004
 131493465.013 5                  25022403.701
        31.900
 118328474.334 7  92203993.74644  22517143.339    22517133.3904
        43.200          27.7004
 121486011.071 6  94664450.70544  23118000.491    23117994.1184
        41.400          28.2004
 108033508.141 8  84181953.64446  20558091.459    20558083.5034
        49.400          41.8004
 110321937.953 8  85965131.95746  20993546.917    20993534.1554
        48.900          39.7004
 118721402.785 7  92510141.89645  22591928.289    22591920.2164
        43.400          31.5004
 121892450.578 7  94981146.30044  23195344.036    23195333.3844
        42.400          28.0004
 16  1  1  0  4  2.0000000  0  9G06G26G01G16G09G03G23G32G31
 124399863.293 6  96934935.90443  23672504.450    23672499.0734
        38.800          22.5004
 116023289.157 7  90407770.11545  22078484.999    22078477.2774
        44.100          34.0004
 131496973.253 5                  25023071.923
        31.200
 118325554.194 7  92201718.31544  22516588.163    22516577.8044
        43.200          27.5004
 121483121.723 6  94662199.26744  23117449.864    23117443.7844
        41.400          28.2004
 108034871.163 8  84183015.73446  20558350.790    20558342.7164
        49.100          41.8004
 110320384.548 8  85963921.50446  20993251.559    20993238.6804
        48.500          39.7004
 118724523.370 7  92512573.52245  22592521.977    22592513.9044
        43.500          30.7004
 121895708.197 7  94983684.71544  23195963.857    23195953.0294
        42.100          27.9004
 16  1  1  0  4  3.0000000  0  9G06G26G01G16G09G03G23G32G31
 124399054.312 6  96934305.52243  23672350.743    23672345.3664
        38.300          22.5004
 116022301.778 7  90407000.73045  22078297.005    22078289.4014
        44.200          34.0004
 131500481.028 5                  25023740.029
        31.900
 118322634.123 7  92199442.94144  22516032.295    22516021.7024
        43.000          28.3004
 121480232.192 6  94659947.68944  23116900.151    23116894.2474
        41.300          28.9004
 108036234.403 8  84184078.00147  20558610.663    20558602.1214
        48.700          42.1004
 110318831.037 8  85962710.98046  20992956.254    20992943.0234
        48.100          39.6004
 118727643.845 7  92515005.05645  22593116.017    22593107.5924
        43.800          31.2004
 121898965.672 6  94986223.01044  23196583.791    23196573.4904
        41.700          28.2004
 16  1  1  0  4  4.0000000  0  9G06G26G01G16G09G03G23G32G31
 124398246.045 6  96933675.71743  23672197.446    23672191.1904
        38.800          22.6004
 116021315.195 7  90406231.96845  22078108.524    22078101.6234
        44.300          33.8004
 131503988.924 5                  25024406.694
        32.300
 118319714.619 7  92197168.01044  22515476.550    22515466.0744
        43.300          28.0004
 121477342.926 6  94657696.32544  23116350.605    23116344.2904
        41.300          28.3004
 108037598.398 8  84185140.85646  20558869.595    20558861.7574
        49.400          41.8004
 110317277.975 8  85961500.80446  20992660.633    20992647.6954
        48.500          39.7004
 118730764.773 7  92517436.94745  22593709.628    22593701.4964
        43.500          31.0004
 121902223.432 6  94988761.54144  23197203.999    23197193.1724
        40.900          27.9004
 16  1  1  0  4  5.0000000  0  9G06G26G01G16G09G03G23G32G31
 124397438.431 6  96933046.39743  23672044.070    23672037.8734
        38.700          22.5004
 116020329.238 7  90405463.69545  22077921.647    22077914.0434
        44.600          34.1004
 131507496.773 5                  25025074.575
        32.200
 118316795.537 7  92194893.40944  22514921.275    22514910.9744
        43.200          27.1004
 121474453.758 6  94655445.02844  23115800.570    23115794.5484
        40.900          28.2004
 108038962.912 8  84186204.11146  20559129.486    20559121.3554
        49.600          41.5004
 110315725.176 8  85960290.83446  20992365.535    20992352.0704
        48.700          39.8004
 118733885.908 7  92519869.00445  22594304.214    22594295.3794
        43.300          31.3004
 121905481.333 6  94991300.17244  23197823.595    23197813.2954
        41.300          28.9004
 16  1  1  0  4  6.0000000  0  9G06G26G01G16G09G03G23G32G31
 124396631.557 6  96932417.65943  23671889.893    23671884.5754
        39.100          22.6004
 116019344.024 7  90404696.00045  22077733.623    22077726.6054
        44.600          34.4004
 131511004.683 5                  25025742.735
        32.300
 118313876.984 7  92192619.21044  22514365.359    22514355.4104
        43.200          28.2004
 121471564.838 6  94653193.93444  23115250.753    23115244.7904
        40.500          28.5004
 108040328.170 8  84187267.94746  20559389.266    20559381.1934
        49.500          41.6004
 110314172.776 8  85959081.17146  20992069.725    20992056.4364
        49.100          39.7004
 118737007.440 7  92522301.36445  22594897.998    22594889.2804
        43.500          31.2004
 121908739.563 6  94993839.07944  23198443.470    23198433.0524
        41.000          29.0004
 16  1  1  0  4  7.0000000  0  9G06G26G01G16G09G03G23G32G31
 124395825.099 6  96931789.27043  23671736.512    23671731.0774
        39.000          22.6004
 116018359.203 7  90403928.59645  22077546.031    22077539.0134
        44.600          34.2004
 131514512.313 5                  25026410.373
        32.300
 118310958.620 7  92190345.17244  22513810.209    22513800.3194
        43.300          28.7004
 121468675.821 6  94650942.75244  23114701.669    23114695.0614
        41.100          28.0004
 108041693.762 8  84188332.04746  20559649.042    20559640.7934
        49.500          41.8004
 110312620.452 8  85957871.57246  20991774.581    20991761.4084
        49.000          39.4004
 118740129.000 7  92524733.74245  22595492.141    22595483.3654
        43.600          30.4004
 121911997.725 6  94996377.91444  23199064.096    23199053.4444
        41.300          28.3004
 16  1  1  0  4  8.0000000  0  9G06G26G01G16G09G03G23G32G31
 124395019.554 6  96931161.58243  23671583.455    23671577.3754
        38.500          22.5004
 116017375.331 7  90403161.94745  22077359.398    22077351.8534
        45.000          34.0004
 131518020.130 5                  25027078.365
        32.400
 118308040.990 7  92188071.69844  22513255.555    22513244.8454
        43.400          28.1004
 121465787.230 6  94648691.90344  23114151.463    23114145.6174
        40.600          27.4004
 108043060.228 8  84189396.82846  20559908.881    20559901.1604
        49.500          41.5004
 110311068.682 8  85956662.40546  20991478.921    20991465.9834
        49.300          39.5004
 118743251.138 7  92527166.57545  22596085.885    22596077.4604
        43.900          30.4004
 121915256.328 6  94998917.09444  23199683.879    23199672.8754
        41.900          28.3004
 16  1  1  0  4  9.0000000  0  9G06G26G01G16G09G03G23G32G31
 124394214.435 6  96930534.21243  23671428.872    23671424.0234
        38.300          22.8004
 116016391.880 7  90402395.62145  22077172.234    22077165.0404
        45.100          33.4004
 131521527.783 5                  25027744.984
        32.200
 118305123.571 7  92185798.38744  22512700.397    22512689.8044
        43.600          28.1004
 121462898.537 6  94646440.97844  23113601.946    23113595.6904
        40.600          27.2004
 108044427.065 8  84190461.88846  20560169.169    20560160.6864
        49.200          41.7004
 110309516.986 8  85955453.29446  20991183.858    20991170.6864
        48.800          39.6004
 118746373.335 7  92529599.44945  22596679.900    22596671.4754
        43.800          30.1004
 121918514.899 6  95001456.25344  23200303.802    23200293.0924
        41.600          28.6004
 16  1  1  0  4 10.0000000  0  9G06G26G01G16G09G03G23G32G31
 124393409.933 6  96929907.32743  23671276.315    23671270.9384
        38.200          22.6004
 116015409.054 7  90401629.78245  22076985.196    22076977.3584
        45.100          33.6004
 131525035.275 5                  25028412.769
        32.800
 118302206.554 7  92183525.38844  22512145.019    22512134.8944
        43.700          27.9004
 121460009.977 6  94644190.14744  23113051.572    23113045.6684
        40.300          27.9004
 108045794.484 8  84191527.40946  20560429.431    20560421.4164
        49.400          41.8004
 110307965.576 8  85954244.40646  20990888.802    20990875.9234
        48.800          39.6004
 118749495.797 7  92532032.53745  22597274.509    22597266.2014
        43.600          30.7004
 121921773.603 6  95003995.50544  23200924.204    23200913.3184
        41.800          28.7004
 16  1  1  0  4 11.0000000  0  9G06G26G01G16G09G03G23G32G31
 124392606.166 6  96929281.00343  23671123.114    23671118.3814
        38.000          22.6004
 116014427.026 7  90400864.56545  22076798.623    22076790.9614
        45.100          33.0004
 131528542.882 5                  25029080.940
        32.800
 118299290.123 7  92181252.84144  22511589.822    22511579.4044
        43.100          28.2004
 121457121.648 6  94641939.50344  23112502.350    23112496.3284
        40.700          28.1004
 108047162.607 8  84192593.47646  20560689.665    20560681.7104
        49.700          41.8004
 110306414.592 8  85953035.84946  20990593.634    20990580.2864
        48.800          39.9004
 118752618.682 7  92534465.95345  22597868.750    22597860.0904
        44.000          30.2004
 121925032.639 7  95006535.01844  23201544.832    23201533.4184
        42.100          27.8004
 16  1  1  0  4 12.0000000  0  9G06G26G01G16G09G03G23G32G31
 124391803.186 6  96928655.31243  23670969.656    23670965.4514
        38.200          22.6004
 116013445.718 7  90400099.91345  22076611.345    22076604.1514
        45.100          33.3004
 131532050.576 5                  25029748.069
        32.900
 118296374.222 7  92178980.72844  22511035.798    22511024.8534
        43.100          28.2004
 121454233.603 6  94639689.09744  23111952.673    23111946.6514
        40.700          27.9004
 108048531.443 8  84193660.11046  20560950.121    20560942.0484
        49.200          41.8004
 110304864.000 8  85951827.59346  20990298.308    20990285.1364
        48.800          39.9004
 118755741.924 7  92536899.64245  22598462.868    22598454.3854
        44.100          30.5004
 121928291.952 6  95009074.75444  23202164.974    23202153.9704
        41.800          28.5004
 16  1  1  0  4 13.0000000  0  9G06G26G01G16G09G03G23G32G31
 124391000.628 6  96928029.94343  23670818.118    23670812.5654
        38.100          22.9004
 116012464.836 7  90399335.58445  22076424.512    22076417.6114
        44.500          33.2004
 131535557.946 5                  25030415.374
        32.800
 118293458.532 7  92176708.76144  22510480.388    22510469.6184
        43.600          28.1004
 121451345.459 6  94637438.59944  23111402.551    23111397.0574
        41.200          27.9004
 108049900.618 8  84194726.99947  20561211.353    20561202.7524
        49.200          42.0004
 110303313.502 8  85950619.41346  20990003.250    20989990.3714
        49.200          39.8004
 118758865.260 7  92539333.40745  22599057.447    22599048.7884
        43.800          30.8004
 121931551.197 6  95011614.42944  23202784.681    23202774.1474
        41.900          28.2004
 16  1  1  0  4 14.0000000  0  9G06G26G01G16G09G03G23G32G31
 124390198.735 6  96927405.09443  23670665.211    23670660.4204
        38.200          22.9004
 116011484.678 7  90398571.82845  22076237.640    22076231.2084
        44.500          32.9004
 131539065.439 5                  25031083.661
        32.900
 118290543.331 7  92174437.18544  22509925.358    22509914.9994
        43.200          28.1004
 121448457.508 6  94635188.25644  23110853.043    23110847.5494
        40.400          27.2004
 108051270.482 8  84195794.42346  20561471.488    20561463.4154
        49.100          41.8004
 110301763.345 8  85949411.49446  20989708.776    20989695.4284
        49.000          39.7004
 118761988.897 7  92541767.40245  22599651.951    22599643.2334
        43.800          30.5004
 121934810.710 6  95014154.31944  23203405.037    23203394.2094
        41.300          28.1004
 16  1  1  0  4 15.0000000  0  9G06G26G01G16G09G03G23G32G31
 124389397.525 6  96926780.76444  23670512.939    23670507.6794
        38.600          24.1004
 116010505.163 7  90397808.56545  22076051.505    22076044.9564
        45.000          33.4004
 131542572.906 5                  25031750.694
        32.900
 118287628.586 7  92172165.96444  22509370.898    22509360.5394
        43.500          27.5004
 121445569.708 6  94632938.01344  23110304.065    23110297.9844
        40.900          27.9004
 108052640.912 8  84196862.28946  20561731.987    20561724.0894
        49.200          41.9004
 110300213.468 8  85948203.80346  20989413.765    20989400.1824
        49.400          39.6004
 118765112.850 7  92544201.64845  22600246.564    22600237.4944
        43.700          30.7004
 121938070.405 6  95016694.33444  23204024.885    23204014.5854
        41.300          28.4004
 16  1  1  0  4 16.0000000  0  9G06G26G01G16G09G03G23G32G31
 124388596.730 6  96926156.78044  23670360.356    23670355.3904
        38.600          24.5004
 116009526.064 7  90397045.64045  22075865.717    22075858.5234
        45.200          33.5004
 131546079.989 5                  25032418.137
        33.100
 118284714.069 7  92169894.90944  22508816.153    22508805.6774
        43.400          26.8004
 121442681.797 6  94630687.70744  23109755.173    23109748.5654
        41.200          28.3004
 108054011.737 7  84197930.46647  20561992.980    20561985.4354
        47.800          42.0004
 110298663.699 8  85946996.19146  20989118.848    20989105.2074
        48.300          39.6004
 118768236.879 7  92546635.95545  22600841.253    22600831.8904
        43.400          31.2004
 121941330.050 6  95019234.32344  23204644.738    23204634.7314
        41.400          28.7004
 16  1  1  0  4 17.0000000  0  9G06G26G01G16G09G03G23G32G31
 124387797.022 6  96925533.64844  23670207.344    23670203.0814
        38.500          24.8004
 116008548.103 7  90396283.59145  22075679.510    22075672.1404
        45.400          34.0004
 131549587.561 5                  25033085.610
        32.000
 118281800.425 7  92167624.54344  22508261.995    22508251.4614
        43.400          27.1004
 121439794.504 6  94628437.87244  23109205.647    23109199.3324
        40.800          27.5004
 108055383.599 8  84198999.45547  20562254.269    20562246.0204
        48.100          42.0004
 110297114.649 8  85945789.14346  20988824.195    20988810.7884
        48.700          39.7004
 118771361.628 7  92549070.82845  22601435.904    22601426.8354
        43.400          31.0004
 121944590.338 6  95021774.81044  23205265.993    23205255.4004
        41.400          28.4004
 16  1  1  0  4 18.0000000  0  9G06G26G01G16G09G03G23G32G31
 124386997.513 6  96924910.64244  23670056.213    23670050.8944
        39.100          24.0004
 116007570.293 7  90395521.66345  22075493.437    22075486.2434
        45.200          33.8004
 131553094.620 5                  25033752.112
        30.700
 118278886.775 7  92165354.17344  22507707.399    22507697.0994
        42.900          27.8004
 121436906.905 6  94626187.79144  23108656.047    23108649.6744
        40.700          28.1004
 108056755.616 8  84200068.55947  20562515.389    20562507.1994
        48.500          42.1004
 110295565.485 8  85944582.00146  20988528.628    20988516.0424
        49.200          39.8004
 118774486.200 7  92551505.54945  22602030.567    22602021.6734
        43.700          30.6004
 121947850.354 6  95024315.07844  23205885.750    23205875.5674
        41.100          28.4004
 16  1  1  0  4 19.0000000  0  9G06G26G01G16G09G03G23G32G31
 124386199.055 6  96924288.46244  23669904.040    23669898.7804
        39.200          24.0004
 116006593.555 7  90394760.57345  22075307.562    22075300.7784
        45.200          33.6004
 131556602.095 5                  25034419.733
        31.500
 118275973.959 7  92163084.45044  22507153.110    22507142.9274
        43.100          28.3004
 121434019.843 6  94623938.13444  23108107.016    23108100.1744
        40.400          27.0004
 108058128.619 8  84201138.43447  20562776.550    20562768.4194
        48.800          42.0004
 110294016.990 8  85943375.38546  20988234.402    20988220.9954
        49.300          40.0004
 118777611.488 7  92553940.83645  22602624.928    22602616.1524
        43.900          30.4004
 121951110.978 6  95026855.84044  23206505.992    23206496.1024
        41.500          28.3004
 16  1  1  0  4 20.0000000  0  9G06G26G01G16G09G03G23G32G31
 124385400.843 6  96923666.46743  23669752.271    23669746.5424
        38.900          22.5004
 116005617.104 7  90393999.70345  22075122.280    22075114.5004
        45.200          34.1004
 131560109.107 5                  25035087.226
        31.500
 118273061.204 7  92160814.77944  22506598.375    22506588.3684
        43.200          27.7004
 121431132.521 6  94621688.28344  23107557.043    23107550.6694
        40.700          27.9004
 108059501.831 8  84202208.46246  20563037.524    20563029.8614
        48.700          41.8004
 110292468.423 8  85942168.70746  20987939.573    20987926.2834
        49.000          40.1004
 118780736.649 7  92556376.02945  22603219.837    22603210.7674
        43.900          30.5004
 121954371.350 6  95029396.40144  23207126.723    23207116.3644
        41.400          27.8004
 16  1  1  0  4 21.0000000  0  9G06G26G01G16G09G03G23G32G31
 124384603.441 6  96923045.11143  23669600.942    23669595.3304
        39.400          22.2004
 116004641.418 7  90393239.42545  22074936.596    22074929.0504
        45.200          33.8004
 131563616.209 5                  25035753.419
        31.900
 118270149.054 7  92158545.56344  22506044.287    22506033.9284
        43.300          27.5004
 121428245.496 6  94619438.66144  23107008.090    23107001.1894
        40.900          28.2004
 108060875.800 8  84203279.08747  20563299.568    20563291.4944
        48.100          42.1004
 110290920.297 8  85940962.38046  20987644.670    20987631.9674
        49.000          40.0004
 118783862.236 7  92558811.54945  22603814.895    22603805.7674
        44.100          30.2004
 121957632.093 6  95031937.24544  23207747.085    23207736.7264
        41.300          28.3004
 16  1  1  0  4 22.0000000  0  9G06G26G01G16G09G03G23G32G31
 124383806.862 6  96922424.39543  23669449.119    23669444.0354
        39.600          22.5004
 116003666.566 7  90392479.79945  22074750.698    22074743.5624
        44.800          34.3004
 131567123.483 5                  25036421.518
        31.900
 118267237.518 7  92156276.84244  22505490.668    22505480.1344
        43.400          28.3004
 121425358.784 6  94617189.28044  23106459.043    23106452.1424
        41.000          28.3004
 108062250.521 8  84204350.29747  20563560.655    20563552.5244
        48.100          42.1004
 110289372.669 8  85939756.43446  20987350.530    20987337.4754
        49.100          40.1004
 118786988.308 7  92561247.44845  22604409.107    22604400.5654
        43.800          30.9004
 121960893.181 6  95034478.34244  23208367.589    23208356.9954
        40.800          27.6004
 16  1  1  0  4 23.0000000  0  9G06G26G01G16G09G03G23G32G31
 124383010.625 6  96921803.95243  23669297.344    23669292.3784
        39.400          22.3004
 116002692.079 7  90391720.46345  22074564.973    22074558.1904
        45.100          34.2004
 131570630.487 5                  25037089.654
        32.400
 118264326.133 7  92154008.23544  22504936.320    22504926.3134
        43.000          27.7004
 121422471.935 6  94614939.79144  23105909.698    23105902.5624
        41.300          27.9004
 108063625.553 8  84205421.75347  20563822.146    20563814.4844
        48.300          42.1004
 110287825.019 8  85938550.47746  20987055.406    20987042.8204
        48.700          40.1004
 118790114.344 7  92563683.31145  22605004.299    22604995.5224
        43.700          30.4004
 121964154.134 6  95037019.33844  23208988.272    23208977.6794
        41.400          28.4004
 16  1  1  0  4 24.0000000  0  9G06G26G01G16G09G03G23G32G31
 124382215.180 6  96921184.14643  23669146.062    23669140.6854
        39.400          22.3004
 116001718.381 7  90390961.73945  22074380.556    22074372.7174
        45.000          33.9004
 131574137.415 5                  25037756.847
        32.300
 118261415.314 7  92151740.07044  22504381.953    22504372.2974
        43.100          28.1004
 121419585.352 6  94612690.50244  23105360.124    23105353.5754
        40.900          27.0004
 108065001.322 8  84206493.77546  20564084.095    20564076.6084
        48.400          41.8004
 110286277.795 8  85937344.84946  20986761.323    20986748.7374
        48.800          39.8004
 118793240.809 7  92566119.52245  22605598.887    22605590.3454
        43.800          30.0004
 121967415.423 6  95039560.60844  23209608.982    23209598.4484
        41.600          28.6004
 16  1  1  0  4 25.0000000  0  9G06G26G01G16G09G03G23G32G31
 124381420.307 6  96920564.76143  23668994.943    23668989.8014
        39.200          22.0004
 116000745.270 7  90390203.47145  22074194.948    22074187.5784
        45.000          33.5004
 131577644.388 5                  25038424.237
        32.600
 118258504.886 7  92149472.21144  22503828.594    22503818.4694
        42.900          28.1004
 121416698.836 6  94610441.27144  23104810.800    23104803.6654
        41.400          27.8004
 108066377.635 8  84207566.22646  20564346.610    20564338.8304
        48.800          41.9004
 110284730.841 8  85936139.43046  20986466.612    20986454.0264
        49.000          39.7004
 118796367.528 7  92568555.91945  22606193.213    22606185.1984
        43.700          30.2004
 121970676.861 6  95042101.98944  23210229.787    23210219.2524
        41.700          28.1004
 16  1  1  0  4 26.0000000  0  9G06G26G01G16G09G03G23G32G31
 124380626.115 6  96919945.89843  23668843.740    23668838.1874
        39.200          22.2004
 115999772.844 7  90389445.74545  22074010.338    22074002.5584
        45.100          33.5004
 131581151.284 5                  25039091.261
        33.200
 118255594.949 7  92147204.72344  22503274.575    22503264.8614
        42.800          28.1004
 121413812.543 6  94608192.21144  23104261.174    23104254.6844
        41.300          27.9004
 108067754.560 8  84208639.15646  20564608.486    20564600.0614
        48.800          41.9004
 110283184.201 8  85934934.25946  20986172.944    20986159.7724
        49.000          39.9004
 118799494.527 7  92570992.54145  22606788.222    22606780.0324
        43.200          30.5004
 121973938.523 6  95044643.55644  23210850.428    23210839.6004
        41.400          28.0004
 16  1  1  0  4 27.0000000  0  9G06G26G01G16G09G03G23G32G31
 124379832.451 6  96919327.46043  23668693.052    23668687.5584
        38.900          22.5004
 115998800.977 7  90388688.44445  22073825.003    22073817.3404
        45.100          33.3004
 131584658.065 5                  25039759.182
        33.500
 118252685.337 7  92144937.50344  22502720.850    22502710.9024
        42.400          27.2004
 121410926.251 6  94605943.15644  23103711.991    23103705.2074
        41.300          27.0004
 108069131.985 8  84209712.48047  20564869.993    20564862.5644
        48.900          42.0004
 110281637.766 8  85933729.24446  20985878.403    20985865.2894
        49.300          40.2004
 118802621.730 7  92573429.32345  22607383.696    22607375.5644
        43.300          30.3004
 121977200.242 6  95047185.16644  23211471.292    23211460.4654
        41.200          28.2004
 16  1  1  0  4 28.0000000  0  9G06G26G01G16G09G03G23G32G31
 124379039.506 6  96918709.58643  23668542.083    23668536.4134
        38.900          22.3004
 115997829.755 7  90387931.65345  22073640.213    22073632.7844
        45.100          33.7004
 131588164.798 5                  25040426.695
        34.200
 118249776.185 7  92142670.64544  22502166.444    22502156.9054
        42.800          28.2004
 121408040.127 6  94603694.23944  23103162.348    23103155.9744
        41.200          27.6004
 108070510.012 8  84210786.26347  20565132.461    20565124.3294
        49.000          42.0004
 110280091.646 8  85932524.48146  20985584.412    20985571.2984
        49.200          39.8004
 118805749.233 7  92575866.33045  22607978.259    22607970.3614
        43.300          30.4004
 121980462.139 6  95049726.91944  23212091.225    23212080.7494
        41.100          28.1004
 16  1  1  0  4 29.0000000  0  9G06G26G01G16G09G03G23G32G31
 124378247.212 6  96918092.21843  23668391.210    23668385.4824
        39.000          22.5004
 115996859.309 7  90387175.45345  22073455.381    22073447.7194
        44.700          33.5004
 131591671.655 5                  25041094.058
        34.600
 118246867.556 7  92140404.18744  22501613.568    22501604.2644
        43.000          28.0004
 121405154.217 6  94601445.48044  23102613.290    23102606.9164
        41.200          27.7004
 108071888.737 8  84211860.59546  20565395.306    20565387.1164
        49.600          41.8004
 110278545.924 8  85931320.02146  20985290.347    20985277.0574
        49.700          39.9004
 118808877.111 7  92578303.63545  22608573.691    22608565.7944
        43.300          30.2004
 121983724.329 6  95052268.88844  23212712.372    23212701.7204
        41.300          27.6004
 16  1  1  0  4 30.0000000  0  9G06G26G01G16G09G03G23G32G31
 124377455.678 6  96917475.43643  23668241.188    23668234.8734
        39.000          22.8004
 115995889.549 7  90386419.79645  22073271.236    22073263.5734
        44.400          34.3004
 131595178.435 5                  25041763.512
        33.900
 118243959.452 7  92138138.14244  22501060.565    22501050.7334
        43.100          29.5004
 121402268.542 6  94599196.91244  23102064.645    23102058.0374
        41.000          27.3004
 108073268.112 8  84212935.43746  20565657.491    20565649.4184
        50.000          41.9004
 110277000.552 8  85930115.83746  20984996.272    20984983.0424
        49.300          40.1004
 118812005.349 7  92580741.22545  22609169.006    22609160.9334
        43.500          30.5004
 121986986.774 6  95054811.05544  23213332.735    23213322.8454
        41.300          29.5004
 16  1  1  0  4 31.0000000  0  9G06G26G01G16G09G03G23G32G31
 124376664.521 6  96916858.94743  23668090.766    23668084.7454
        38.900          22.5004
 115994920.193 7  90385664.45645  22073086.033    22073079.1324
        44.200          34.1004
 131598684.934 5                  25042429.508
        34.200
 118241051.511 7  92135872.21944  22500506.989    22500497.2164
        43.300          27.6004
 121399382.707 6  94596948.20844  23101515.231    23101509.0344
        40.900          27.8004
 108074647.833 8  84214010.53946  20565920.192    20565912.3534
        50.100          41.9004
 110275455.225 8  85928911.68646  20984702.136    20984688.6714
        49.400          40.2004
 118815133.610 7  92583178.82745  22609764.344    22609756.3304
        43.200          30.3004
 121990249.104 6  95057353.12244  23213953.502    23213943.9054
        41.300          27.8004
 16  1  1  0  4 32.0000000  0  9G06G26G01G16G09G03G23G32G31
 124375874.178 6  96916243.08643  23667940.650    23667933.8674
        39.200          22.6004
 115993951.643 7  90384909.73645  22072901.638    22072894.6794
        44.700          33.6004
 131602191.628 5                  25043096.873
        34.100
 118238144.191 7  92133606.76444  22499953.757    22499943.7504
        43.300          27.5004
 121396497.204 6  94594699.77244  23100966.440    23100960.1844
        41.000          27.9004
 108076028.290 8  84215086.22146  20566182.757    20566174.8594
        50.000          41.9004
 110273910.336 8  85927707.87646  20984408.209    20984395.0954
        49.300          40.0004
 118818262.301 7  92585616.76445  22610360.119    22610351.4024
        43.200          30.6004
 121993511.807 6  95059895.49644  23214574.512    23214564.2704
        41.100          27.6004
 16  1  1  0  4 33.0000000  0  9G06G26G01G16G09G03G23G32G31
 124375084.488 6  96915627.75643  23667789.245    23667783.3994
        39.200          22.6004
 115992983.739 7  90384155.53145  22072717.943    22072710.3394
        44.300          33.8004
 131605698.218 5                  25043764.559
        33.800
 118235237.264 7  92131341.62944  22499400.741    22499390.3824
        43.500          27.8004
 121393611.831 6  94592451.43444  23100417.429    23100410.7634
        41.500          27.3004
 108077409.361 8  84216162.38046  20566445.906    20566437.3644
        49.800          41.8004
 110272365.766 8  85926504.31846  20984114.349    20984101.0604
        49.700          40.2004
 118821391.251 7  92588054.90545  22610955.219    22610947.3804
        43.300          30.5004
 121996774.718 6  95062438.02344  23215195.871    23215185.6304
        40.900          28.3004
 16  1  1  0  4 34.0000000  0  9G06G26G01G16G09G03G23G32G31
 124374295.226 6  96915012.75743  23667638.867    23667633.5494
        39.400          22.8004
 115992016.282 7  90383401.66945  22072534.191    22072526.4114
        44.300          34.2004
 131609204.556 5                  25044430.398
        33.100
 118232330.639 7  92129076.73144  22498847.365    22498837.2414
        43.500          27.4004
 121390726.401 6  94590203.04844  23099868.330    23099861.7224
        41.300          27.7004
 108078790.832 8  84217238.85347  20566708.470    20566700.6904
        49.800          42.0004
 110270821.302 8  85925300.84346  20983820.306    20983807.0754
        49.900          40.1004
 118824520.340 7  92590493.15245  22611550.650    22611542.5184
        43.800          30.0004
 122000037.627 6  95064980.56844  23215816.834    23215806.4764
        40.900          27.8004
 16  1  1  0  4 35.0000000  0  9G06G26G01G16G09G03G23G32G31
 124373506.853 6  96914398.44243  23667489.390    23667483.3684
        39.400          22.8004
 115991049.726 7  90382648.51145  22072349.554    22072342.1844
        44.400          33.9004
 131612711.174 5                  25045097.291
        33.400
 118229424.682 7  92126812.34944  22498294.988    22498284.8044
        42.900          27.3004
 121387841.315 6  94587954.93244  23099319.098    23099312.7254
        40.900          27.2004
 108080173.104 8  84218315.94547  20566971.463    20566963.3314
        49.600          42.1004
 110269277.349 8  85924097.76046  20983526.460    20983513.5224
        50.000          40.0004
 118827649.916 7  92592931.78045  22612146.531    22612138.0484
        43.400          30.3004
 122003300.910 6  95067523.41044  23216438.026    23216427.6674
        40.900          27.7004
 16  1  1  0  4 36.0000000  0  9G06G26G01G16G09G03G23G32G31
 124372719.021 6  96913784.54743  23667339.276    23667333.6064
        38.900          23.8004
 115990083.730 7  90381895.78645  22072166.042    22072158.6724
        44.100          34.0004
 131616217.617 5                  25045764.786
        33.700
 118226519.072 7  92124548.25344  22497741.797    22497731.9654
        42.500          28.1004
 121384956.354 6  94585706.92144  23098769.529    23098763.8004
        40.400          28.0004
 108081555.919 8  84219393.46247  20567234.628    20567226.5554
        49.500          42.3004
 110267733.635 8  85922894.86046  20983233.050    20983219.6444
        49.700          40.0004
 118830779.673 7  92595370.54544  22612741.454    22612733.9094
        42.900          29.6004
 122006564.268 6  95070066.29644  23217058.672    23217048.6064
        41.200          28.1004
 16  1  1  0  4 37.0000000  0  9G06G26G01G16G09G03G23G32G31
 124371931.660 6  96913171.01943  23667189.085    23667183.4744
        38.700          23.0004
 115989118.201 7  90381143.43245  22071981.969    22071974.5404
        44.300          34.4004
 131619723.806 5                  25046433.009
        33.600
 118223613.696 7  92122284.32444  22497189.057    22497178.5224
        42.700          27.9004
 121382071.294 6  94583458.82844  23098220.334    23098214.8984
        40.500          28.1004
 108082939.123 8  84220471.28447  20567497.987    20567489.7974
        48.400          42.3004
 110266190.010 8  85921692.04246  20982939.386    20982925.9214
        48.700          40.0004
 118833909.553 7  92597809.41045  22613337.267    22613329.1354
        42.500          30.6004
 122009827.589 6  95072609.14244  23217680.011    23217669.5354
        41.700          27.7004
 16  1  1  0  4 38.0000000  0  9G06G26G01G16G09G03G23G32G31
 124371145.121 6  96912558.12743  23667038.652    23667033.8614
        38.600          22.8004
 115988153.487 7  90380391.70445  22071799.211    22071791.7244
        44.500          34.0004
 131623230.168 5                  25047100.443
        33.700
 118220708.967 7  92120020.90044  22496636.664    22496626.1294
        43.200          28.1004
 121379186.553 6  94581210.98244  23097672.209    23097665.6024
        40.500          27.9004
 108084323.084 8  84221549.69747  20567761.212    20567753.1984
        48.400          42.5004
 110264646.860 8  85920489.58546  20982645.425    20982632.0184
        48.800          39.8004
 118837039.873 7  92600248.61745  22613932.640    22613924.8604
        42.700          30.6004
 122013091.323 6  95075152.29744  23218301.152    23218290.6174
        41.800          28.1004
 16  1  1  0  4 39.0000000  0  9G06G26G01G16G09G03G23G32G31
 124370359.209 6  96911945.72443  23666889.458    23666884.1984
        37.800          22.6004
 115987189.416 7  90379640.48145  22071615.238    22071607.8094
        44.300          34.2004
 131626736.388 5                  25047767.133
        33.200
 118217804.615 7  92117757.76744  22496083.640    22496073.3984
        43.400          28.0004
 121376301.951 6  94578963.24744  23097123.618    23097116.6584
        40.800          27.6004
 108085707.629 8  84222628.56047  20568024.556    20568016.4254
        48.300          42.0004
 110263104.008 8  85919287.36746  20982351.648    20982338.7114
        48.400          40.1004
 118840170.469 7  92602688.04045  22614529.156    22614520.6734
        43.200          30.3004
 122016355.200 6  95077695.57544  23218922.140    23218911.4884
        41.500          27.6004
 16  1  1  0  4 40.0000000  0  9G06G26G01G16G09G03G23G32G31
 124369573.998 6  96911333.86843  23666740.353    23666734.8594
        37.900          22.6004
 115986226.033 7  90378889.79845  22071431.781    22071424.4124
        44.100          34.0004
 131630242.738 5                  25048433.822
        33.400
 118214900.814 7  92115495.07144  22495531.243    22495520.8844
        43.400          26.9004
 121373417.545 6  94576715.66544  23096574.310    23096568.5234
        41.100          27.9004
 108087092.835 8  84223707.94347  20568288.097    20568280.1414
        48.300          42.1004
 110261561.490 8  85918085.40346  20982058.392    20982045.0444
        48.800          40.0004
 118843301.394 7  92605127.72445  22615125.159    22615116.2654
        42.900          30.4004
 122019619.339 6  95080239.06444  23219543.776    23219532.5974
        41.600          28.0004
 16  1  1  0  4 41.0000000  0  9G06G26G01G16G09G03G23G32G31
 124368789.168 6  96910722.30643  23666590.705    23666585.8564
        38.100          23.0004
 115985263.079 7  90378139.43945  22071247.891    22071241.2844
        43.900          33.7004
 131633748.734 5                  25049101.260
        33.600
 118211997.168 7  92113232.49244  22494978.981    22494968.0364
        43.700          28.4004
 121370533.039 6  94574467.99644  23096025.785    23096019.1184
        41.100          27.7004
 108088478.379 8  84224787.58747  20568551.625    20568543.4354
        48.500          42.2004
 110260019.033 8  85916883.49446  20981764.998    20981751.5324
        49.400          40.0004
 118846432.364 7  92607567.43245  22615720.512    22615712.2634
        43.200          30.5004
 122022883.403 6  95082782.49944  23220164.230    23220154.0474
        41.600          27.2004
 16  1  1  0  4 42.0000000  0  9G06G26G01G16G09G03G23G32G31
 124368005.329 6  96910111.52843  23666441.018    23666436.6374
        38.200          23.0004
 115984301.080 7  90377389.83045  22071065.559    22071058.3074
        44.200          33.4004
 131637255.038 5                  25049768.425
        33.600
 118209094.314 7  92110970.53144  22494426.909    22494415.8474
        43.900          28.1004
 121367648.978 6  94572220.68744  23095476.729    23095470.4144
        40.900          27.8004
 108089864.840 8  84225867.94347  20568816.096    20568807.7304
        48.900          42.0004
 110258477.203 8  85915682.07446  20981471.315    20981458.0844
        49.500          40.2004
 118849563.954 7  92610007.63345  22616316.876    22616308.2754
        43.500          30.5004
 122026147.977 6  95085326.33644  23220786.076    23220775.1314
        41.400          27.1004
 16  1  1  0  4 43.0000000  0  9G06G26G01G16G09G03G23G32G31
 124367221.793 6  96909500.98943  23666292.365    23666287.3404
        38.200          22.8004
 115983339.453 7  90376640.51345  22070883.204    22070875.1314
        44.300          33.4004
 131640761.011 5                  25050434.464
        33.300
 118206191.602 7  92108708.68644  22493874.881    22493863.4084
        44.100          27.9004
 121364764.778 6  94569973.26044  23094927.733    23094921.3014
        41.200          28.6004
 108091251.618 8  84226948.55247  20569080.022    20569071.4224
        49.200          42.1004
 110256935.383 8  85914480.65246  20981178.174    20981165.0024
        49.900          40.3004
 118852695.498 7  92612447.79045  22616912.733    22616903.9574
        43.300          30.2004
 122029412.450 6  95087870.09444  23221406.651    23221396.4104
        40.400          27.4004
 16  1  1  0  4 44.0000000  0  9G06G26G01G16G09G03G23G32G31
 124366439.317 6  96908891.27543  23666143.668    23666138.4674
        38.300          22.8004
 115982378.837 7  90375891.98445  22070699.834    22070692.5814
        44.600          33.3004
 131644267.319 5                  25051100.990
        32.500
 118203289.685 7  92106447.45444  22493322.785    22493311.0784
        43.800          28.5004
 121361881.045 6  94567726.20044  23094378.557    23094372.7704
        41.300          28.7004
 108092639.341 8  84228029.89947  20569343.872    20569335.4474
        48.900          42.0004
 110255394.221 8  85913279.75046  20980884.607    20980871.6694
        49.400          39.8004
 118855827.709 7  92614888.47345  22617508.833    22617500.3494
        43.900          30.5004
 122032677.438 6  95090414.25444  23222028.241    23222018.1174
        40.600          28.0004
 16  1  1  0  4 45.0000000  0  9G06G26G01G16G09G03G23G32G31
 124365657.098 6  96908281.75643  23665993.948    23665989.3924
        37.600          22.8004
 115981418.475 7  90375143.65245  22070517.217    22070510.0234
        44.900          33.9004
 131647773.150 5                  25051769.041
        31.800
 118200387.835 7  92104186.27444  22492770.299    22492758.5334
        43.900          28.1004
 121358997.139 6  94565479.00444  23093830.296    23093823.8644
        41.700          28.4004
 108094027.282 8  84229111.40347  20569607.749    20569599.8524
        49.300          42.1004
 110253852.988 8  85912078.78246  20980591.703    20980578.2974
        49.800          39.9004
 118858959.838 7  92617329.08745  22618105.313    22618096.5954
        43.900          30.0004
 122035942.246 6  95092958.27444  23222649.464    23222639.0474
        40.900          28.2004
 16  1  1  0  4 46.0000000  0  9G06G26G01G16G09G03G23G32G31
 124364875.670 6  96907672.85344  23665845.414    23665840.8574
        37.700          24.2004
 115980458.945 7  90374395.96545  22070335.029    22070327.3664
        45.200          33.6004
 131651279.150 5                  25052435.334
        31.600
 118197486.595 7  92101925.57444  22492217.559    22492206.9074
        43.400          28.3004
 121356113.493 6  94563232.00744  23093280.933    23093275.0874
        41.500          27.5004
 108095415.974 8  84230193.50847  20569872.169    20569864.2144
        49.500          42.2004
 110252312.207 8  85910878.17746  20980297.905    20980284.8504
        49.100          39.9004
 118862092.374 7  92619770.02645  22618701.523    22618692.6294
        44.200          30.6004
 122039207.380 6  95095502.54044  23223270.808    23223260.0984
        41.400          28.6004
 16  1  1  0  4 47.0000000  0  9G06G26G01G16G09G03G23G32G31
 124364094.893 6  96907064.44944  23665697.464    23665692.4974
        37.900          24.6004
 115979500.067 7  90373648.78745  22070152.354    22070144.8674
        44.500          34.0004
 131654785.060 5                  25053101.719
        31.900
 118194585.776 7  92099665.19744  22491665.797    22491654.7944
        43.000          28.4004
 121353229.987 6  94560985.12644  23092732.557    23092726.5944
        41.700          27.1004
 108096805.244 8  84231276.05347  20570136.967    20570128.1324
        49.600          42.4004
 110250771.736 8  85909677.81046  20980004.897    20979991.4324
        49.300          39.7004
 118865225.214 7  92622211.19345  22619297.172    22619288.5714
        44.000          30.5004
 122042472.641 6  95098046.90644  23223892.046    23223881.1594
        41.700          28.5004
 16  1  1  0  4 48.0000000  0  9G06G26G01G16G09G03G23G32G31
 124363314.780 6  96906456.56243  23665548.964    23665544.4084
        38.200          22.9004
 115978541.783 7  90372902.08045  22069969.488    22069962.5294
        44.500          33.8004
 131658290.950 5                  25053769.601
        31.900
 118191685.383 7  92097405.15344  22491113.644    22491102.9924
        42.700          28.3004
 121350346.578 6  94558738.32144  23092183.617    23092177.4784
        41.200          28.1004
 108098195.091 8  84232359.04947  20570400.938    20570393.0994
        49.200          42.2004
 110249231.520 8  85908477.64746  20979712.123    20979698.7754
        49.300          39.6004
 118868358.288 7  92624652.54645  22619893.360    22619885.3454
        44.200          30.4004
 122045738.118 6  95100591.42344  23224513.444    23224502.7924
        41.700          28.3004
 16  1  1  0  4 49.0000000  0  9G06G26G01G16G09G03G23G32G31
 124362535.300 6  96905849.16943  23665400.733    23665395.8844
        38.200          22.6004
 115977584.233 7  90372155.93345  22069787.215    22069780.2554
        44.300          34.0004
 131661796.796 5                  25054437.186
        32.400
 118188785.512 7  92095145.51744  22490561.897    22490550.9524
        42.900          28.3004
 121347463.410 6  94556491.70444  23091635.784    23091629.4114
        41.400          27.7004
 108099585.606 8  84233442.57047  20570665.954    20570657.9984
        48.700          42.1004
 110247691.678 8  85907277.77046  20979418.960    20979405.4944
        48.800          39.6004
 118871491.713 7  92627094.17745  22620489.657    22620481.1744
        44.200          30.2004
 122049003.777 6  95103136.08144  23225135.175    23225123.9374
        41.700          28.1004
 16  1  1  0  4 50.0000000  0  9G06G26G01G16G09G03G23G32G31
 124361756.397 6  96905242.24143  23665252.755    23665247.4364
        38.000          22.8004
 115976627.236 7  90371410.22545  22069605.526    22069597.7464
        44.200          33.9004
 131665302.567 5                  25055104.213
        32.400
 118185885.965 7  92092886.13644  22490009.428    22489999.2454
        43.000          28.5004
 121344580.242 6  94554245.08544  23091086.233    23091080.2704
        41.500          27.9004
 108100976.604 8  84234526.46347  20570930.160    20570921.9114
        48.800          42.3004
 110246152.034 8  85906078.05146  20979126.228    20979112.9974
        48.800          39.6004
 118874625.352 7  92629535.96945  22621086.179    22621077.3444
        44.300          31.0004
 122052269.506 6  95105680.78744  23225756.835    23225745.6564
        41.400          28.1004
 16  1  1  0  4 51.0000000  0  9G06G26G01G16G09G03G23G32G31
 124360978.315 6  96904635.95743  23665104.500    23665099.5334
        38.000          22.6004
 115975671.089 7  90370665.17145  22069423.216    22069416.2574
        44.700          34.3004
 131668808.539 5                  25055772.003
        32.600
 118182987.041 7  92090627.23844  22489458.429    22489447.6014
        43.000          28.1004
 121341697.427 6  94551998.73444  23090537.704    23090531.9174
        41.300          28.1004
 108102368.374 8  84235610.95747  20571195.453    20571187.5554
        49.300          42.4004
 110244612.853 8  85904878.69446  20978832.746    20978819.8084
        48.900          39.5004
 118877759.427 7  92631978.09745  22621682.586    22621673.7514
        44.500          30.6004
 122055535.638 6  95108225.81744  23226377.975    23226366.8544
        41.400          27.8004
 16  1  1  0  4 52.0000000  0  9G06G26G01G16G09G03G23G32G31
 124360200.577 6  96904029.93343  23664957.203    23664951.1234
        38.300          22.8004
 115974715.257 7  90369920.37445  22069241.429    22069234.3524
        44.900          34.4004
 131672314.069 5                  25056439.544
        33.300
 118180088.295 7  92088368.48344  22488905.954    22488896.1234
        43.200          27.7004
 121338814.439 6  94549752.25344  23089989.081    23089982.9424
        41.100          28.1004
 108103760.443 8  84236695.69147  20571460.179    20571452.8674
        49.400          42.4004
 110243073.690 8  85903679.34346  20978540.260    20978526.9124
        49.100          39.2004
 118880893.504 7  92634420.23845  22622278.954    22622269.9434
        44.000          30.2004
 122058801.649 6  95110770.75544  23226999.522    23226988.5774
        41.700          28.6004
 16  1  1  0  4 53.0000000  0  9G06G26G01G16G09G03G23G32G31
 124359423.530 6  96903424.43843  23664808.818    23664803.5584
        38.900          22.5004
 115973760.133 7  90369176.12145  22069059.957    22069052.4704
        44.800          34.2004
 131675819.595 5                  25057107.171
        33.800
 118177190.019 7  92086110.08944  22488354.744    22488344.3854
        42.800          27.5004
 121335931.648 6  94547505.92944  23089440.861    23089434.3704
        41.500          28.1004
 108105153.154 8  84237780.91847  20571725.633    20571716.9154
        49.200          42.2004
 110241534.880 8  85902480.27446  20978247.133    20978233.9604
        48.700          39.4004
 118884027.875 7  92636862.60345  22622875.541    22622866.7644
        44.100          30.7004
 122062067.864 6  95113315.85244  23227620.977    23227609.9154
        41.700          27.3004
 16  1  1  0  4 54.0000000  0  9G06G26G01G16G09G03G23G32G31
 124358647.230 6  96902819.54043  23664661.164    23664655.7874
        39.000          22.5004
 115972805.790 7  90368432.47845  22068878.278    22068870.9084
        44.500          34.7004
 131679325.164 5                  25057774.995
        33.800
 118174292.294 7  92083852.12444  22487803.247    22487793.0054
        43.000          27.2004
 121333049.090 6  94545259.77644  23088892.006    23088885.9844
        41.400          28.0004
 108106546.552 8  84238866.68847  20571990.109    20571982.3294
        48.600          42.4004
 110239996.468 8  85901281.50346  20977954.371    20977941.3164
        49.100          39.7004
 118887162.636 7  92639305.26545  22623472.051    22623462.9824
        44.300          31.3004
 122065334.418 7  95115861.22344  23228242.442    23228231.6144
        42.000          27.2004
 16  1  1  0  4 55.0000000  0  9G06G26G01G16G09G03G23G32G31
 124357871.606 6  96902215.15643  23664513.637    23664508.0254
        38.400          22.5004
 115971852.096 7  90367689.34445  22068696.637    22068689.4434
        44.300          34.2004
 131682830.770 5                  25058441.759
        33.700
 118171395.030 7  92081594.51344  22487251.363    22487241.5324
        43.000          28.0004
 121330166.713 6  94543013.78344  23088343.529    23088337.1554
        40.500          28.3004
 108107940.568 8  84239952.92647  20572255.018    20572247.1794
        49.200          42.2004
 110238458.349 8  85900082.97646  20977661.715    20977649.0114
        49.300          39.5004
 118890297.742 7  92641748.20645  22624068.562    22624059.6684
        44.300          30.8004
 122068601.156 7  95118406.74644  23228864.146    23228853.3184
        42.000          28.1004
 16  1  1  0  4 56.0000000  0  9G06G26G01G16G09G03G23G32G31
 124357096.425 6  96901611.11543  23664365.483    23664360.6334
        38.700          22.3004
 115970898.845 7  90366946.54545  22068515.402    22068508.0914
        44.500          34.1004
 131686336.071 5                  25059108.656
        33.200
 118168497.998 7  92079337.09344  22486700.416    22486690.2334
        43.100          27.2004
 121327284.278 6  94540767.73344  23087795.471    23087788.7464
        41.000          27.3004
 108109334.968 8  84241039.47547  20572520.561    20572512.6054
        49.500          42.3004
 110236920.365 8  85898884.54546  20977368.677    20977356.0914
        49.300          39.4004
 118893432.889 7  92644191.17845  22624665.092    22624656.5504
        44.300          30.4004
 122071867.837 6  95120952.21444  23229485.618    23229474.9074
        41.600          28.0004
 16  1  1  0  4 57.0000000  0  9G06G26G01G16G09G03G23G32G31
 124356322.158 6  96901007.78243  23664219.039    23664213.1344
        38.600          22.2004
 115969946.520 7  90366204.47945  22068334.264    22068326.8944
        44.500          33.9004
 131689841.682 5                  25059774.818
        32.900
 118165601.688 7  92077080.22144  22486148.645    22486139.4584
        43.000          27.5004
 121324402.231 6  94538521.98744  23087247.143    23087240.3594
        41.000          27.9004
 108110730.247 8  84242126.70547  20572786.082    20572778.3604
        48.800          42.2004
 110235382.936 8  85897686.55446  20977076.524    20977063.8204
        48.800          39.6004
 118896568.590 7  92646634.57845  22625261.937    22625252.8674
        44.100          30.9004
 122075134.975 6  95123498.03544  23230107.534    23230096.5894
        41.800          28.1004
 16  1  1  0  4 58.0000000  0  9G06G26G01G16G09G03G23G32G31
 124355548.285 6  96900404.76043  23664071.309    23664065.8154
        38.700          22.6004
 115968994.616 7  90365462.73845  22068152.836    22068145.9354
        44.700          33.9004
 131693346.897 5                  25060442.773
        33.400
 118162705.582 7  92074823.52344  22485597.693    22485588.2724
        42.900          27.6004
 121321520.081 6  94536276.15244  23086698.786    23086691.8264
        41.100          27.6004
 108112125.865 8  84243214.19947  20573052.070    20573043.2354
        48.500          42.1004
 110233845.541 8  85896488.58046  20976783.793    20976770.9724
        48.700          39.5004
 118899704.333 7  92649078.01445  22625858.302    22625849.7604
        44.400          30.5004
 122078402.047 6  95126043.81144  23230728.931    23230718.2204
        41.600          27.2004
 16  1  1  0  4 59.0000000  0  9G06G26G01G16G09G03G23G32G31
 124354775.127 6  96899802.31243  23663924.731    23663918.7684
        38.500          23.0004
 115968043.404 7  90364721.53345  22067971.846    22067964.7114
        45.000          33.7004
 131696852.097 5                  25061109.963
        34.400
 118159809.967 7  92072567.20844  22485046.760    22485037.2224
        43.000          27.4004
 121318638.135 6  94534030.48144  23086150.113    23086143.7404
        41.100          28.0004
 108113522.117 8  84244302.19347  20573317.953    20573309.7634
        48.800          42.3004
 110232308.521 8  85895290.91146  20976491.652    20976478.5974
        48.700          39.8004
 118902840.417 7  92651521.71945  22626455.310    22626446.4754
        44.100          30.6004
 122081669.349 6  95128589.75444  23231350.376    23231340.0174
        41.700          27.4004
 16  1  1  0  5  0.0000000  0  9G06G26G01G16G09G03G23G32G31
 124354002.602 6  96899200.35343  23663777.382    23663771.5364
        38.400          23.4004
 115967092.848 7  90363980.84345  22067791.432    22067784.1804
        45.200          33.4004
 131700357.457 5                  25061777.275
        32.900
 118156914.810 7  92070311.24844  22484495.983    22484486.3864
        43.100          27.7004
 121315756.333 6  94531784.92744  23085602.836    23085595.2914
        41.200          28.6004
 108114918.993 8  84245390.66347  20573583.633    20573574.6804
        48.600          42.3004
 110230771.818 8  85894093.47246  20976199.055    20976185.4724
        48.900          39.7004
 118905976.774 7  92653965.62845  22627051.804    22627043.3804
        44.000          30.6004
 122084936.835 6  95131135.83144  23231972.399    23231962.2164
        41.400          26.7004
 16  1  1  0  5  1.0000000  0  9G06G26G01G16G09G03G23G32G31
 124353230.663 6  96898598.84843  23663630.252    23663624.7584
        38.300          23.9004
 115966142.878 7  90363240.60445  22067610.428    22067602.9414
        45.300          33.8004
 131703862.556 5                  25062443.727
        33.100
 118154020.009 7  92068055.56344  22483944.937    22483935.5164
        42.800          27.6004
 121312874.598 6  94529539.42644  23085053.925    23085046.7314
        41.400          28.4004
 108116316.386 8  84246479.53747  20573849.276    20573841.0274
        48.800          42.4004
 110229235.334 8  85892896.21546  20975906.979    20975893.2214
        49.100          39.9004
 118909113.346 7  92656409.70345  22627648.640    22627640.0394
        43.800          30.0004
 122088204.422 7  95133681.99544  23232593.767    23232583.7604
        42.000          26.8004
 16  1  1  0  5  2.0000000  0  9G06G26G01G16G09G03G23G32G31
 124352459.459 6  96897997.91043  23663483.601    23663478.0484
        37.800          23.4004
 115965193.694 7  90362500.98745  22067429.744    22067422.4324
        45.200          34.4004
 131707367.769 5                  25063110.806
        33.700
 118151125.825 7  92065800.36344  22483394.245    22483384.7074
        42.700          27.9004
 121309993.149 6  94527294.14444  23084504.657    23084498.2844
        41.600          28.4004
 108117714.513 8  84247568.99547  20574115.151    20574107.2544
        49.100          42.6004
 110227699.273 8  85891699.29446  20975614.756    20975601.1734
        49.000          39.9004
 118912250.361 7  92658854.12645  22628245.560    22628237.1354
        43.600          30.6004
 122091472.280 7  95136228.36744  23233216.184    23233205.6494
        42.100          27.1004
 16  1  1  0  5  3.0000000  0  9G06G26G01G16G09G03G23G32G31
 124351689.020 6  96897397.57943  23663336.716    23663331.4564
        38.200          23.0004
 115964245.239 7  90361761.92945  22067249.499    22067242.3054
        45.400          34.7004
 131710872.981 5                  25063777.953
        33.700
 118148232.140 7  92063545.54744  22482843.354    22482834.2264
        42.800          27.5004
 121307111.923 7  94525049.03344  23083956.765    23083950.2744
        42.200          27.6004
 108119113.303 8  84248658.94947  20574381.606    20574374.0614
        48.700          42.6004
 110226163.596 8  85890502.66346  20975322.411    20975308.8294
        48.900          39.8004
 118915387.686 7  92661298.79645  22628843.179    22628834.3434
        43.900          30.8004
 122094740.398 6  95138774.92444  23233837.953    23233827.4774
        41.800          27.4004
 16  1  1  0  5  4.0000000  0  9G06G26G01G16G09G03G23G32G31
 124350919.205 6  96896797.71743  23663190.047    23663184.7884
        38.300          22.5004
 115963297.433 7  90361023.38045  22067069.089    22067061.5434
        45.400          33.9004
 131714378.230 5                  25064443.816
        33.200
 118145338.892 7  92061291.07144  22482293.124    22482283.2924
        42.600          27.3004
 121304230.794 7  94522804.00444  23083407.900    23083402.2884
        42.200          28.0004
 108120512.679 8  84249749.38047  20574648.086    20574639.7204
        49.300          42.3004
 110224628.201 8  85889306.25546  20975030.248    20975016.6074
        49.200          39.8004
 118918525.331 7  92663743.71645  22629439.704    22629431.3374
        43.900          30.4004
 122098008.700 6  95141321.63344  23234459.971    23234449.6124
        41.800          27.8004
 16  1  1  0  5  5.0000000  0  9G06G26G01G16G09G03G23G32G31
 124350149.762 6  96896198.15543  23663044.156    23663038.3694
        38.500          22.8004
 115962349.959 7  90360285.09245  22066888.403    22066881.0924
        45.500          34.2004
 131717883.146 5                  25065111.861
        32.500
 118142445.790 7  92059036.71644  22481742.912    22481732.7884
        43.000          27.7004
 121301349.544 6  94520558.88444  23082860.302    23082853.7524
        41.300          27.1004
 108121912.345 8  84250840.02947  20574914.785    20574906.1844
        49.200          42.2004
 110223092.831 8  85888109.86346  20974737.996    20974724.5894
        48.800          39.7004
 118921662.947 7  92666188.60545  22630036.541    22630028.8784
        43.700          30.6004
 122101276.874 7  95143868.23644  23235082.271    23235071.2084
        42.200          27.1004
 16  1  1  0  5  6.0000000  0  9G06G26G01G16G09G03G23G32G31
 124349381.070 6  96895599.16543  23662897.606    23662892.3474
        38.100          23.0004
 115961403.295 7  90359547.43045  22066708.450    22066701.1394
        45.400          34.6004
 131721388.093 5                  25065779.405
        32.600
 118139553.247 7  92056782.79244  22481192.050    22481182.8054
        42.800          27.6004
 121298468.551 6  94518313.95644  23082311.529    23082305.3904
        41.200          27.2004
 108123312.746 8  84251931.24647  20575180.848    20575172.4244
        49.400          42.5004
 110221557.871 8  85886913.79246  20974445.808    20974432.5194
        49.200          39.6004
 118924800.973 7  92668633.81945  22630634.117    22630625.6344
        43.300          30.5004
 122104545.376 7  95146415.09544  23235703.816    23235693.5164
        42.500          28.0004
 16  1  1  0  5  7.0000000  0  9G06G26G01G16G09G03G23G32G31
 124348613.005 6  96895000.66743  23662751.964    23662746.4114
        38.200          22.2004
 115960457.253 7  90358810.25345  22066528.078    22066520.9434
        44.700          34.7004
 131724893.003 5                  25066445.876
        32.300
 118136661.163 7  92054529.22344  22480641.454    22480632.2094
        42.400          27.6004
 121295587.678 6  94516069.12944  23081763.594    23081756.8104
        41.400          28.0004
 108124713.703 8  84253022.90147  20575447.196    20575439.2404
        49.300          42.6004
 110220023.194 8  85885717.93946  20974153.493    20974140.3214
        49.300          39.7004
 118927939.274 7  92671079.24445  22631231.168    22631222.9784
        43.400          30.7004
 122107814.013 7  95148962.06644  23236326.186    23236315.1834
        42.400          27.1004
 16  1  1  0  5  8.0000000  0  9G06G26G01G16G09G03G23G32G31
 124347845.625 6  96894402.70343  23662605.218    23662599.9594
        38.700          22.2004
 115959511.901 7  90358073.61745  22066348.669    22066341.1234
        44.600          34.6004
 131728397.895 5                  25067112.531
        31.500
 118133769.542 7  92052276.01344  22480091.687    22480082.0324
        42.500          27.5004
 121292707.006 6  94513824.46244  23081215.753    23081208.4424
        41.200          27.4004
 108126115.303 8  84254115.05847  20575714.075    20575705.6504
        49.000          42.6004
 110218488.878 8  85884522.36446  20973861.568    20973848.3964
        49.000          39.6004
 118931077.890 7  92673524.91445  22631828.617    22631819.9574
        43.500          31.3004
 122111082.902 7  95151509.22544  23236948.146    23236937.4944
        42.400          28.0004
 16  1  1  0  5  9.0000000  0  9G06G26G01G16G09G03G23G32G31
 124347078.973 6  96893805.32543  23662459.165    23662453.7304
        38.700          22.0004
 115958567.277 7  90357337.54945  22066168.756    22066161.2694
        44.200          34.4004
 131731902.812 5                  25067779.111
        31.900
 118130878.449 7  92050023.21344  22479541.463    22479531.8084
        42.800          27.3004
 121289826.507 6  94511579.92444  23080668.169    23080660.7994
        41.700          28.5004
 108127517.576 8  84255207.73647  20575981.628    20575972.8514
        49.100          42.2004
 110216954.923 8  85883327.07746  20973569.862    20973556.5134
        49.100          39.6004
 118934216.831 7  92675970.83945  22632425.708    22632417.4004
        43.200          30.8004
 122114352.042 7  95154056.59044  23237570.312    23237559.4264
        42.300          27.3004
 16  1  1  0  5 10.0000000  0  9G06G26G01G16G09G03G23G32G31
 124346312.859 6  96893208.34643  23662313.700    23662308.2054
        38.700          22.3004
 115957623.160 7  90356601.87145  22065988.800    22065982.1344
        44.200          34.6004
 131735407.494 5                  25068446.419
        31.600
 118127987.680 7  92047770.66844  22478991.166    22478981.5694
        42.800          27.8004
 121286946.062 6  94509335.42144  23080119.596    23080112.6954
        41.900          28.3004
 108128920.298 8  84256300.77247  20576248.058    20576239.5164
        49.200          42.4004
 110215421.120 8  85882131.90846  20973278.046    20973264.8744
        49.200          39.5004
 118937355.936 7  92678416.88845  22633023.139    22633014.8314
        43.700          30.4004
 122117621.213 7  95156603.99144  23238192.700    23238181.6974
        42.000          27.4004
 16  1  1  0  5 11.0000000  0  9G06G26G01G16G09G03G23G32G31
 124345547.494 6  96892611.97343  23662167.599    23662163.1024
        38.600          22.9004
 115956679.874 7  90355866.85345  22065809.484    22065802.2324
        44.500          34.4004
 131738912.351 5                  25069113.538
        31.000
 118125097.499 7  92045518.58344  22478441.596    22478432.0584
        42.600          27.4004
 121284065.905 6  94507091.14144  23079571.755    23079564.6794
        41.700          29.1004
 108130323.772 7  84257394.38347  20576515.534    20576506.6994
        47.800          42.5004
 110213887.772 8  85880937.09446  20972986.103    20972973.0484
        48.000          39.7004
 118940495.473 7  92680863.27445  22633621.418    22633612.4664
        43.700          30.1004
 122120890.761 7  95159151.68144  23238814.750    23238803.6294
        42.000          27.2004
 16  1  1  0  5 12.0000000  0  9G06G26G01G16G09G03G23G32G31
 124344782.588 6  96892015.94343  23662021.497    23662017.0584
        38.900          22.6004
 115955737.065 7  90355132.19045  22065629.913    22065622.9544
        44.700          34.5004
 131742417.037 5                  25069779.566
        32.000
 118122207.570 7  92043266.70144  22477891.336    22477882.0324
        43.000          28.8004
 121281185.710 6  94504846.83744  23079022.820    23079016.1534
        41.700          28.6004
 108131727.669 8  84258488.33447  20576782.918    20576773.9074
        48.400          42.4004
 110212354.563 8  85879742.38646  20972694.801    20972681.1604
        48.400          39.8004
 118943635.116 7  92683309.74545  22634217.904    22634209.6554
        43.900          30.6004
 122124160.260 7  95161699.32044  23239437.017    23239426.1304
        42.400          27.4004
 16  1  1  0  5 13.0000000  0  9G06G26G01G16G09G03G23G32G31
 124344018.325 6  96891420.41543  23661876.992    23661871.6154
        39.400          22.6004
 115954794.822 7  90354397.97945  22065450.877    22065443.6834
        44.400          34.0004
 131745921.531 5                  25070445.831
        31.200
 118119318.054 7  92041015.13444  22477341.210    22477332.4934
        43.100          28.3004
 121278305.585 7  94502602.59044  23078474.928    23078468.2034
        42.100          28.8004
 108133132.090 8  84259582.68647  20577049.591    20577041.1074
        48.900          42.3004
 110210821.595 8  85878547.86446  20972402.899    20972389.3174
        48.200          39.9004
 118946774.959 7  92685756.36745  22634815.970    22634807.3114
        43.700          30.2004
 122127429.868 7  95164247.05944  23240058.694    23240048.1604
        42.500          27.7004
 16  1  1  0  5 14.0000000  0  9G06G26G01G16G09G03G23G32G31
 124343255.026 6  96890825.63243  23661731.736    23661726.5944
        39.500          22.8004
 115953853.574 7  90353664.53745  22065271.336    22065264.7284
        44.100          34.0004
 131749426.370 5                  25071112.117
        30.800
 118116429.314 7  92038764.17144  22476791.540    22476782.4714
        43.000          27.8004
 121275425.942 6  94500358.71344  23077927.010    23077920.5784
        41.900          28.3004
 108134537.445 8  84260677.76347  20577316.939    20577308.8654
        49.300          42.1004
 110209289.246 8  85877353.83246  20972111.076    20972097.7284
        48.600          39.8004
 118949915.448 7  92688203.50745  22635413.100    22635405.0854
        44.100          30.8004
 122130700.020 7  95166795.22344  23240681.032    23240670.3224
        42.200          27.2004
 16  1  1  0  5 15.0000000  0  9G06G26G01G16G09G03G23G32G31
 124342491.978 6  96890231.04343  23661586.667    23661581.2904
        39.600          23.8004
 115952912.589 7  90352931.30045  22065092.503    22065085.4264
        44.300          34.4004
 131752930.724 5                  25071778.633
        30.700
 118113540.619 7  92036513.24644  22476241.939    22476232.6944
        42.700          27.7004
 121272546.036 7  94498114.63244  23077379.559    23077372.4834
        42.300          28.1004
 108135942.999 8  84261773.00247  20577584.311    20577576.2974
        49.300          42.2004
 110207756.817 8  85876159.72546  20971819.239    20971806.3604
        48.700          39.9004
 118953055.833 7  92690650.56845  22636011.221    22636002.3864
        44.200          30.4004
 122133969.968 6  95169343.22144  23241303.261    23241292.3744
        41.900          27.1004
 16  1  1  0  5 16.0000000  0  9G06G26G01G16G09G03G23G32G31
 124341730.053 6  96889637.33043  23661441.804    23661436.3104
        39.400          23.0004
 115951972.699 7  90352198.92245  22064913.693    22064906.3244
        44.600          34.4004
 131756435.512 5                  25072446.854
        30.800
 118110652.834 7  92034263.03244  22475692.514    22475683.2104
        42.900          27.9004
 121269666.744 7  94495871.03944  23076831.632    23076825.0834
        42.000          29.0004
 108137349.596 8  84262869.04647  20577852.130    20577843.6474
        49.300          42.2004
 110206225.120 8  85874966.20046  20971527.459    20971514.4634
        48.900          40.1004
 118956196.911 7  92693098.16144  22636608.628    22636600.1454
        44.400          29.6004
 122137240.561 6  95171891.73544  23241925.944    23241914.9404
        41.900          26.9004
 16  1  1  0  5 17.0000000  0  9G06G26G01G16G09G03G23G32G31
 124340968.281 6  96889043.74343  23661296.966    23661291.7064
        39.400          22.3004
 115951033.030 7  90351466.71545  22064735.128    22064727.5824
        44.900          34.4004
 131759939.848 5                  25073111.841
        30.300
 118107765.040 7  92032012.80844  22475143.295    22475133.7564
        42.800          28.3004
 121266787.137 7  94493627.19544  23076283.025    23076276.9444
        42.000          28.3004
 108138756.331 8  84263965.21047  20578119.547    20578111.3574
        49.100          42.2004
 110204693.284 8  85873772.56446  20971236.165    20971222.8174
        48.100          39.9004
 118959337.850 7  92695545.63045  22637206.133    22637197.8264
        44.100          30.5004
 122140510.851 7  95174440.02844  23242548.122    23242537.7054
        42.100          27.2004
 16  1  1  0  5 18.0000000  0  9G06G26G01G16G09G03G23G32G31
 124340207.114 6  96888450.62543  23661152.297    23661146.2174
        39.700          22.9004
 115950093.933 7  90350734.94945  22064555.897    22064549.1724
        44.900          34.4004
 131763443.969 5                  25073778.637
        31.000
 118104877.631 7  92029762.88544  22474593.613    22474584.0754
        42.900          28.3004
 121263907.603 6  94491383.40844  23075735.380    23075728.6554
        41.900          28.1004
 108140163.617 8  84265061.79247  20578387.512    20578378.9704
        49.400          42.0004
 110203161.700 8  85872579.12746  20970944.776    20970931.4864
        48.500          40.1004
 118962478.983 7  92697993.26345  22637803.478    22637795.7564
        43.700          30.8004
 122143781.296 7  95176988.42344  23243170.612    23243159.4914
        42.100          28.0004
 16  1  1  0  5 19.0000000  0  9G06G26G01G16G09G03G23G32G31
 124339446.864 6  96887858.23043  23661007.326    23661001.7744
        39.400          22.6004
 115949155.808 7  90350003.94545  22064377.687    22064370.2584
        44.800          34.5004
 131766948.424 5                  25074446.599
        31.200
 118101990.976 7  92027513.54944  22474044.167    22474035.1564
        43.400          28.8004
 121261028.510 7  94489139.96644  23075187.571    23075180.7294
        42.200          28.1004
 108141571.787 8  84266159.07347  20578655.400    20578647.2684
        49.300          42.0004
 110201630.713 8  85871386.14446  20970653.300    20970640.1864
        49.100          40.1004
 118965620.720 7  92700441.37445  22638401.927    22638393.3854
        44.000          30.3004
 122147052.198 6  95179537.17444  23243792.730    23243782.1374
        41.900          27.5004
 16  1  1  0  5 20.0000000  0  9G06G26G01G16G09G03G23G32G31
 124338687.087 6  96887266.20543  23660863.111    23660857.0894
        39.200          22.8004
 115948218.141 7  90349273.29945  22064199.132    22064191.8794
        45.000          34.0004
 131770452.611 5                  25075113.034
        31.500
 118099104.590 7  92025264.42244  22473495.076    22473485.5974
        43.100          27.8004
 121258149.383 7  94486896.49244  23074639.937    23074633.0364
        42.400          28.3004
 108142980.358 8  84267256.65447  20578923.172    20578915.1584
        49.800          42.1004
 110200099.837 8  85870193.25346  20970361.962    20970348.9074
        49.400          39.8004
 118968762.568 7  92702889.56545  22638999.534    22638991.3434
        44.100          30.0004
 122150323.092 6  95182085.91644  23244414.578    23244404.3954
        41.800          27.6004
 16  1  1  0  5 21.0000000  0  9G06G26G01G16G09G03G23G32G31
 124337928.039 6  96886674.74443  23660718.929    23660712.9074
        39.200          22.5004
 115947281.184 7  90348543.20245  22064020.557    22064013.7744
        44.900          33.9004
 131773956.867 5                  25075780.527
        31.300
 118096218.711 7  92023015.68744  22472945.963    22472936.3074
        43.700          28.1004
 121255270.464 6  94484653.17944  23074091.586    23074085.0964
        41.800          28.7004
 108144389.586 8  84268354.75547  20579191.507    20579183.5514
        49.000          42.2004
 110198569.314 8  85869000.63346  20970070.776    20970058.1314
        48.700          39.8004
 118971904.727 7  92705337.99945  22639597.137    22639589.0064
        44.300          30.2004
 122153594.227 6  95184634.85444  23245037.474    23245026.9984
        41.800          27.9004
 16  1  1  0  5 22.0000000  0  9G06G26G01G16G09G03G23G32G31
 124337169.441 6  96886083.62543  23660574.845    23660568.5894
        39.000          22.9004
 115946344.722 7  90347813.49345  22063842.555    22063835.5954
        45.000          33.6004
 131777460.876 5                  25076446.541
        31.600
 118093333.105 7  92020767.16244  22472396.719    22472387.4154
        43.400          27.3004
 121252391.523 7  94482409.84944  23073543.717    23073537.3434
        42.100          28.3004
 108145799.257 8  84269453.19947  20579459.851    20579452.2474
        49.400          42.1004
 110197038.921 8  85867808.12546  20969779.447    20969766.3924
        48.700          39.9004
 118975047.030 7  92707786.54245  22640196.065    22640186.9964
        44.400          31.0004
 122156865.381 7  95187183.80344  23245660.769    23245649.4144
        42.200          26.4004
 16  1  1  0  5 23.0000000  0  9G06G26G01G16G09G03G23G32G31
 124336411.760 6  96885493.22843  23660429.939    23660423.9764
        39.300          22.6004
 115945409.151 7  90347084.47545  22063664.144    22063657.4774
        45.000          33.9004
 131780965.104 5                  25077113.339
        32.500
 118090448.191 7  92018519.18244  22471847.710    22471838.4064
        43.400          27.0004
 121249512.941 7  94480166.79944  23072995.514    23072989.6684
        42.400          28.6004
 108147209.739 8  84270552.27547  20579728.213    20579720.2584
        49.400          42.0004
 110195509.078 8  85866616.04146  20969488.726    20969475.3784
        49.100          39.4004
 118978189.849 7  92710235.48645  22640793.637    22640785.2714
        43.800          31.4004
 122160136.915 7  95189733.04344  23246283.171    23246272.4024
        42.500          28.3004
 16  1  1  0  5 24.0000000  0  9G06G26G01G16G09G03G23G32G31
 124335654.772 6  96884903.36143  23660286.153    23660279.7214
        39.600          22.9004
 115944474.281 7  90346356.01145  22063486.575    22063479.5574
        44.800          34.0004
 131784469.271 5                  25077781.759
        31.300
 118087563.758 7  92016271.57744  22471298.451    22471289.7334
        43.200          28.5004
 121246634.578 7  94477923.92444  23072447.866    23072441.8444
        42.000          28.5004
 108148620.859 8  84271651.85046  20579996.597    20579988.7004
        49.100          41.9004
 110193979.583 8  85865424.23146  20969197.639    20969184.5844
        48.700          39.6004
 118981332.957 7  92712684.65245  22641391.745    22641383.4964
        43.900          30.8004
 122163408.711 6  95192282.49844  23246905.454    23246894.6274
        41.800          27.9004
 16  1  1  0  5 25.0000000  0  9G06G26G01G16G09G03G23G32G31
 124334898.178 6  96884313.80143  23660142.405    23660135.9144
        39.400          22.9004
 115943539.835 7  90345627.87745  22063308.500    22063301.7164
        44.500          34.1004
 131787973.215 5                  25078449.398
        32.300
 118084679.563 7  92014024.15344  22470750.202    22470740.3714
        43.100          28.3004
 121243756.125 6  94475680.98144  23071900.501    23071894.3624
        41.600          27.2004
 108150032.355 8  84272751.71646  20580265.055    20580257.1004
        48.800          41.9004
 110192450.135 8  85864232.45346  20968906.326    20968893.6234
        48.400          39.5004
 118984476.148 7  92715133.89845  22641990.264    22641981.7224
        43.900          30.6004
 122166680.448 6  95194831.91244  23247527.634    23247517.1584
        41.600          26.5004
 16  1  1  0  5 26.0000000  0  9G06G26G01G16G09G03G23G32G31
 124334142.145 6  96883724.68543  23659997.896    23659992.0504
        39.500          22.5004
 115942605.948 7  90344900.17245  22063131.607    22063124.0624
        44.500          33.8004
 131791477.040 5                  25079115.474
        32.600
 118081795.730 7  92011777.02544  22470201.317    22470191.8964
        43.500          27.9004
 121240877.734 6  94473438.09144  23071352.550    23071346.2934
        41.700          28.2004
 108151444.360 8  84273851.98746  20580534.238    20580525.6964
        48.400          41.9004
 110190920.944 8  85863040.87846  20968615.404    20968602.3504
        48.200          39.5004
 118987619.529 7  92717583.27945  22642588.194    22642579.8864
        44.300          30.9004
 122169952.305 6  95197381.41444  23248150.349    23248139.9904
        41.400          27.2004
 16  1  1  0  5 27.0000000  0  9G06G26G01G16G09G03G23G32G31
 124333386.946 6  96883136.22143  23659855.003    23659848.1614
        39.100          22.9004
 115941672.878 7  90344173.10645  22062953.820    22062946.7434
        44.700          34.0004
 131794980.961 5                  25079781.948
        32.600
 118078912.497 7  92009530.35844  22469652.821    22469642.9904
        43.600          27.3004
 121237999.598 7  94471195.39244  23070805.385    23070798.2504
        42.200          28.3004
 108152857.121 8  84274952.83647  20580802.936    20580794.3354
        48.600          42.1004
 110189392.192 7  85861849.64946  20968324.823    20968311.4164
        47.900          39.3004
 118990763.352 7  92720033.01244  22643186.510    22643178.1444
        44.300          29.9004
 122173224.468 6  95199931.14644  23248773.144    23248762.5504
        41.400          26.4004
 16  1  1  0  5 28.0000000  0  9G06G26G01G16G09G03G23G32G31
 124332632.434 6  96882548.29443  23659710.790    23659704.7684
        38.900          22.3004
 115940740.565 7  90343446.62545  22062776.437    22062769.0094
        44.600          34.0004
 131798484.881 5                  25080448.764
        32.500
 118076029.802 7  92007284.10244  22469104.472    22469094.7004
        43.500          28.9004
 121235121.743 6  94468952.91044  23070257.884    23070250.7494
        41.600          28.3004
 108154270.550 8  84276054.21046  20581071.710    20581063.5784
        48.700          41.9004
 110187863.846 8  85860658.72846  20968033.499    20968020.6204
        48.300          39.2004
 118993907.524 7  92722483.01245  22643785.073    22643776.8244
        43.800          31.0004
 122176496.920 6  95202481.11544  23249396.035    23249385.2074
        41.600          27.8004
 16  1  1  0  5 29.0000000  0  9G06G26G01G16G09G03G23G32G31
 124331878.323 6  96881960.68643  23659567.093    23659561.0134
        39.100          22.3004
 115939808.647 7  90342720.45845  22062598.469    22062591.9204
        44.500          33.6004
 131801988.539 5                  25081115.637
        32.200
 118073147.317 7  92005038.00944  22468556.223    22468545.3954
        43.800          28.0004
 121232243.727 7  94466710.30644  23069709.960    23069703.3524
        42.000          27.9004
 108155684.321 8  84277155.84446  20581341.061    20581332.6954
        49.100          41.8004
 110186335.538 8  85859467.83946  20967742.512    20967729.7504
        48.300          39.5004
 118997051.741 7  92724933.04545  22644382.831    22644374.9924
        43.700          30.9004
 122179769.266 6  95205030.99644  23250018.695    23250007.9264
        41.700          27.1004
 16  1  1  0  5 30.0000000  0  9G06G26G01G16G09G03G23G32G31
 124331125.170 6  96881373.82543  23659423.274    23659417.8394
        39.400          22.3004
 115938877.623 7  90341994.98545  22062421.203    22062414.8304
        44.400          33.3004
 131805492.423 5                  25081782.740
        31.900
 118070265.520 7  92002792.45344  22468006.635    22467997.6244
        43.200          28.3004
 121229366.137 7  94464468.03144  23069162.438    23069155.6544
        42.000          27.6004
 108157098.957 8  84278258.15946  20581610.196    20581601.7134
        49.300          41.8004
 110184807.808 8  85858277.40246  20967452.001    20967439.1804
        48.000          39.3004
 119000196.505 7  92727383.50745  22644981.472    22644973.6924
        43.500          30.3004
 122183042.081 6  95207581.25044  23250641.627    23250630.6824
        41.800          27.7004
 16  1  1  0  5 31.0000000  0  9G06G26G01G16G09G03G23G32G31
 124330372.308 6  96880787.17843  23659280.376    23659274.9404
        39.000          22.2004
 115937946.948 7  90341269.78345  22062243.705    22062237.3314
        44.600          32.9004
 131808996.001 5                  25082449.193
        32.500
 118067383.877 7  92000547.01644  22467459.080    22467449.2484
        43.100          28.1004
 121226488.400 6  94462225.63344  23068614.559    23068608.0684
        41.800          27.6004
 108158513.851 8  84279360.67646  20581879.539    20581870.9384
        49.700          41.7004
 110183280.037 8  85857086.93246  20967161.308    20967148.4294
        48.300          39.3004
 119003341.216 7  92729833.93145  22645580.158    22645572.0264
        43.700          30.5004
 122186314.784 6  95210131.42044  23251264.095    23251253.7954
        41.900          26.4004
 16  1  1  0  5 32.0000000  0  9G06G26G01G16G09G03G23G32G31
 124329620.201 6  96880201.11443  23659137.137    23659131.4674
        38.800          22.8004
 115937017.038 7  90340545.17745  22062067.183    22062060.7514
        44.500          33.2004
 131812499.491 5                  25083116.485
        32.200
 118064502.791 7  91998302.02644  22466910.265    22466900.8444
        43.500          27.7004
 121223610.912 7  94459983.44044  23068066.898    23068060.8764
        42.000          28.4004
 108159929.451 8  84280463.74246  20582148.901    20582140.1254
        49.100          41.7004
 110181752.698 7  85855896.79546  20966870.605    20966857.6084
        47.600          39.2004
 119006486.328 7  92732284.66945  22646177.820    22646170.3924
        43.700          30.7004
 122189587.712 6  95212681.77544  23251887.092    23251876.7914
        41.300          26.1004
 16  1  1  0  5 33.0000000  0  9G06G26G01G16G09G03G23G32G31
 124328868.819 6  96879615.61743  23658993.984    23658988.6074
        38.100          22.6004
 115936087.843 7  90339821.13345  22061890.456    22061883.6734
        44.600          33.2004
 131816003.122 5                  25083782.948
        32.900
 118061622.202 7  91996057.41644  22466362.301    22466352.3524
        43.600          27.5004
 121220733.565 6  94457741.34944  23067519.502    23067513.0114
        41.700          28.1004
 108161345.708 8  84281567.31646  20582418.566    20582409.7314
        49.000          41.7004
 110180225.684 7  85854706.92146  20966580.017    20966566.7274
        47.900          38.9004
 119009631.757 7  92734735.64645  22646776.761    22646768.7464
        43.600          30.8004
 122192860.926 6  95215232.33844  23252509.700    23252499.6924
        41.600          27.5004
