     2.11           OBSERVATION DATA    M (MIXED)           RINEX VERSION / TYPE
teqc  2011Oct11                         20160218 00:17:13UTCPGM / RUN BY / DATE
Linux 2.4.21-27.ELsmp|Opteron|gcc|Linux x86_64|=+           COMMENT
teqc  2015Jun23                         20160218 00:17:12UTCCOMMENT
Linux 2.4.21-27.ELsmp|Opteron|gcc -static|Linux x86_64|=+   COMMENT
BIT 2 OF LLI FLAGS DATA COLLECTED UNDER A/S CONDITION       COMMENT
VILL                                                        MARKER NAME
13406M001                                                   MARKER NUMBER
AUTOMATIC           ESA/ESOC                                OBSERVER / AGENCY
3001316             SEPT POLARX4        2.9.0               REC # / TYPE / VERS
5166                SEPCHOKE_MC     NONE                    ANT # / TYPE
  4849833.7962  -335049.1807  4116014.8247                  APPROX POSITION XYZ
        0.0937        0.0000        0.0000                  ANTENNA: DELTA H/E/N
     1     1                                                WAVELENGTH FACT L1/2
    17    C1    P1    L1    S1    C2    P2    L2    S2    C5# / TYPES OF OBSERV
          L5    S5    C7    L7    S7    C8    L8    S8      # / TYPES OF OBSERV
 SNR is mapped to RINEX snr flag value [0-9]                COMMENT
  L1 & L2: min(max(int(snr_dBHz/6), 0), 9)                  COMMENT
teqc_SBF.bin edited: all SBAS satellites excluded           COMMENT
teqc_SBF.bin edited: all Galileo satellites excluded        COMMENT
teqc_SBF.bin edited: all Compass satellites excluded        COMMENT
teqc_SBF.bin edited: all QZSS satellites excluded           COMMENT
    17                                                      LEAP SECONDS
  2016     2    18     0     0    0.0000000     GPS         TIME OF FIRST OBS
                                                            END OF HEADER
 16  2 18  0  0  0.0000000  0 18G26G21G27G10G16R14G31G18G20G08R15R02
                                R17G29R24R01R18G04
  20236515.035    20236514.803   106343636.955 8        51.500    20236516.747
  20236517.083    82865188.982 8        48.750    20236516.600    79412481.898 9
        55.000

  21516680.141    21516679.386   113071040.393 8        48.000
  21516678.039    88107334.10546        39.750


  21853827.626    21853827.260   114842671.168 7        47.000    21853828.445
  21853828.771    89487801.223 7        44.500    21853829.487    85759146.484 8
        51.000

  23871609.435    23871609.368   125446203.580 6        40.500    23871610.249
  23871609.914    97750269.765 6        38.250    23871609.632    93677339.537 7
        43.000

  20471977.512    20471976.886   107580990.498 8        50.500
  20471975.509    83829340.16347        43.750


  21640321.858                   115355119.258 6        39.500    21640329.070
  21640328.784    89720669.500 6        37.000


  23866459.113    23866459.135   125419105.574 6        38.250    23866458.035
  23866458.191    97729162.364 5        35.250


  22756509.583    22756508.899   119586288.680 7        43.500
  22756508.917    93184134.65744        28.500


  23586017.961    23586017.094   123945382.014 6        39.250
  23586016.874    96580816.73943        20.250


  24494518.943    24494518.599   128719571.260 6        37.250    24494520.759
  24494520.759   100300990.459 5        33.000    24494521.331    96121768.200 7
        42.000

  19509552.915                   104253145.642 8        50.250    19509557.015
  19509556.465    81085806.609 8        48.250


  23521565.075                   125515576.136 6        40.500    23521569.211
  23521570.816    97623248.220 6        38.750


  20158036.652                   107869764.777 8        49.250    20158038.324
  20158038.382    83898710.316 5        33.500


  24473413.360    24473413.280   128608748.581 6        37.000    24473414.009
  24473413.508   100214657.87442        17.500


  22365930.462                   119600836.129 6        38.500    22365932.407
  22365932.063    93022798.436 5        31.500


  22844481.214                   122116840.395 6        41.750    22844486.334
  22844487.729    94979793.727 5        34.250


  20981924.639                   112003022.693 8        49.250    20981927.747
  20981928.127    87113483.646 7        45.750


  20539762.090    20539762.010   107937201.975 8        50.000
  20539760.686    84106923.39447        42.750


 16  2 18  0  0  1.0000000  0 18G26G21G27G10G16R14G31G18G20G08R15R02
                                R17G29R24R01R18G04
  20236626.074    20236625.842   106344220.582 8        51.500    20236627.795
  20236628.144    82865643.762 8        48.750    20236627.657    79412917.723 9
        55.000

  21516962.591    21516961.836   113072525.142 8        48.000
  21516960.574    88108491.05146        39.750


  21853441.538    21853441.172   114840641.952 7        47.000    21853442.316
  21853442.597    89486220.007 7        44.500    21853443.362    85757631.161 8
        51.000

  23870990.361    23870990.294   125442948.000 6        40.500    23870990.898
  23870990.379    97747732.935 6        38.250    23870990.039    93674908.428 7
        43.000

  20471743.329    20471742.708   107579759.638 8        50.500
  20471741.285    83828381.05147        43.750


  21641116.823                   115359355.981 6        39.500    21641123.463
  21641123.575    89723964.721 6        37.500


  23867120.940    23867120.957   125422582.170 6        38.250    23867119.737
  23867119.746    97731871.381 5        35.500


  22756190.269    22756189.585   119584611.863 7        43.500
  22756189.827    93182828.04644        28.500


  23586254.555    23586253.692   123946624.402 6        39.250
  23586253.316    96581784.83543        20.500


  24493998.133    24493997.794   128716833.773 6        37.250    24493999.891
  24493999.841   100298857.344 5        33.000    24494000.396    96119723.962 7
        42.000

  19509840.364                   104254681.902 8        50.000    19509844.679
  19509843.986    81087001.472 8        48.250


  23520908.323                   125512070.076 6        40.750    23520912.951
  23520913.752    97620521.285 6        39.000


  20158413.064                   107871779.018 8        49.000    20158414.495
  20158414.920    83900277.012 5        33.250


  24473952.486    24473952.410   128611579.907 6        37.500    24473952.911
  24473952.303   100216864.10442        17.500


  22366520.220                   119603987.524 6        38.500    22366521.427
  22366521.154    93025249.560 5        31.250


  22844271.755                   122115717.373 7        42.000    22844276.141
  22844278.001    94978920.269 5        33.500


  20981536.534                   112000951.015 8        49.000    20981539.659
  20981539.977    87111872.333 7        45.750


  20540035.910    20540035.830   107938641.156 8        50.000
  20540034.569    84108044.83347        42.750


 16  2 18  0  0  2.0000000  0 18G26G21G27G10G16R14G31G18G20G08R15R02
                                R17G29R24R01R18G04
  20236737.238    20236737.006   106344804.747 8        51.500    20236738.978
  20236739.300    82866098.956 8        48.750    20236738.830    79413353.948 9
        55.000

  21517245.170    21517244.410   113074010.268 8        48.000
  21517243.189    88109648.29146        39.750


  21853055.435    21853055.069   114838612.940 7        47.250    21853056.222
  21853056.468    89484638.962 7        44.500    21853057.224    85756115.996 8
        50.750

  23870370.711    23870370.640   125439692.468 6        40.500    23870371.332
  23870370.867    97745196.186 6        38.500    23870370.469    93672477.360 7
        43.000

  20471509.271    20471508.645   107578529.220 8        50.500
  20471507.147    83827422.28247        43.750


  21641911.801                   115363593.032 6        39.750    21641918.732
  21641918.473    89727260.230 6        36.750


  23867782.744    23867782.757   125426058.770 6        38.250    23867781.170
  23867781.264    97734580.442 5        35.250


  22755871.054    22755870.375   119582935.427 7        43.250
  22755870.808    93181521.73244        28.500


  23586491.215    23586490.352   123947867.404 6        39.500
  23586489.905    96582753.40643        20.750


  24493477.051    24493476.707   128714096.352 6        37.000    24493479.577
  24493478.947   100296724.298 5        32.500    24493479.380    96117679.791 7
        42.000

  19510127.894                   104256219.020 8        50.000    19510132.254
  19510131.690    81088197.008 8        48.250


  23520251.889                   125508564.170 6        40.750    23520256.446
  23520256.750    97617794.479 6        38.500


  20158789.485                   107873793.533 8        49.000    20158790.478
  20158791.104    83901843.825 5        33.500


  24474491.370    24474491.303   128614411.224 6        37.500    24474491.942
  24474491.088   100219070.31942        17.250


  22367109.897                   119607138.946 6        38.500    22367110.183
  22367110.304    93027700.618 5        31.750


  22844061.919                   122114595.102 7        42.250    22844066.208
  22844068.086    94978047.404 5        34.500


  20981148.477                   111998879.698 8        49.000    20981151.697
  20981151.965    87110261.313 7        45.750


  20540309.864    20540309.784   107940080.844 8        50.000
  20540308.540    84109166.66647        42.750


 16  2 18  0  0  3.0000000  0 18G26G21G27G10G16R14G31G18G20G08R15R02
                                R17G29R24R01R18G04
  20236848.524    20236848.292   106345389.449 8        51.500    20236850.218
  20236850.558    82866554.563 8        48.750    20236850.098    79413790.578 9
        54.750

  21517527.902    21517527.147   113075495.788 8        48.000
  21517525.881    88110805.84046        39.750


  21852669.481    21852669.115   114836584.133 7        47.000    21852670.178
  21852670.384    89483058.072 7        44.500    21852671.162    85754600.977 8
        50.750

  23869751.279    23869751.203   125436437.046 6        40.750    23869751.892
  23869751.404    97742659.494 6        38.500    23869750.930    93670046.362 7
        43.000

  20471275.302    20471274.681   107577299.248 8        50.500
  20471273.089    83826463.86347        43.750


  21642706.981                   115367830.448 6        39.750    21642712.875
  21642713.290    89730555.991 6        37.250


  23868444.321    23868444.329   125429535.469 6        38.000    23868442.344
  23868442.823    97737289.537 5        35.000


  22755551.914    22755551.235   119581259.386 7        43.250
  22755551.851    93180215.72444        28.500


  23586727.929    23586727.066   123949110.999 6        39.500
  23586726.637    96583722.43643        20.750


  24492956.116    24492955.790   128711358.998 6        37.000    24492958.298
  24492958.029   100294591.292 5        33.000    24492958.508    96115635.669 6
        41.750

  19510415.576                   104257757.002 8        50.000    19510419.998
  19510419.471    81089393.226 8        48.250


  23519594.994                   125505058.447 6        41.000    23519599.524
  23519599.801    97615067.792 6        38.250


  20159165.933                   107875808.319 8        49.000    20159167.655
  20159167.601    83903410.903 5        32.750


  24475030.527    24475030.465   128617242.541 6        37.500    24475030.429
  24475029.883   100221276.55142        17.250


  22367698.555                   119610290.417 6        38.250    22367700.156
  22367699.874    93030151.811 5        32.000


  22843852.307                   122113473.604 7        42.250    22843857.401
  22843858.322    94977175.136 5        33.750


  20980760.408                   111996808.762 8        49.000    20980764.115
  20980764.003    87108650.585 7        45.750


  20540583.849    20540583.769   107941521.031 8        50.000
  20540582.611    84110288.88947        42.750


 16  2 18  0  0  4.0000000  0 18G26G21G27G10G16R14G31G18G20G08R15R02
                                R17G29R24R01R18G04
  20236959.952    20236959.720   106345974.688 8        51.750    20236961.548
  20236961.924    82867010.593 8        48.750    20236961.468    79414227.604 9
        54.750

  21517810.679    21517809.924   113076981.682 8        48.000
  21517808.635    88111963.67846        39.750


  21852283.557    21852283.191   114834555.533 7        47.250    21852284.291
  21852284.349    89481477.337 7        44.500    21852285.131    85753086.106 8
        50.750

  23869131.772    23869131.692   125433181.656 6        40.500    23869132.112
  23869131.964    97740122.842 6        38.250    23869131.356    93667615.387 7
        43.000

  20471041.315    20471040.689   107576069.718 8        50.500
  20471039.115    83825505.78847        43.750


  21643501.937                   115372068.212 6        39.750    21643507.978
  21643508.390    89733852.003 6        37.500


  23869105.383    23869105.387   125433012.223 6        38.250    23869103.205
  23869104.422    97739998.674 5        35.250


  22755233.074    22755232.395   119579583.727 7        43.000
  22755233.007    93178910.02044        28.500


  23586964.823    23586963.965   123950355.168 6        39.500
  23586963.419    96584691.91743        20.750


  24492434.930    24492434.613   128708621.723 6        37.000    24492436.826
  24492437.112   100292458.362 5        32.500    24492437.694    96113591.594 6
        41.750

  19510703.526                   104259295.845 8        50.000    19510708.065
  19510707.488    81090590.096 8        48.250


  23518938.435                   125501552.905 6        40.750    23518942.482
  23518942.669    97612341.260 6        38.500


  20159542.421                   107877823.384 8        49.000    20159544.076
  20159544.206    83904978.157 5        34.000


  24475569.434    24475569.372   128620073.873 6        37.750    24475570.082
  24475568.647   100223482.78442        17.000


  22368287.991                   119613441.878 6        38.750    22368290.683
  22368289.641    93032602.952 5        31.250


  22843642.722                   122112352.857 7        42.250    22843648.205
  22843648.616    94976303.429 5        34.500


  20980372.579                   111994738.181 8        49.000    20980375.911
  20980376.058    87107040.128 7        45.500


  20540857.955    20540857.875   107942961.715 8        50.000
  20540856.770    84111411.50147        42.750


 16  2 18  0  0  5.0000000  0 18G26G21G27G10G16R14G31G18G20G08R15R02
                                R17G29R24R01R18G04
  20237071.474    20237071.242   106346560.462 8        51.750    20237072.919
  20237073.388    82867467.035 8        49.000    20237072.914    79414665.029 9
        54.750

  21518093.451    21518092.696   113078467.954 8        48.000
  21518091.470    88113121.81346        39.750


  21851897.522    21851897.156   114832527.142 7        47.250    21851898.372
  21851898.340    89479896.777 7        44.750    21851899.154    85751571.395 8
        50.750

  23868512.188    23868512.108   125429926.363 6        40.750    23868512.515
  23868512.528    97737586.232 6        38.250    23868511.839    93665184.497 7
        43.000

  20470807.499    20470806.873   107574840.631 8        50.250
  20470805.223    83824548.05847        43.750


  21644296.544                   115376306.295 6        39.750    21644303.623
  21644303.422    89737148.309 6        37.250


  23869767.027    23869767.027   125436489.001 6        38.250    23869765.077
  23869766.034    97742707.869 5        35.000


  22754914.256    22754913.577   119577908.467 7        43.250
  22754914.211    93177604.62344        28.500


  23587201.599    23587200.750   123951599.951 6        39.250
  23587200.343    96585661.87643        20.750


  24491913.718    24491913.405   128705884.485 6        37.000    24491916.016
  24491916.177   100290325.448 5        32.500    24491916.839    96111547.562 6
        41.750

  19510991.592                   104260835.549 8        50.000    19510996.346
  19510995.630    81091787.645 8        48.250


  23518281.321                   125498047.551 6        40.750    23518285.484
  23518285.779    97609614.857 6        38.000


  20159918.995                   107879838.725 8        49.000    20159922.371
  20159920.747    83906545.670 5        33.500


  24476107.969    24476107.907   128622905.204 6        37.500    24476108.564
  24476107.419   100225689.01842        17.250


  22368877.503                   119616593.364 6        38.750    22368880.557
  22368878.880    93035054.089 5        30.750


  22843433.536                   122111232.883 7        42.500    22843437.851
  22843439.045    94975432.353 5        34.000


  20979984.697                   111992667.979 8        49.000    20979988.136
  20979988.239    87105429.976 7        45.500


  20541132.294    20541132.214   107944402.910 8        50.000
  20541131.024    84112534.50847        42.750


 16  2 18  0  0  6.0000000  0 18G26G21G27G10G16R14G31G18G20G08R15R02
                                R17G29R24R01R18G04
  20237183.046    20237182.814   106347146.758 8        51.750    20237184.669
  20237184.955    82867923.892 8        49.000    20237184.481    79415102.851 9
        55.000

  21518376.294    21518375.539   113079954.604 8        48.000
  21518374.371    88114280.24446        40.000


  21851511.608    21851511.242   114830498.954 7        47.250    21851512.435
  21851512.386    89478316.380 7        44.750    21851513.222    85750056.846 8
        50.750

  23867892.918    23867892.834   125426671.119 6        41.000    23867893.137
  23867893.101    97735049.703 6        38.250    23867892.390    93662753.636 7
        43.000

  20470573.669    20470573.048   107573611.981 8        50.250
  20470571.410    83823590.66947        43.750


  21645091.518                   115380544.735 6        39.500    21645098.588
  21645098.387    89740444.873 6        37.000


  23870428.411    23870428.407   125439965.835 6        38.250    23870426.913
  23870427.646    97745417.079 5        35.250


  22754595.559    22754594.884   119576233.584 7        43.250
  22754595.483    93176299.52444        28.750


  23587438.515    23587437.670   123952845.322 6        39.500
  23587437.361    96586632.29843        21.000


  24491392.787    24491392.470   128703147.355 6        37.000    24491395.309
  24491395.287   100288192.620 5        32.500    24491396.020    96109503.575 6
        41.750

  19511279.918                   104262376.117 8        50.000    19511284.671
  19511283.965    81092985.865 8        48.500


  23517624.131                   125494542.344 6        40.750    23517629.162
  23517628.960    97606888.594 6        38.750


  20160295.613                   107881854.329 8        49.000    20160299.454
  20160297.169    83908113.328 5        33.750


  24476646.777    24476646.710   128625736.545 6        37.750    24476647.041
  24476646.182   100227895.26342        17.250


  22369467.350                   119619744.871 6        39.000    22369469.939
  22369468.294    93037505.257 5        32.250


  22843224.165                   122110113.659 7        42.500    22843228.981
  22843229.580    94974561.805 5        34.250


  20979596.869                   111990598.127 8        49.000    20979600.370
  20979600.536    87103820.097 7        45.500


  20541406.664    20541406.580   107945844.600 8        50.000
  20541405.376    84113657.90347        43.000


 16  2 18  0  0  7.0000000  0 18G26G21G27G10G16R14G31G18G20G08R15R02
                                R17G29R24R01R18G04
  20237294.814    20237294.582   106347733.597 8        51.750    20237296.361
  20237296.625    82868381.170 8        49.000    20237296.147    79415541.073 9
        55.000

  21518659.316    21518658.561   113081441.627 8        48.000
  21518657.336    88115438.96246        40.000


  21851125.648    21851125.277   114828470.972 7        47.250    21851126.668
  21851126.453    89476736.121 7        44.750    21851127.312    85748542.442 8
        51.000

  23867273.562    23867273.478   125423415.979 6        40.750    23867273.437
  23867273.647    97732513.211 6        38.000    23867272.927    93660322.841 7
        43.000

  20470339.897    20470339.271   107572383.782 8        50.250
  20470337.692    83822633.63147        44.000


  21645886.470                   115384783.512 6        39.750    21645893.580
  21645893.428    89743741.698 6        37.500


  23871089.876    23871089.868   125443442.717 6        38.500    23871088.820
  23871089.299    97748126.340 5        35.250


  22754276.992    22754276.317   119574559.075 7        43.250
  22754276.826    93174994.71544        28.750


  23587675.855    23587675.015   123954091.271 6        39.750
  23587674.474    96587603.18043        21.000


  24490871.946    24490871.629   128700410.256 6        37.000    24490874.423
  24490874.379   100286059.824 5        32.500    24490875.228    96107459.659 6
        41.750

  19511568.414                   104263917.547 8        50.000    19511573.015
  19511572.447    81094184.756 8        48.250


  23516967.384                   125491037.287 6        41.000    23516972.710
  23516972.021    97604162.448 6        38.750


  20160672.342                   107883870.200 8        49.000    20160675.852
  20160674.363    83909681.240 5        33.500


  24477185.782    24477185.724   128628567.865 6        37.500    24477185.603
  24477184.986   100230101.48042        17.000


  22370056.643                   119622896.400 6        39.000    22370058.776
  22370057.649    93039956.417 5        30.750


  22843014.849                   122108995.203 7        42.250    22843019.834
  22843019.960    94973691.892 5        34.000


  20979209.242                   111988528.641 8        49.000    20979212.461
  20979212.842    87102210.501 7        45.500


  20541681.078    20541680.998   107947286.788 8        50.250
  20541679.826    84114781.68647        43.000


 16  2 18  0  0  8.0000000  0 18G26G21G27G10G16R14G31G18G20G08R15R02
                                R17G29R24R01R18G04
  20237406.631    20237406.399   106348320.969 8        51.750    20237408.156
  20237408.393    82868838.864 8        49.000    20237407.919    79415979.696 9
        54.750

  21518942.406    21518941.651   113082929.036 8        48.000
  21518940.376    88116597.98146        40.000


  21850739.810    21850739.444   114826443.203 7        47.250    21850740.736
  21850740.575    89475156.046 7        45.000    21850741.460    85747028.198 8
        50.750

  23866654.269    23866654.180   125420160.869 6        41.000    23866653.898
  23866654.211    97729976.786 6        38.000    23866653.469    93657892.096 7
        43.250

  20470106.196    20470105.570   107571156.019 8        50.250
  20470104.054    83821676.93247        44.000


  21646682.410                   115389022.627 6        39.750    21646689.368
  21646688.822    89747038.766 6        37.000


  23871751.497    23871751.484   125446919.675 6        38.500    23871750.156
  23871750.934    97750835.652 5        35.250


  22753958.357    22753957.682   119572884.949 7        43.250
  22753958.250    93173690.20144        29.000


  23587913.290    23587912.445   123955337.829 6        39.750
  23587911.675    96588574.51943        21.000


  24490351.194    24490350.886   128697673.244 6        37.000    24490353.220
  24490353.524   100283927.056 5        32.250    24490354.374    96105415.772 6
        41.750

  19511857.017                   104265459.841 8        50.000    19511861.716
  19511861.081    81095384.313 8        48.500


  23516310.274                   125487532.409 6        40.750    23516316.003
  23516315.377    97601436.427 6        38.500


  20161049.130                   107885886.336 8        49.000    20161052.622
  20161050.686    83911249.360 5        33.250


  24477724.291    24477724.233   128631399.215 6        37.750    24477723.262
  24477723.749   100232307.72442        17.000


  22370645.766                   119626047.959 6        39.000    22370647.313
  22370647.009    93042407.653 5        31.500


  22842805.684                   122107877.482 7        42.250    22842810.214
  22842811.077    94972822.582 5        34.000


  20978821.762                   111986459.520 8        49.000    20978824.745
  20978825.241    87100601.180 7        45.500


  20541955.631    20541955.551   107948729.474 8        50.250
  20541954.361    84115905.85847        43.000


 16  2 18  0  0  9.0000000  0 18G26G21G27G10G16R14G31G18G20G08R15R02
                                R17G29R24R01R18G04
  20237518.480    20237518.248   106348908.872 8        51.750    20237520.063
  20237520.260    82869296.965 8        49.000    20237519.804    79416418.714 9
        54.750

  21519225.540    21519224.785   113084416.815 8        48.000
  21519223.492    88117757.28946        40.000


  21850353.922    21850353.551   114824415.631 7        47.250    21850354.906
  21850354.732    89473576.117 7        45.000    21850355.631    85745514.107 8
        50.750

  23866034.909    23866034.816   125416905.860 6        41.000    23866034.511
  23866034.802    97727440.406 6        37.750    23866033.970    93655461.404 7
        43.000

  20469872.505    20469871.884   107569928.698 8        50.250
  20469870.502    83820720.57947        44.000


  21647477.983                   115393262.111 6        40.000    21647484.270
  21647484.230    89750336.160 6        37.000


  23872413.311    23872413.298   125450396.658 6        38.750    23872411.978
  23872412.640    97753544.987 5        35.750


  22753640.023    22753639.348   119571211.226 7        43.500
  22753639.768    93172386.00244        29.000


  23588150.706    23588149.857   123956584.967 6        39.750
  23588149.025    96589546.31643        21.000


  24489830.335    24489830.036   128694936.286 6        37.000    24489832.799
  24489832.692   100281794.380 5        32.250    24489833.523    96103371.959 6
        41.750

  19512145.736                   104267002.999 8        50.000    19512150.534
  19512149.917    81096584.550 8        48.250


  23515652.910                   125484027.730 6        40.750    23515658.907
  23515658.567    97598710.554 6        38.750


  20161426.030                   107887902.743 8        49.000    20161428.641
  20161427.465    83912817.675 5        32.500


  24478263.117    24478263.059   128634230.553 6        37.750    24478262.415
  24478262.513   100234513.95642        16.750


  22371235.058                   119629199.522 6        39.000    22371237.652
  22371236.391    93044858.882 5        31.000


  22842596.300                   122106760.526 7        42.000    22842600.919
  22842602.198    94971953.828 5        34.500


  20978434.274                   111984390.770 8        49.000    20978436.935
  20978437.704    87098992.158 7        45.500


  20542230.229    20542230.145   107950172.669 8        50.250
  20542228.999    84117030.42747        43.000


 16  2 18  0  0 10.0000000  0 18G26G21G27G10G16R14G31G18G20G08R15R02
                                R17G29R24R01R18G04
  20237630.441    20237630.209   106349497.312 8        51.750    20237632.028
  20237632.234    82869755.485 8        49.000    20237631.782    79416858.133 9
        55.000

  21519508.795    21519508.040   113085904.974 8        48.000
  21519506.684    88118916.89346        40.000


  21849968.071    21849967.700   114822388.263 7        47.000    21849968.974
  21849968.929    89471996.350 7        45.000    21849969.837    85744000.166 8
        51.000

  23865415.500    23865415.398   125413650.914 6        41.000    23865415.142
  23865415.361    97724904.088 6        37.750    23865414.498    93653030.762 7
        43.000

  20469639.073    20469638.447   107568701.819 8        50.250
  20469637.025    83819764.56847        44.000


  21648273.458                   115397501.924 6        40.250    21648279.034
  21648279.606    89753633.781 6        37.000


  23873075.343    23873075.330   125453873.706 6        38.500    23873074.136
  23873074.310    97756254.377 6        36.000


  22753321.715    22753321.040   119569537.889 7        43.500
  22753321.317    93171082.10844        28.750


  23588388.194    23588387.345   123957832.698 6        40.000
  23588386.494    96590518.57743        21.000


  24489309.525    24489309.226   128692199.392 6        36.750    24489311.721
  24489311.904   100279661.737 5        32.250    24489312.740    96101328.168 7
        42.000

  19512434.679                   104268547.020 8        50.000    19512439.432
  19512438.833    81097785.449 8        48.500


  23514996.592                   125480523.228 6        41.000    23515002.101
  23515001.945    97595984.842 6        38.500


  20161802.889                   107889919.417 8        49.000    20161804.767
  20161804.508    83914386.195 5        33.750


  24478802.019    24478801.957   128637061.903 6        37.500    24478800.449
  24478801.267   100236720.19842        16.750


  22371824.781                   119632351.138 6        39.000    22371826.426
  22371825.796    93047310.117 5        32.250


  22842387.118                   122105644.318 7        42.000    22842391.513
  22842393.096    94971085.674 5        33.500


  20978046.656                   111982322.382 8        49.250    20978049.670
  20978050.229    87097383.408 7        45.250


  20542504.939    20542504.859   107951616.369 8        50.000
  20542503.723    84118155.38847        42.750


 16  2 18  0  0 11.0000000  0 18G26G21G27G10G16R14G31G18G20G08R15R02
                                R17G29R24R01R18G04
  20237742.499    20237742.267   106350086.285 8        51.750    20237744.060
  20237744.306    82870214.428 8        49.000    20237743.850    79417297.951 9
        55.000

  21519792.175    21519791.415   113087393.508 8        48.000
  21519789.944    88120076.78946        40.000


  21849582.371    21849582.000   114820361.118 7        47.000    21849583.305
  21849583.176    89470416.758 7        45.000    21849584.048    85742486.379 8
        51.000

  23864796.502    23864796.400   125410396.022 6        41.000    23864795.791
  23864795.970    97722367.809 6        37.500    23864795.098    93650600.171 7
        43.000

  20469405.627    20469405.006   107567475.383 8        50.250
  20469403.637    83818808.90547        44.000


  21649069.255                   115401742.103 6        40.250    21649074.133
  21649074.996    89756931.700 6        36.750


  23873737.094    23873737.077   125457350.802 6        38.500    23873735.332
  23873735.949    97758963.813 5        35.500


  22753003.469    22753002.799   119567864.926 7        43.750
  22753002.973    93169778.50044        29.000


  23588625.588    23588624.739   123959081.027 6        40.000
  23588624.067    96591491.29943        21.000


  24488788.778    24488788.483   128689462.568 6        36.750    24488790.544
  24488791.121   100277529.126 5        32.250    24488791.939    96099284.441 6
        41.750

  19512723.800                   104270091.910 8        50.000    19512728.706
  19512727.932    81098987.031 8        48.500


  23514340.046                   125477018.896 6        40.750    23514344.961
  23514345.193    97593259.235 6        38.500


  20162179.820                   107891936.359 8        49.000    20162181.148
  20162181.220    83915954.910 5        32.250


  24479340.880    24479340.804   128639893.230 6        37.500    24479338.855
  24479340.013   100238926.43242        16.750


  22372413.613                   119635502.754 6        39.000    22372415.969
  22372414.847    93049761.346 5        31.250


  22842178.025                   122104528.836 6        41.750    22842183.950
  22842184.544    94970218.087 5        34.250


  20977659.212                   111980254.346 8        49.250    20977662.244
  20977662.767    87095774.940 7        45.500


  20542779.724    20542779.640   107953060.565 8        50.000
  20542778.544    84119280.73647        42.750


 16  2 18  0  0 12.0000000  0 18G26G21G27G10G16R14G31G18G20G08R15R02
                                R17G29R24R01R18G04
  20237854.755    20237854.519   106350675.798 8        51.750    20237856.284
  20237856.486    82870673.788 8        49.000    20237856.025    79417738.166 9
        55.000

  21520075.484    21520074.729   113088882.434 8        48.000
  21520073.279    88121236.99146        40.000


  21849196.680    21849196.309   114818334.170 7        47.000    21849197.538
  21849197.453    89468837.319 7        45.000    21849198.343    85740972.755 8
        51.000

  23864176.977    23864176.870   125407141.227 6        41.000    23864176.279
  23864176.619    97719831.596 6        37.500    23864175.658    93648169.627 7
        43.000

  20469172.320    20469171.699   107566249.394 8        50.250
  20469170.339    83817853.58647        44.000


  21649865.132                   115405982.645 6        40.500    21649869.322
  21649870.417    89760229.903 6        37.000


  23874398.867    23874398.841   125460827.970 6        38.500    23874397.146
  23874397.678    97761673.284 5        35.750


  22752685.179    22752684.509   119566192.362 7        43.750
  22752684.723    93168475.20244        29.000


  23588863.250    23588862.401   123960329.935 6        40.000
  23588861.752    96592464.46743        21.000


  24488267.892    24488267.606   128686725.830 6        36.750    24488269.743
  24488270.289   100275396.649 5        32.500    24488271.183    96097240.769 6
        41.750

  19513013.101                   104271637.680 8        50.000    19513018.127
  19513017.219    81100189.296 8        48.250


  23513683.567                   125473514.712 6        40.750    23513688.839
  23513688.477    97590533.750 6        39.000


  20162556.657                   107893953.572 8        48.750    20162558.938
  20162558.267    83917523.863 5        33.750


  24479879.608    24479879.528   128642724.582 6        37.500    24479877.430
  24479878.772   100241132.68642        16.750


  22373002.879                   119638654.396 6        39.250    22373004.851
  22373003.974    93052212.634 5        32.000


  22841969.893                   122103414.114 6        41.750    22841974.843
  22841976.073    94969351.081 5        34.000


  20977271.876                   111978186.677 8        49.250    20977274.921
  20977275.350    87094166.753 7        45.250


  20543054.586    20543054.506   107954505.271 8        50.000
  20543053.464    84120406.48047        42.750


 16  2 18  0  0 13.0000000  0 18G26G21G27G10G16R14G31G18G20G08R15R02
                                R17G29R24R01R18G04
  20237967.002    20237966.766   106351265.842 8        51.750    20237968.611
  20237968.764    82871133.566 8        49.000    20237968.298    79418178.791 9
        55.000

  21520358.895    21520358.140   113090371.724 8        48.000
  21520356.691    88122397.47746        40.000


  21848811.020    21848810.645   114816307.434 7        47.000    21848811.883
  21848811.776    89467258.042 7        45.000    21848812.657    85739459.281 8
        51.000

  23863557.536    23863557.429   125403886.482 6        41.250    23863557.089
  23863557.264    97717295.443 6        37.750    23863556.253    93645739.142 7
        43.000

  20468939.143    20468938.522   107565023.849 8        50.250
  20468937.126    83816898.61747        44.000


  21650660.321                   115410223.507 6        40.500    21650665.772
  21650666.178    89763528.336 6        37.250


  23875060.699    23875060.659   125464305.194 6        38.500    23875059.103
  23875059.411    97764382.794 5        35.750


  22752367.059    22752366.389   119564520.172 7        43.750
  22752366.540    93167172.19744        29.000


  23589101.274    23589100.429   123961579.434 6        40.000
  23589099.544    96593438.10543        21.000


  24487746.818    24487746.550   128683989.147 6        36.750    24487749.260
  24487749.497   100273264.164 5        32.500    24487750.476    96095197.131 6
        41.750

  19513302.496                   104273184.303 8        50.000    19513307.195
  19513306.676    81101392.228 8        48.500


  23513026.798                   125470010.698 6        40.500    23513032.311
  23513031.958    97587808.410 6        38.500


  20162933.597                   107895971.050 8        48.750    20162936.669
  20162935.189    83919093.003 5        33.000


  24480418.054    24480417.965   128645555.913 6        37.250    24480417.102
  24480417.513   100243338.90942        16.250


  22373592.261                   119641806.031 6        39.250    22373595.574
  22373593.504    93054663.902 5        32.250


  22841761.784                   122102300.140 7        42.000    22841766.439
  22841767.776    94968484.657 5        34.000


  20976884.740                   111976119.383 8        49.250    20976887.808
  20976888.018    87092558.858 7        45.250


  20543329.631    20543329.551   107955950.465 8        50.000
  20543328.482    84121532.60547        42.750


 16  2 18  0  0 14.0000000  0 18G26G21G27G10G16R14G31G18G20G08R15R02
                                R17G29R24R01R18G04
  20238079.302    20238079.070   106351856.414 8        51.750    20238080.881
  20238081.144    82871593.753 8        49.000    20238080.688    79418619.803 9
        55.000

  21520642.275    21520641.520   113091861.391 8        48.000
  21520640.165    88123558.25646        40.000


  21848425.383    21848425.008   114814280.892 7        47.000    21848426.358
  21848426.139    89465678.918 7        45.000    21848427.042    85737945.958 8
        51.000

  23862938.360    23862938.253   125400631.801 6        41.250    23862937.470
  23862937.926    97714759.340 6        37.750    23862936.786    93643308.712 7
        43.000

  20468706.042    20468705.421   107563798.743 8        50.250
  20468703.998    83815943.98947        43.750


  21651456.055                   115414464.723 6        40.500    21651461.515
  21651462.096    89766827.083 6        37.000


  23875722.642    23875722.607   125467782.448 6        38.500    23875720.567
  23875721.158    97767092.356 6        36.250


  22752049.033    22752048.363   119562848.385 7        44.000
  22752048.416    93165869.50744        29.000


  23589338.995    23589338.155   123962829.519 6        40.000
  23589337.452    96594412.19343        21.000


  24487226.116    24487225.866   128681252.531 6        36.750    24487228.544
  24487228.700   100271131.743 5        32.250    24487229.711    96093153.562 6
        41.750

  19513592.172                   104274731.800 8        50.000    19513596.853
  19513596.259    81102595.835 8        48.500


  23512369.925                   125466506.864 6        40.500    23512375.180
  23512375.332    97585083.202 6        39.000


  20163310.546                   107897988.792 8        48.750    20163314.190
  20163312.558    83920662.371 5        34.000


  24480957.131    24480957.051   128648387.252 6        37.250    24480955.472
  24480956.263   100245545.14342        16.750


  22374181.786                   119644957.698 6        39.000    22374184.760
  22374182.909    93057115.250 5        32.000


  22841553.446                   122101186.910 6        41.750    22841558.477
  22841559.577    94967618.803 5        34.000


  20976497.663                   111974052.475 8        49.250    20976500.557
  20976500.847    87090951.269 7        45.250


  20543604.761    20543604.677   107957396.165 8        50.000
  20543603.594    84122659.12347        42.750


 16  2 18  0  0 15.0000000  0 18G26G21G27G10G16R14G31G18G20G08R15R02
                                R17G29R24R01R18G04
  20238191.790    20238191.558   106352447.528 8        51.500    20238193.445
  20238193.628    82872054.360 8        49.000    20238193.158    79419061.220 9
        55.000

  21520925.812    21520925.057   113093351.441 8        48.000
  21520923.715    88124719.33446        39.750


  21848039.728    21848039.353   114812254.550 7        46.750    21848040.850
  21848040.533    89464099.957 7        45.000    21848041.450    85736432.784 8
        51.000

  23862318.843    23862318.732   125397377.227 6        41.250    23862318.477
  23862318.553    97712223.293 6        37.750    23862317.421    93640878.343 7
        43.000

  20468473.034    20468472.413   107562574.083 8        50.250
  20468470.946    83814989.70947        43.750


  21652252.048                   115418706.312 6        40.500    21652257.812
  21652257.700    89770126.081 6        36.750


  23876384.170    23876384.130   125471259.762 6        38.500    23876382.519
  23876382.877    97769801.935 6        36.000


  22751731.006    22751730.336   119561176.985 7        44.000
  22751730.371    93164567.11644        29.000


  23589576.992    23589576.147   123964080.198 6        40.000
  23589575.454    96595386.73843        21.000


  24486705.275    24486705.043   128678515.972 6        36.750    24486707.873
  24486707.949   100268999.338 5        32.000    24486708.973    96091110.037 7
        42.000

  19513882.188                   104276280.176 8        50.000    19513886.583
  19513886.038    81103800.127 8        48.250


  23511713.424                   125463003.237 6        40.500    23511718.607
  23511718.727    97582358.170 6        39.250


  20163687.598                   107900006.834 8        48.750    20163691.063
  20163689.900    83922231.965 5        33.500


  24481495.872    24481495.792   128651218.615 6        37.000    24481494.329
  24481495.044   100247751.42142        16.750


  22374771.320                   119648109.375 6        39.000    22374774.249
  22374772.251    93059566.561 5        32.250


  22841345.328                   122100074.452 7        42.000    22841350.600
  22841351.508    94966753.574 5        33.500


  20976110.497                   111971985.953 8        49.250    20976113.506
  20976113.685    87089343.963 7        45.250


  20543879.949    20543879.869   107958842.372 8        50.000
  20543878.800    84123786.03547        42.750


 16  2 18  0  0 16.0000000  0 18G26G21G27G10G16R14G31G18G20G08R15R02
                                R17G29R24R01R18G04
  20238304.363    20238304.127   106353039.179 8        51.750    20238306.031
  20238306.215    82872515.387 8        49.000    20238305.736    79419503.034 9
        55.000

  21521209.429    21521208.674   113094841.853 8        48.000
  21521207.332    88125880.69346        39.750


  21847654.180    21847653.805   114810228.426 7        46.750    21847655.173
  21847654.967    89462521.167 7        45.000    21847655.866    85734919.771 8
        51.000

  23861699.291    23861699.180   125394122.690 6        41.000    23861699.269
  23861699.184    97709687.285 6        38.000    23861698.044    93638448.016 7
        43.000

  20468240.027    20468239.406   107561349.866 8        50.250
  20468237.984    83814035.77347        43.750


  21653047.774                   115422948.244 6        40.500    21653053.224
  21653053.385    89773425.361 6        37.500


  23877045.831    23877045.787   125474737.139 6        38.250    23877044.297
  23877044.633    97772511.593 6        36.000


  22751413.159    22751412.489   119559505.968 7        43.750
  22751412.372    93163265.02544        29.000


  23589815.106    23589814.261   123965331.472 6        40.000
  23589813.510    96596361.75643        21.250


  24486184.814    24486184.595   128675779.500 6        36.500    24486187.899
  24486187.215   100266867.002 5        32.250    24486188.248    96089066.561 6
        41.750

  19514172.155                   104277829.411 8        50.000    19514176.318
  19514175.929    81105005.091 8        48.250


  23511056.382                   125459499.817 6        40.250    23511062.468
  23511062.034    97579633.273 6        38.500


  20164064.752                   107902025.138 8        48.500    20164067.592
  20164066.957    83923801.736 5        33.250


  24482034.881    24482034.805   128654049.947 6        37.250    24482033.951
  24482033.812   100249957.63842        16.750


  22375360.801                   119651261.092 6        39.000    22375362.661
  22375361.780    93062017.874 5        32.500


  22841137.116                   122098962.726 7        42.250    22841142.844
  22841143.586    94965888.884 5        34.500


  20975723.335                   111969919.774 8        49.250    20975726.546
  20975726.635    87087736.943 7        45.500


  20544155.240    20544155.156   107960289.081 8        50.000
  20544154.096    84124913.34047        42.750


 16  2 18  0  0 17.0000000  0 18G26G21G27G10G16R14G31G18G20G08R15R02
                                R17G29R24R01R18G04
  20238417.088    20238416.856   106353631.365 8        51.500    20238418.658
  20238418.908    82872976.831 8        49.000    20238418.425    79419945.247 9
        55.000

  21521493.095    21521492.340   113096332.647 8        48.000
  21521491.021    88127042.35146        40.000


  21847268.548    21847268.173   114808202.517 7        46.750    21847269.692
  21847269.442    89460942.529 7        45.250    21847270.363    85733406.914 8
        51.000

  23861079.828    23861079.708   125390868.250 6        41.250    23861079.757
  23861079.855    97707151.346 6        37.750    23861078.648    93636017.749 7
        43.000

  20468007.190    20468006.569   107560126.092 8        50.250
  20468005.106    83813082.18347        43.750


  21653843.427                   115427190.528 6        40.500    21653848.798
  21653849.129    89776724.909 6        37.500


  23877707.502    23877707.449   125478214.551 6        38.250    23877705.901
  23877706.379    97775221.255 6        36.250


  22751095.276    22751094.606   119557835.329 7        43.750
  22751094.471    93161963.22944        29.250


  23590053.261    23590052.412   123966583.335 6        40.000
  23590051.686    96597337.24643        21.250


  24485664.200    24485663.990   128673043.084 6        36.750    24485667.478
  24485666.485   100264734.748 5        32.250    24485667.527    96087023.130 6
        41.750

  19514462.233                   104279379.511 8        50.000    19514466.557
  19514466.034    81106210.720 8        48.250


  23510399.626                   125455996.557 6        40.250    23510405.510
  23510405.475    97576908.524 6        39.000


  20164441.813                   107904043.716 8        48.500    20164443.485
  20164444.357    83925371.755 5        33.250


  24482573.622    24482573.546   128656881.319 6        37.000    24482573.873
  24482572.594   100252163.89442        16.500


  22375949.808                   119654412.819 6        39.000    22375951.328
  22375951.180    93064469.210 5        31.250


  22840929.659                   122097851.763 7        42.250    22840935.236
  22840935.701    94965024.802 5        34.000


  20975336.437                   111967853.944 8        49.250    20975339.714
  20975339.625    87086130.188 7        45.500


  20544430.634    20544430.554   107961736.295 8        50.000
  20544429.498    84126041.04047        42.750


 16  2 18  0  0 18.0000000  0 18G26G21G27G10G16R14G31G18G20G08R15R02
                                R17G29R24R01R18G04
  20238529.966    20238529.730   106354224.083 8        51.500    20238531.329
  20238531.696    82873438.686 8        49.000    20238531.240    79420387.861 9
        55.000

  21521776.905    21521776.150   113097823.820 8        48.000
  21521774.790    88128204.30646        40.000


  21846882.995    21846882.620   114806176.811 7        46.750    21846884.301
  21846883.961    89459364.060 7        45.250    21846884.860    85731894.211 8
        51.000

  23860460.415    23860460.295   125387613.866 6        41.000    23860460.330
  23860460.567    97704615.468 6        37.750    23860459.315    93633587.521 7
        42.750

  20467774.366    20467773.745   107558902.759 8        50.000
  20467772.318    83812128.93747        43.750


  21654639.349                   115431433.148 6        40.500    21654644.630
  21654645.077    89780024.742 6        37.250


  23878369.463    23878369.410   125481692.023 6        38.000    23878367.549
  23878368.094    97777930.962 6        36.000


  22750777.258    22750776.583   119556165.087 7        43.750
  22750776.624    93160661.74044        29.000


  23590291.482    23590290.633   123967835.779 6        40.000
  23590290.024    96598313.18143        21.000


  24485143.748    24485143.525   128670306.744 6        36.500    24485146.181
  24485145.810   100262602.555 5        32.000    24485146.856    96084979.760 6
        41.750

  19514752.468                   104280930.470 8        50.000    19514756.980
  19514756.242    81107417.012 8        48.500


  23509742.928                   125452493.423 6        40.250    23509749.085
  23509749.259    97574183.849 6        39.000


  20164819.128                   107906062.568 8        48.750    20164821.288
  20164821.552    83926941.975 5        32.750


  24483112.292    24483112.216   128659712.664 6        37.000    24483112.864
  24483111.353   100254370.13642        15.750


  22376539.445                   119657564.563 6        39.000    22376542.123
  22376540.451    93066920.533 5        31.500


  22840722.136                   122096741.550 7        42.250    22840727.757
  22840727.837    94964161.299 5        33.750


  20974949.610                   111965788.468 8        49.500    20974953.031
  20974952.749    87084523.703 7        45.250


  20544706.176    20544706.096   107963184.010 8        50.000
  20544704.999    84127169.12947        42.750


 16  2 18  0  0 19.0000000  0 18G26G21G27G10G16R14G31G18G20G08R15R02
                                R17G29R24R01R18G04
  20238642.905    20238642.669   106354817.326 8        51.500    20238644.211
  20238644.587    82873900.959 8        49.000    20238644.122    79420830.871 9
        55.000

  21522060.763    21522060.003   113099315.367 8        48.000
  21522058.626    88129366.55046        40.000


  21846497.483    21846497.108   114804151.306 7        46.750    21846498.802
  21846498.521    89457785.751 7        45.000    21846499.428    85730381.665 8
        51.000

  23859841.090    23859840.965   125384359.553 6        41.000    23859840.853
  23859841.292    97702079.657 6        37.500    23859840.035    93631157.374 7
        42.750

  20467541.645    20467541.024   107557679.863 8        50.000
  20467539.610    83811176.03247        44.000


  21655435.021                   115435676.109 6        40.500    21655440.364
  21655440.843    89783324.840 6        37.250


  23879030.901    23879030.839   125485169.557 6        38.000    23879029.398
  23879029.845    97780640.715 6        36.250


  22750459.411    22750458.741   119554495.217 7        43.750
  22750458.870    93159360.54444        29.250


  23590529.859    23590529.010   123969088.817 6        39.750
  23590528.478    96599289.57243        20.750


  24484622.773    24484622.550   128667570.451 6        36.500    24484624.964
  24484625.121   100260470.367 5        32.250    24484626.136    96082936.434 6
        41.750

  19515042.860                   104282482.278 8        50.000    19515047.434
  19515046.652    81108623.978 8        48.250


  23509086.932                   125448990.412 6        40.750    23509092.539
  23509093.018    97571459.298 6        38.750


  20165196.591                   107908081.678 8        48.750    20165199.158
  20165198.420    83928512.381 5        33.500


  24483651.109    24483651.038   128662544.007 6        37.250    24483652.034
  24483650.138   100256576.37342        15.750


  22377128.746                   119660716.311 6        38.750    22377132.391
  22377130.034    93069371.908 5        31.750


  22840514.366                   122095632.104 7        42.250    22840520.054
  22840520.206    94963298.395 5        33.500


  20974562.806                   111963723.349 8        49.500    20974566.316
  20974565.851    87082917.504 7        45.250


  20544981.739    20544981.659   107964632.212 8        50.000
  20544980.581    84128297.59847        42.750


 16  2 18  0  0 20.0000000  0 18G26G21G27G10G16R14G31G18G20G08R15R02
                                R17G29R24R01R18G04
  20238755.854    20238755.622   106355411.108 8        51.500    20238757.227
  20238757.580    82874363.641 8        49.000    20238757.115    79421274.277 9
        55.000

  21522344.600    21522343.840   113100807.306 8        48.000
  21522342.529    88130529.09846        40.000


  21846112.114    21846111.739   114802126.014 7        46.750    21846113.384
  21846113.125    89456207.607 7        45.000    21846114.019    85728869.272 8
        51.000

  23859221.713    23859221.584   125381105.332 6        41.000    23859222.182
  23859222.012    97699543.879 6        37.500    23859220.657    93628727.255 7
        42.750

  20467308.928    20467308.307   107556457.419 8        50.000
  20467306.983    83810223.47747        44.000


  21656231.005                   115439919.445 6        40.250    21656236.582
  21656236.971    89786625.185 6        37.500


  23879692.455    23879692.388   125488647.135 6        38.000    23879691.672
  23879691.601    97783350.534 6        36.250


  22750141.671    22750140.992   119552825.738 7        43.750
  22750141.179    93158059.65444        29.250


  23590768.376    23590767.522   123970342.437 6        39.750
  23590767.066    96600266.41643        20.750


  24484101.851    24484101.628   128664834.234 6        36.500    24484104.253
  24484104.409   100258338.253 5        32.250    24484105.460    96080893.159 6
        41.500

  19515333.346                   104284034.952 8        50.000    19515337.893
  19515337.182    81109831.611 8        48.500


  23508430.869                   125445487.579 6        41.250    23508436.203
  23508436.610    97568734.875 6        39.500


  20165573.880                   107910101.069 8        48.750    20165577.989
  20165575.780    83930083.031 5        33.000


  24484189.872    24484189.805   128665375.384 6        37.500    24484190.449
  24484188.956   100258782.64442        15.500


  22377718.513                   119663868.085 6        38.750    22377720.440
  22377719.372    93071823.259 5        31.750


  22840307.058                   122094523.420 7        42.250    22840312.866
  22840312.786    94962436.100 5        34.250


  20974176.060                   111961658.606 8        49.750    20974179.677
  20974179.060    87081311.588 7        45.500


  20545257.455    20545257.371   107966080.925 8        50.000
  20545256.270    84129426.46647        42.750


 16  2 18  0  0 21.0000000  0 18G26G21G27G10G16R14G31G18G20G08R15R02
                                R17G29R24R01R18G04
  20238868.888    20238868.656   106356005.429 8        51.500    20238870.363
  20238870.672    82874826.752 8        49.000    20238870.229    79421718.095 9
        55.000

  21522628.655    21522627.900   113102299.614 8        48.000
  21522626.500    88131691.93546        40.000


  21845726.692    21845726.317   114800100.925 7        46.750    21845728.015
  21845727.765    89454629.616 7        45.000    21845728.664    85727357.029 8
        51.000

  23858602.102    23858601.964   125377851.156 6        40.750    23858603.006
  23858602.679    97697008.173 6        37.750    23858601.449    93626297.197 7
        42.750

  20467076.292    20467075.671   107555235.411 8        50.000
  20467074.441    83809271.26347        44.000


  21657026.766                   115444163.104 6        40.500    21657032.951
  21657033.201    89789925.801 6        37.250


  23880354.380    23880354.309   125492124.760 6        38.000    23880353.307
  23880353.378    97786060.360 6        36.250


  22749824.087    22749823.412   119551156.654 7        44.000
  22749823.600    93156759.07044        29.250


  23591006.861    23591005.998   123971596.663 6        40.000
  23591005.707    96601243.73043        20.750


  24483580.778    24483580.555   128662098.088 6        36.500    24483583.246
  24483583.706   100256206.189 5        32.250    24483584.838    96078849.931 6
        41.750

  19515623.996                   104285588.486 8        50.000    19515628.750
  19515627.927    81111039.916 8        48.500


  23507775.029                   125441984.964 6        41.250    23507779.505
  23507780.167    97566010.607 6        39.500


  20165951.406                   107912120.722 8        48.750    20165955.676
  20165952.738    83931653.867 5        32.750


  24484728.403    24484728.341   128668206.722 6        37.750    24484729.275
  24484727.750   100260988.87542        16.000


  22378307.529                   119667019.883 6        38.750    22378309.791
  22378308.919    93074274.667 5        31.750


  22840099.784                   122093415.489 7        42.250    22840105.414
  22840105.714    94961574.396 5        34.000


  20973789.363                   111959594.232 8        49.500    20973792.542
  20973792.345    87079705.974 7        45.250


  20545533.233    20545533.153   107967530.134 8        50.000
  20545532.053    84130555.71847        42.750


 16  2 18  0  0 22.0000000  0 18G26G21G27G10G16R14G31G18G20G08R15R02
                                R17G29R24R01R18G04
  20238982.060    20238981.828   106356600.285 8        51.500    20238983.656
  20238983.871    82875290.278 8        49.000    20238983.424    79422162.303 9
        54.750

  21522912.679    21522911.924   113103792.302 8        48.000
  21522910.551    88132855.07046        40.000


  21845341.296    21845340.921   114798076.047 7        47.000    21845342.673
  21845342.441    89453051.784 7        45.000    21845343.366    85725844.945 8
        51.000

  23857983.069    23857982.931   125374597.075 6        40.500    23857983.350
  23857983.449    97694472.533 6        37.750    23857982.304    93623867.205 7
        43.000

  20466843.799    20466843.178   107554013.848 8        50.000
  20466841.988    83808319.39747        44.000


  21657822.778                   115448407.103 6        40.250    21657829.177
  21657829.141    89793226.720 6        37.250


  23881015.755    23881015.679   125495602.439 6        37.750    23881015.299
  23881015.161    97788770.229 6        36.500


  22749506.741    22749506.066   119549487.965 7        44.000
  22749506.070    93155458.79544        29.250


  23591245.431    23591244.573   123972851.466 6        39.750
  23591244.398    96602221.49643        20.750


  24483060.178    24483059.973   128659361.996 6        36.500    24483062.709
  24483063.035   100254074.186 5        32.000    24483064.108    96076806.746 6
        41.750

  19515914.804                   104287142.885 8        50.000    19515919.531
  19515918.766    81112248.896 8        48.500


  23507118.559                   125438482.555 6        41.500    23507123.304
  23507123.903    97563286.517 6        39.250


  20166328.891                   107914140.639 8        48.750    20166332.142
  20166330.483    83933224.928 5        32.500


  24485267.430    24485267.377   128671038.100 6        37.750    24485268.061
  24485266.536   100263195.14542        16.000


  22378897.251                   119670171.700 6        38.500    22378898.986
  22378898.494    93076726.132 5        32.000


  22839892.815                   122092308.311 7        42.250    22839898.096
  22839898.463    94960713.250 5        33.500


  20973402.697                   111957530.242 8        49.500    20973405.876
  20973405.742    87078100.642 7        45.000


  20545809.150    20545809.070   107968979.849 8        50.000
  20545807.925    84131685.36747        42.750


 16  2 18  0  0 23.0000000  0 18G26G21G27G10G16R14G31G18G20G08R15R02
                                R17G29R24R01R18G04
  20239095.322    20239095.086   106357195.676 8        51.500    20239096.945
  20239097.173    82875754.218 8        48.750    20239096.712    79422606.911 9
        55.000

  21523196.811    21523196.056   113105285.361 8        48.000
  21523194.673    88134018.49346        40.000


  21844955.959    21844955.584   114796051.363 7        46.750    21844957.282
  21844957.143    89451474.110 7        44.750    21844958.078    85724333.010 8
        51.000

  23857363.512    23857363.369   125371343.047 6        40.250    23857363.780
  23857364.254    97691936.916 6        37.750    23857363.168    93621437.262 7
        43.000

  20466611.431    20466610.810   107552792.728 8        50.000
  20466609.620    83807367.87347        43.750


  21658618.879                   115452651.467 6        40.000    21658625.483
  21658625.626    89796527.874 6        37.500


  23881677.502    23881677.426   125499080.180 6        38.000    23881677.426
  23881676.934    97791480.154 6        36.500


  22749189.403    22749188.728   119547819.663 7        44.000
  22749188.598    93154158.81844        29.000


  23591484.520    23591483.662   123974106.863 6        40.000
  23591483.259    96603199.72643        21.000


  24482539.516    24482539.311   128656625.985 6        36.750    24482542.637
  24482542.400   100251942.215 5        32.500    24482543.357    96074763.618 6
        41.750

  19516205.723                   104288698.155 8        50.000    19516210.495
  19516209.833    81113458.544 8        48.500


  23506462.219                   125434980.342 6        41.500    23506466.936
  23506467.513    97560562.570 6        39.500


  20166706.399                   107916160.829 8        49.000    20166709.775
  20166708.290    83934796.178 5        33.750


  24485806.444    24485806.391   128673869.449 6        37.750    24485806.677
  24485805.326   100265401.38642        16.250


  22379486.418                   119673323.561 6        38.500    22379486.964
  22379488.024    93079177.560 5        31.750


  22839686.039                   122091201.899 7        42.250    22839691.995
  22839691.270    94959852.710 5        33.750


  20973016.054                   111955466.624 8        49.500    20973018.951
  20973019.161    87076495.614 7        45.250


  20546085.099    20546085.019   107970430.062 8        50.000
  20546083.887    84132815.40147        42.750


 16  2 18  0  0 24.0000000  0 18G26G21G27G10G16R14G31G18G20G08R15R02
                                R17G29R24R01R18G04
  20239208.624    20239208.392   106357791.610 8        51.500    20239210.318
  20239210.578    82876218.574 8        49.000    20239210.108    79423051.923 9
        55.000

  21523481.045    21523480.285   113106778.799 8        48.000
  21523478.867    88135182.20846        40.000


  21844570.661    21844570.286   114794026.911 7        46.750    21844572.007
  21844571.913    89449896.610 7        44.750    21844572.857    85722821.244 8
        51.000

  23856744.232    23856744.089   125368089.104 6        40.250    23856744.867
  23856745.073    97689401.385 6        37.750    23856743.960    93619007.368 7
        43.000

  20466379.170    20466378.549   107551572.059 8        50.000
  20466377.333    83806416.70347        43.750


  21659415.275                   115456896.182 6        40.000    21659421.745
  21659422.107    89799829.328 6        37.750


  23882339.615    23882339.539   125502557.984 6        37.750    23882339.163
  23882338.725    97794190.134 6        36.750


  22748871.954    22748871.279   119546151.744 7        43.750
  22748871.207    93152859.14144        29.000


  23591723.725    23591722.871   123975362.861 6        40.000
  23591722.258    96604178.42343        20.750


  24482018.934    24482018.729   128653890.022 6        36.500    24482021.974
  24482021.755   100249810.286 5        32.500    24482022.699    96072720.537 6
        41.500

  19516496.799                   104290254.295 8        50.000    19516501.910
  19516501.119    81114668.872 8        48.250


  23505806.348                   125431478.289 6        41.500    23505810.073
  23505811.307    97557838.757 6        39.250


  20167084.072                   107918181.274 8        49.000    20167086.563
  20167085.932    83936367.651 5        33.500


  24486345.588    24486345.530   128676700.807 6        38.000    24486344.769
  24486344.108   100267607.63942        16.000


  22380075.027                   119676475.458 6        38.250    22380075.707
  22380077.379    93081629.032 5        31.750


  22839478.944                   122090096.252 7        42.250    22839483.984
  22839484.579    94958992.731 5        33.750


  20972629.468                   111953403.368 8        49.500    20972632.192
  20972632.666    87074890.857 7        45.500


  20546361.163    20546361.083   107971880.783 8        50.000
  20546359.947    84133945.83247        42.750


 16  2 18  0  0 25.0000000  0 18G26G21G27G10G16R14G31G18G20G08R15R02
                                R17G29R24R01R18G04
  20239322.127    20239321.891   106358388.066 8        51.500    20239323.884
  20239324.081    82876683.350 8        48.750    20239323.594    79423497.331 9
        55.000

  21523765.266    21523764.511   113108272.602 8        48.000
  21523763.128    88136346.21246        40.000


  21844185.502    21844185.131   114792002.643 7        46.750    21844186.759
  21844186.705    89448319.260 7        44.750    21844187.658    85721309.614 8
        51.000

  23856125.016    23856124.873   125364835.227 6        40.250    23856125.767
  23856125.946    97686865.897 6        38.000    23856124.779    93616577.531 7
        43.000

  20466147.026    20466146.405   107550351.823 8        50.000
  20466145.130    83805465.86747        43.750


  21660211.617                   115461141.261 6        39.750    21660219.111
  21660218.414    89803131.054 6        37.250


  23883001.415    23883001.339   125506035.811 6        37.750    23883000.941
  23883000.601    97796900.129 6        37.000


  22748554.486    22748553.811   119544484.206 7        43.750
  22748553.883    93151559.75944        29.000


  23591962.684    23591961.826   123976619.435 6        39.750
  23591961.378    96605157.57243        20.750


  24481498.790    24481498.589   128651154.133 6        36.500    24481500.941
  24481501.115   100247678.446 5        32.250    24481502.108    96070677.504 6
        41.750

  19516788.295                   104291811.290 8        50.000    19516793.245
  19516792.463    81115879.874 8        48.500


  23505149.927                   125427976.337 6        41.500    23505154.126
  23505154.944    97555115.039 6        39.500


  20167461.643                   107920201.968 8        49.000    20167463.807
  20167463.905    83937939.312 5        32.750


  24486884.691    24486884.633   128679532.166 6        38.000    24486883.645
  24486882.885   100269813.90042        16.250


  22380664.159                   119679627.361 6        38.250    22380665.688
  22380666.547    93084080.507 5        31.500


  22839272.315                   122088991.335 7        42.500    22839277.167
  22839277.954    94958133.372 5        34.250


  20972243.084                   111951340.448 8        49.500    20972245.821
  20972246.201    87073286.365 7        45.250


  20546637.299    20546637.215   107973331.986 8        50.000
  20546636.105    84135076.64247        42.750


 16  2 18  0  0 26.0000000  0 18G26G21G27G10G16R14G31G18G20G08R15R02
                                R17G29R24R01R18G04
  20239435.706    20239435.474   106358985.058 8        51.500    20239437.517
  20239437.687    82877148.536 8        49.000    20239437.213    79423943.137 9
        55.000

  21524049.594    21524048.834   113109766.781 8        48.000
  21524047.461    88137510.50646        39.750


  21843800.482    21843800.111   114789978.584 7        46.750    21843801.632
  21843801.533    89446742.069 7        45.000    21843802.495    85719798.146 8
        51.000

  23855505.924    23855505.781   125361581.422 6        40.250    23855506.774
  23855506.787    97684330.477 6        38.000    23855505.598    93614147.739 7
        43.000

  20465914.944    20465914.327   107549132.028 8        50.000
  20465913.013    83804515.37847        43.750


  21661008.102                   115465386.703 6        39.750    21661014.971
  21661014.779    89806433.047 6        37.000


  23883663.305    23883663.234   125509513.696 6        37.750    23883663.363
  23883662.460    97799610.165 6        36.750


  22748237.167    22748236.492   119542817.061 7        43.750
  22748236.599    93150260.68844        29.250


  23592202.005    23592201.147   123977876.599 6        39.750
  23592200.637    96606137.18043        20.750


  24480978.298    24480978.102   128648418.312 6        36.500    24480980.422
  24480980.440   100245546.639 5        32.250    24480981.414    96068634.518 6
        41.750

  19517079.872                   104293369.149 8        50.000    19517084.688
  19517083.995    81117091.541 8        48.250


  23504493.851                   125424474.543 7        42.000    23504498.756
  23504498.725    97552391.410 6        39.500


  20167839.383                   107922222.918 8        49.000    20167840.733
  20167841.426    83939511.118 5        32.750


  24487423.504    24487423.451   128682363.535 6        37.750    24487422.650
  24487421.702   100272020.16042        16.250


  22381253.630                   119682779.266 6        38.500    22381255.079
  22381256.076    93086531.984 5        32.000


  22839065.811                   122087887.176 7        42.500    22839070.797
  22839071.217    94957274.594 5        34.250


  20971856.768                   111949277.882 8        49.750    20971859.562
  20971859.781    87071682.154 7        45.500


  20546913.614    20546913.534   107974783.703 8        50.000
  20546912.358    84136207.84947        42.750


 16  2 18  0  0 27.0000000  0 18G26G21G27G10G16R14G31G18G20G08R15R02
                                R17G29R24R01R18G04
  20239549.370    20239549.138   106359582.587 8        51.500    20239551.275
  20239551.396    82877614.149 8        49.000    20239550.931    79424389.343 9
        55.000

  21524333.944    21524333.184   113111261.341 8        48.000
  21524331.860    88138675.09846        39.750


  21843415.319    21843414.948   114787954.735 7        46.750    21843416.468
  21843416.401    89445165.041 7        44.750    21843417.376    85718286.827 8
        51.000

  23854886.805    23854886.658   125358327.685 6        40.250    23854887.704
  23854887.660    97681795.103 6        38.000    23854886.403    93611718.010 7
        43.000

  20465683.046    20465682.429   107547912.678 8        50.250
  20465680.980    83803565.23347        43.750


  21661804.811                   115469632.481 6        39.750    21661811.581
  21661811.291    89809735.329 6        37.500


  23884325.230    23884325.163   125512991.665 6        37.750    23884324.792
  23884324.291    97802320.277 6        36.750


  22747919.995    22747919.320   119541150.312 7        43.750
  22747919.413    93148961.92244        29.250


  23592441.509    23592440.651   123979134.366 6        40.000
  23592440.002    96607117.25843        20.500


  24480457.890    24480457.698   128645682.572 6        36.250    24480460.135
  24480459.809   100243414.902 5        32.250    24480460.913    96066591.601 6
        41.750

  19517371.614                   104294927.870 8        50.000    19517376.394
  19517375.647    81118303.877 8        48.500


  23503837.815                   125420972.947 7        42.250    23503842.327
  23503842.443    97549667.952 6        39.500


  20168217.110                   107924244.115 8        49.000    20168220.092
  20168218.939    83941083.193 5        33.500


  24487962.061    24487962.008   128685194.889 6        38.000    24487960.541
  24487960.487   100274226.41942        16.250


  22381843.558                   119685931.212 6        38.750    22381845.007
  22381845.204    93088983.508 5        31.500


  22838859.701                   122086783.790 7        43.000    22838864.481
  22838864.888    94956416.380 5        34.000


  20971470.455                   111947215.703 8        49.750    20971473.402
  20971473.478    87070078.229 7        45.500


  20547189.916    20547189.836   107976235.920 8        50.000
  20547188.700    84137339.44647        42.750


 16  2 18  0  0 28.0000000  0 18G26G21G27G10G16R14G31G18G20G08R15R02
                                R17G29R24R01R18G04
  20239663.200    20239662.964   106360180.649 8        51.500    20239665.033
  20239665.208    82878080.165 8        49.000    20239664.752    79424835.946 9
        55.000

  21524618.397    21524617.642   113112756.283 8        48.000
  21524616.341    88139839.98846        40.000


  21843030.156    21843029.785   114785931.092 7        46.750    21843031.341
  21843031.314    89443588.179 7        44.750    21843032.280    85716775.663 8
        51.000

  23854267.589    23854267.442   125355074.036 6        40.250    23854268.684
  23854268.523    97679259.778 6        38.000    23854267.177    93609288.332 7
        43.000

  20465451.170    20465450.553   107546693.774 8        50.250
  20465449.033    83802615.43847        44.000


  21662601.377                   115473878.646 6        39.750    21662608.049
  21662607.821    89813037.891 6        37.500


  23884987.155    23884987.093   125516469.638 6        38.000    23884986.923
  23884986.127    97805030.375 6        37.000


  22747602.894    22747602.219   119539483.955 7        43.750
  22747602.286    93147663.46044        29.250


  23592680.804    23592679.950   123980392.713 6        40.000
  23592679.422    96608097.79043        20.500


  24479937.009    24479936.822   128642946.910 6        36.250    24479939.285
  24479939.187   100241283.210 5        32.250    24479940.327    96064548.739 6
        41.500

  19517663.647                   104296487.448 8        50.000    19517668.346
  19517667.555    81119516.880 8        48.500


  23503181.814                   125417471.573 7        42.500    23503186.559
  23503186.183    97546944.668 6        39.750


  20168594.868                   107926265.572 8        49.000    20168597.882
  20168596.540    83942655.420 5        33.000


  24488500.628    24488500.570   128688026.259 6        37.750    24488499.215
  24488499.296   100276432.67342        17.000


  22382432.788                   119689083.154 6        38.750    22382435.328
  22382434.774    93091435.017 5        31.250


  22838653.841                   122085681.155 7        43.000    22838657.735
  22838658.397    94955558.802 5        34.250


  20971083.986                   111945153.920 8        49.500    20971087.175
  20971087.233    87068474.626 7        45.500


  20547466.369    20547466.289   107977688.644 8        50.000
  20547465.144    84138471.43847        42.750


 16  2 18  0  0 29.0000000  0 18G26G21G27G10G16R14G31G18G20G08R15R02
                                R17G29R24R01R18G04
  20239777.128    20239776.896   106360779.245 8        51.500    20239779.024
  20239779.118    82878546.603 8        49.000    20239778.662    79425282.950 9
        55.000

  21524902.797    21524902.037   113114251.593 8        48.000
  21524900.892    88141005.16746        40.000


  21842645.239    21842644.868   114783907.662 7        47.000    21842646.218
  21842646.267    89442011.483 7        44.500    21842647.224    85715264.664 8
        51.000

  23853648.497    23853648.354   125351820.442 6        40.250    23853649.226
  23853649.396    97676724.516 6        38.250    23853648.099    93606858.716 7
        43.000

  20465219.285    20465218.664   107545475.311 8        50.250
  20465217.170    83801665.98747        44.000


  21663397.845                   115478125.161 6        39.750    21663405.098
  21663404.427    89816340.732 6        37.500


  23885648.982    23885648.920   125519947.687 6        38.000    23885648.777
  23885647.981    97807740.530 6        37.000


  22747285.892    22747285.217   119537817.978 7        44.000
  22747285.216    93146365.29844        29.000


  23592920.407    23592919.553   123981651.648 6        39.750
  23592918.962    96609078.78943        20.500


  24479416.190    24479415.998   128640211.309 6        36.250    24479419.061
  24479418.569   100239151.572 5        32.250    24479419.763    96062505.912 6
        41.750

  19517955.706                   104298047.885 8        50.000    19517960.299
  19517959.623    81120730.554 8        48.500


  23502525.711                   125413970.393 7        42.750    23502530.563
  23502530.312    97544221.534 6        39.500


  20168972.783                   107928287.290 8        49.000    20168974.567
  20168974.281    83944227.858 5        33.250


  24489039.222    24489039.164   128690857.637 6        37.750    24489038.935
  24489038.099   100278638.94742        17.000


  22383022.153                   119692235.127 6        38.750    22383025.569
  22383024.044    93093886.534 5        31.250


  22838448.088                   122084579.269 7        43.000    22838451.571
  22838452.327    94954701.768 5        33.750


  20970697.826                   111943092.512 8        49.500    20970701.157
  20970701.086    87066871.309 7        45.500


  20547742.863    20547742.779   107979141.863 8        50.250
  20547741.683    84139603.81847        42.750


 16  2 18  0  0 30.0000000  0 18G26G21G27G10G16R14G31G18G20G08R15R02
                                R17G29R24R01R18G04
  20239891.132    20239890.900   106361378.388 8        51.500    20239893.167
  20239893.135    82879013.467 8        49.000    20239892.670    79425730.360 9
        55.000

  21525187.443    21525186.683   113115747.290 8        48.000
  21525185.520    88142170.64446        40.000


  21842260.277    21842259.906   114781884.435 7        47.000    21842261.149
  21842261.256    89440434.944 7        44.500    21842262.213    85713753.811 8
        51.000

  23853029.481    23853029.329   125348566.933 6        40.250    23853030.031
  23853030.317    97674189.330 6        38.250    23853028.913    93604429.144 7
        43.000

  20464987.548    20464986.927   107544257.289 8        50.250
  20464985.392    83800716.87947        44.000


  21664194.353                   115482372.035 6        39.750    21664200.635
  21664201.212    89819643.846 6        37.000


  23886311.377    23886311.310   125523425.790 6        38.000    23886310.854
  23886309.812    97810450.739 6        37.000


  22746968.845    22746968.170   119536152.399 7        43.750
  22746968.250    93145067.44244        29.000


  23593160.104    23593159.255   123982911.185 6        39.750
  23593158.601    96610060.24843        20.750


  24478895.854    24478895.667   128637475.754 6        36.500    24478898.327
  24478897.987   100237019.977 5        32.250    24478899.118    96060463.133 6
        41.750

  19518247.909                   104299609.181 8        49.750    19518252.483
  19518251.795    81121944.896 8        48.500


  23501869.389                   125410469.397 7        42.500    23501874.813
  23501874.374    97541498.534 6        39.500


  20169350.818                   107930309.276 8        49.000    20169352.428
  20169352.012    83945800.549 5        32.750


  24489577.896    24489577.843   128693689.011 6        37.500    24489577.556
  24489576.863   100280845.21242        16.750


  22383611.754                   119695387.127 6        39.000    22383615.854
  22383613.408    93096338.108 5        31.500


  22838241.968                   122083478.146 7        43.000    22838244.669
  22838246.619    94953845.340 5        34.500


  20970311.728                   111941031.450 8        49.500    20970315.323
  20970315.051    87065268.260 7        45.500


  20548019.536    20548019.452   107980595.591 8        50.250
  20548018.315    84140736.59247        42.750


 16  2 18  0  0 31.0000000  0 18G26G21G27G10G16R14G31G18G20G08R15R02
                                R17G29R24R01R18G04
  20240005.288    20240005.056   106361978.063 8        51.500    20240007.354
  20240007.251    82879480.745 8        49.250    20240006.782    79426178.169 9
        55.000

  21525472.106    21525471.351   113117243.363 8        48.000
  21525470.210    88143336.41646        40.000


  21841875.413    21841875.042   114779861.419 7        47.000    21841876.035
  21841876.289    89438858.569 7        44.500    21841877.237    85712243.119 8
        51.000

  23852410.260    23852410.113   125345313.502 6        40.250    23852411.150
  23852411.257    97671654.192 6        38.500    23852409.840    93601999.638 7
        43.000

  20464755.721    20464755.104   107543039.711 8        50.250
  20464753.695    83799768.11847        44.000


  21664991.536                   115486619.256 6        39.500    21664997.595
  21664997.778    89822947.246 6        37.250


  23886973.383    23886973.312   125526903.955 6        38.000    23886972.717
  23886971.724    97813160.975 6        37.000


  22746651.914    22746651.239   119534487.203 7        43.750
  22746651.364    93143769.88944        29.000


  23593399.997    23593399.148   123984171.300 6        40.000
  23593398.365    96611042.15043        20.500


  24478375.250    24478375.072   128634740.272 6        36.500    24478378.094
  24478377.446   100234888.427 5        32.500    24478378.631    96058420.393 6
        41.750

  19518540.192                   104301171.352 8        49.750    19518544.695
  19518544.136    81123159.913 8        48.500


  23501213.339                   125406968.565 7        42.750    23501218.745
  23501218.329    97538775.658 6        39.500


  20169728.755                   107932331.526 8        49.250    20169730.329
  20169730.115    83947373.353 5        33.250


  24490116.588    24490116.535   128696520.392 6        37.500    24490116.601
  24490115.657   100283051.48342        17.000


  22384201.315                   119698539.150 6        39.000    22384203.546
  22384202.733    93098789.688 5        31.000


  22838035.911                   122082377.774 7        43.000    22838038.407
  22838041.099    94952989.484 5        34.250


  20969925.805                   111938970.723 8        49.750    20969929.360
  20969929.011    87063665.474 7        45.500


  20548296.294    20548296.214   107982049.812 8        50.250
  20548295.042    84141869.75047        42.750


 16  2 18  0  0 32.0000000  0 18G26G21G27G10G16R14G31G18G20G08R15R02
                                R17G29R24R01R18G04
  20240119.583    20240119.351   106362578.253 8        51.500    20240121.644
  20240121.465    82879948.431 8        49.250    20240121.005    79426626.369 9
        55.000

  21525756.877    21525756.117   113118739.804 8        48.000
  21525754.977    88144502.47546        39.750


  21841490.473    21841490.107   114777838.595 7        47.000    21841491.171
  21841491.354    89437282.343 7        44.750    21841492.311    85710732.570 8
        51.000

  23851791.043    23851790.891   125342060.124 6        40.250    23851792.371
  23851792.188    97669119.099 6        38.750    23851790.726    93599570.172 7
        43.000

  20464524.091    20464523.470   107541822.569 8        50.250
  20464522.088    83798819.69547        43.750


  21665788.674                   115490866.817 6        39.500    21665794.456
  21665794.643    89826250.901 6        37.250


  23887635.197    23887635.121   125530382.116 6        38.000    23887634.611
  23887633.609    97815871.247 6        37.000


  22746335.175    22746334.500   119532822.384 7        43.750
  22746334.545    93142472.62944        29.000


  23593639.980    23593639.135   123985432.005 6        40.250
  23593638.281    96612024.51543        20.500


  24477854.614    24477854.458   128632004.836 6        36.500    24477857.727
  24477856.917   100232756.921 5        32.250    24477858.076    96056377.693 6
        41.750

  19518832.529                   104302734.369 8        49.750    19518837.112
  19518836.602    81124375.602 8        48.250


  23500557.419                   125403467.888 7        42.750    23500562.977
  23500562.476    97536052.903 6        39.750


  20170106.804                   107934354.029 8        49.250    20170109.894
  20170107.967    83948946.435 5        33.250


  24490655.279    24490655.226   128699351.757 6        37.250    24490655.132
  24490654.452   100285257.74742        17.250


  22384791.216                   119701691.187 6        39.000    22384793.000
  22384792.307    93101241.247 5        30.500


  22837830.221                   122081278.155 7        42.750    22837833.772
  22837835.520    94952134.236 5        33.750


  20969539.913                   111936910.350 8        49.750    20969543.602
  20969543.034    87062062.965 7        45.500


  20548573.127    20548573.047   107983504.537 8        50.250
  20548571.862    84143003.30247        42.750


 16  2 18  0  0 33.0000000  0 18G26G21G27G10G16R14G31G18G20G08R15R02
                                R17G29R24R01R18G04
  20240233.895    20240233.663   106363178.995 8        51.500    20240235.939
  20240235.787    82880416.542 8        49.250    20240235.304    79427074.973 9
        55.000

  21526041.724    21526040.969   113120236.633 8        48.000
  21526039.814    88145668.83646        39.750


  21841105.583    21841105.217   114775815.978 7        47.000    21841106.191
  21841106.464    89435706.280 7        44.750    21841107.394    85709222.181 8
        51.000

  23851171.911    23851171.759   125338806.849 6        40.500    23851173.503
  23851173.127    97666584.088 6        38.750    23851171.674    93597140.779 7
        43.000

  20464292.510    20464291.893   107540605.879 8        50.250
  20464290.565    83797871.62647        44.000


  21666585.115                   115495114.715 6        39.250    21666592.010
  21666591.549    89829554.832 6        37.000


  23888297.194    23888297.118   125533860.368 6        38.000    23888296.447
  23888295.539    97818581.569 6        37.000


  22746018.486    22746017.811   119531157.964 7        44.000
  22746017.766    93141175.67844        29.000


  23593879.954    23593879.109   123986693.314 6        40.250
  23593878.264    96613007.35743        20.500


  24477334.417    24477334.261   128629269.483 6        36.500    24477336.872
  24477336.412   100230625.453 5        32.500    24477337.561    96054335.065 6
        41.500

  19519125.143                   104304298.269 8        49.750    19519129.869
  19519129.216    81125591.965 8        48.250


  23499901.334                   125399967.370 7        42.500    23499906.834
  23499906.494    97533330.290 6        39.500


  20170484.911                   107936376.809 8        49.250    20170487.630
  20170485.846    83950519.737 5        32.750


  24491193.869    24491193.820   128702183.120 6        37.500    24491194.114
  24491193.229   100287464.00142        17.000


  22385381.010                   119704843.225 6        39.000    22385381.421
  22385381.890    93103692.852 5        30.750


  22837624.469                   122080179.291 7        42.500    22837628.453
  22837629.982    94951279.568 5        34.250


  20969154.038                   111934850.363 8        49.750    20969157.526
  20969157.137    87060460.757 7        45.500


  20548850.095    20548850.015   107984959.763 8        50.250
  20548848.781    84144137.24447        42.750


 16  2 18  0  0 34.0000000  0 18G26G21G27G10G16R14G31G18G20G08R15R02
                                R17G29R24R01R18G04
  20240348.351    20240348.119   106363780.269 8        51.500    20240350.377
  20240350.211    82880885.065 8        49.250    20240349.737    79427523.977 9
        55.000

  21526326.674    21526325.914   113121733.831 8        48.000
  21526324.724    88146835.48346        39.750


  21840720.666    21840720.295   114773793.580 7        47.000    21840721.547
  21840721.623    89434130.380 7        44.750    21840722.562    85707711.946 8
        51.000

  23850552.797    23850552.650   125335553.625 6        40.500    23850554.456
  23850554.076    97664049.093 6        39.000    23850552.578    93594711.430 7
        43.000

  20464061.050    20464060.433   107539389.635 8        50.250
  20464059.127    83796923.90347        44.000


  21667381.949                   115499362.948 6        39.000    21667389.327
  21667388.374    89832859.017 6        37.000


  23888958.949    23888958.869   125537338.664 6        37.750    23888957.871
  23888957.509    97821291.921 6        37.250


  22745701.877    22745701.202   119529493.928 7        44.000
  22745701.064    93139879.03044        29.000


  23594120.237    23594119.392   123987955.201 6        40.000
  23594118.363    96613990.63743        20.500


  24476814.211    24476814.055   128626534.185 6        36.500    24476816.009
  24476815.888   100228494.069 5        32.500    24476816.979    96052292.485 6
        41.750

  19519417.980                   104305863.031 8        50.000    19519422.591
  19519422.014    81126808.997 8        48.250


  23499245.172                   125396467.050 7        42.750    23499251.312
  23499250.475    97530607.819 6        39.500


  20170862.978                   107938399.861 8        49.250    20170865.951
  20170863.957    83952093.224 5        33.000


  24491732.878    24491732.829   128705014.513 6        37.250    24491733.021
  24491732.015   100289670.27842        17.000


  22385971.018                   119707995.273 6        39.000    22385971.930
  22385971.201    93106144.406 5        31.750


  22837418.752                   122079081.196 7        42.500    22837423.299
  22837424.457    94950425.475 5        34.250


  20968768.267                   111932790.758 8        50.000    20968771.464
  20968771.326    87058858.840 7        45.500


  20549127.188    20549127.108   107986415.491 8        50.250
  20549125.798    84145271.57747        42.750


 16  2 18  0  0 35.0000000  0 18G26G21G27G10G16R14G31G18G20G08R15R02
                                R17G29R24R01R18G04
  20240462.923    20240462.691   106364382.083 8        51.500    20240464.774
  20240464.743    82881354.011 8        49.250    20240464.291    79427973.384 9
        55.000

  21526611.690    21526610.930   113123231.409 8        48.000
  21526609.700    88148002.42746        40.000


  21840335.936    21840335.565   114771771.388 7        47.000    21840336.960
  21840336.808    89432554.655 7        44.750    21840337.761    85706201.870 8
        51.000

  23849934.054    23849933.911   125332300.490 6        40.500    23849935.668
  23849935.074    97661514.203 6        39.000    23849933.558    93592282.138 7
        43.000

  20463829.643    20463829.022   107538173.836 8        50.250
  20463827.770    83795976.52747        44.000


  21668178.725                   115503611.518 6        39.250    21668186.090
  21668185.513    89836163.445 6        37.750


  23889620.843    23889620.750   125540816.987 6        38.000    23889620.105
  23889619.461    97824002.322 6        37.250


  22745385.246    22745384.571   119527830.284 7        44.000
  22745384.508    93138582.68744        29.000


  23594360.596    23594359.751   123989217.675 6        40.250
  23594358.561    96614974.38043        20.500


  24476293.419    24476293.263   128623798.996 6        36.500    24476295.337
  24476295.373   100226362.731 5        32.750    24476296.469    96050249.966 6
        41.500

  19519710.890                   104307428.653 8        49.750    19519715.527
  19519715.003    81128026.708 8        48.250


  23498589.351                   125392966.937 7        42.750    23498595.240
  23498594.569    97527885.495 6        39.250


  20171240.986                   107940423.189 8        49.000    20171243.978
  20171242.180    83953666.902 5        33.000


  24492271.834    24492271.785   128707845.899 6        37.250    24492270.948
  24492270.832   100291876.54842        16.500


  22386560.552                   119711147.348 6        39.000    22386561.500
  22386560.458    93108596.042 5        31.000


  22837213.312                   122077983.837 7        42.500    22837218.235
  22837219.111    94949572.004 5        34.250


  20968382.679                   111930731.518 8        50.000    20968385.590
  20968385.568    87057257.206 7        45.250


  20549404.353    20549404.273   107987871.728 8        50.250
  20549402.908    84146406.30647        42.750


 16  2 18  0  0 36.0000000  0 18G26G21G27G10G16R14G31G18G20G08R15R02
                                R17G29R24R01R18G04
  20240577.459    20240577.227   106364984.424 8        51.500    20240579.386
  20240579.368    82881823.368 8        49.250    20240578.926    79428423.184 9
        55.000

  21526896.774    21526896.014   113124729.363 8        48.000
  21526894.744    88149169.66546        40.000


  21839951.162    21839950.796   114769749.405 7        47.000    21839952.110
  21839952.043    89430979.083 7        44.750    21839953.000    85704691.947 8
        51.000

  23849314.958    23849314.815   125329047.419 6        40.750    23849316.590
  23849316.098    97658979.337 6        38.750    23849314.524    93589852.898 7
        43.000

  20463598.394    20463597.777   107536958.481 8        50.250
  20463596.498    83795029.49847        44.000


  21668976.122                   115507860.418 6        39.250    21668982.825
  21668982.745    89839468.163 6        37.500


  23890282.710    23890282.612   125544295.393 6        38.000    23890281.874
  23890281.409    97826712.756 6        37.000


  22745068.714    22745068.044   119526167.025 7        44.000
  22745067.989    93137286.64144        29.000


  23594600.740    23594599.882   123990480.754 6        40.250
  23594598.893    96615958.60843        20.500


  24475772.757    24475772.605   128621063.837 6        36.500    24475774.894
  24475774.827   100224231.492 5        32.750    24475775.963    96048207.490 6
        41.500

  19520004.085                   104308995.134 8        49.750    19520008.794
  19520008.118    81129245.079 8        48.250


  23497933.426                   125389467.016 7        42.750    23497938.305
  23497938.555    97525163.337 6        38.750


  20171619.049                   107942446.773 8        49.000    20171621.472
  20171620.453    83955240.811 5        33.250


  24492810.758    24492810.705   128710677.284 6        37.250    24492809.953
  24492809.600   100294082.82142        16.500


  22387150.167                   119714299.475 6        39.000    22387150.775
  22387150.010    93111047.718 5        32.250


  22837008.212                   122076887.232 7        42.500    22837013.555
  22837014.110    94948719.071 5        34.250


  20967997.109                   111928672.633 8        50.000    20967999.953
  20967999.877    87055655.857 7        45.500


  20549681.549    20549681.469   107989328.459 8        50.250
  20549680.109    84147541.42347        42.750


 16  2 18  0  0 37.0000000  0 18G26G21G27G10G16R14G31G18G20G08R15R02
                                R17G29R24R01R18G04
  20240692.098    20240691.862   106365587.305 8        51.500    20240694.213
  20240694.106    82882293.141 8        49.250    20240693.627    79428873.383 9
        55.000

  21527181.894    21527181.134   113126227.696 8        48.000
  21527179.864    88150337.19746        40.000


  21839566.406    21839566.040   114767727.637 7        47.000    21839567.667
  21839567.313    89429403.670 7        44.750    21839568.270    85703182.177 8
        51.000

  23848696.139    23848696.001   125325794.428 6        40.500    23848697.503
  23848697.114    97656444.531 6        39.000    23848695.477    93587423.714 7
        43.000

  20463367.264    20463366.643   107535743.572 8        50.250
  20463365.319    83794082.81647        44.000


  21669773.386                   115512109.677 6        39.250    21669779.870
  21669780.147    89842773.124 6        37.750


  23890944.524    23890944.426   125547773.835 6        38.000    23890943.782
  23890943.366    97829423.227 6        37.000


  22744752.275    22744751.605   119524504.153 7        43.750
  22744751.523    93135990.89744        29.000


  23594841.071    23594840.222   123991744.412 6        40.250
  23594839.372    96616943.27043        20.750


  24475252.376    24475252.216   128618328.762 6        36.750    24475254.232
  24475254.321   100222100.253 5        33.000    24475255.551    96046165.058 6
        41.500

  19520297.459                   104310562.475 8        49.750    19520302.132
  19520301.417    81130464.120 8        48.250


  23497277.757                   125385967.247 7        42.750    23497281.911
  23497282.496    97522441.292 6        39.250


  20171997.115                   107944470.635 8        49.000    20171998.470
  20171998.256    83956814.945 5        32.750


  24493349.504    24493349.437   128713508.684 6        37.500    24493348.421
  24493348.390   100296289.11442        16.750


  22387739.460                   119717451.617 6        39.000    22387741.570
  22387739.679    93113499.347 5        32.000


  22836803.416                   122075791.379 7        42.500    22836808.134
  22836808.916    94947866.758 5        34.000


  20967611.534                   111926614.119 8        50.000    20967614.249
  20967614.240    87054054.780 7        45.750


  20549958.861    20549958.781   107990785.694 8        50.250
  20549957.408    84148676.93047        42.750


 16  2 18  0  0 38.0000000  0 18G26G21G27G10G16R14G31G18G20G08R15R02
                                R17G29R24R01R18G04
  20240806.844    20240806.612   106366190.723 8        51.500    20240809.183
  20240808.937    82882763.337 8        49.250    20240808.458    79429323.987 9
        55.000

  21527467.103    21527466.343   113127726.407 8        48.000
  21527465.059    88151505.02346        40.000


  21839181.730    21839181.364   114765706.062 7        47.000    21839182.978
  21839182.633    89427828.417 7        44.750    21839183.550    85701672.563 8
        51.000

  23848076.913    23848076.770   125322541.494 6        40.500    23848078.460
  23848078.130    97653909.806 6        39.000    23848076.435    93584994.588 7
        43.000

  20463136.153    20463135.536   107534529.107 8        50.250
  20463134.221    83793136.48147        44.000


  21670570.363                   115516359.261 6        39.250    21670577.267
  21670577.567    89846078.368 6        37.250


  23891606.726    23891606.628   125551252.343 6        37.750    23891605.823
  23891605.363    97832133.754 6        37.000


  22744435.930    22744435.260   119522841.678 7        43.750
  22744435.129    93134695.46444        28.750


  23595081.524    23595080.675   123993008.659 6        40.000
  23595079.937    96617928.39343        20.500


  24474731.919    24474731.754   128615593.760 6        36.750    24474734.392
  24474733.847   100219969.073 5        33.000    24474734.996    96044122.679 6
        41.500

  19520591.021                   104312130.663 8        49.750    19520595.605
  19520594.880    81131683.820 8        48.500


  23496622.364                   125382467.627 7        42.750    23496626.004
  23496626.483    97519719.360 6        39.250


  20172375.142                   107946494.752 8        48.750    20172376.251
  20172376.528    83958389.243 5        33.000


  24493888.187    24493888.116   128716340.074 6        37.500    24493887.051
  24493887.172   100298495.38142        16.500


  22388328.609                   119720603.783 6        39.000    22388331.087
  22388329.065    93115951.052 5        31.750


  22836598.567                   122074696.271 7        42.500    22836603.123
  22836603.856    94947015.001 5        34.250


  20967226.009                   111924555.962 8        50.000    20967228.670
  20967228.598    87052454.002 7        45.500


  20550236.227    20550236.147   107992243.428 8        50.250
  20550234.796    84149812.82747        42.750


 16  2 18  0  0 39.0000000  0 18G26G21G27G10G16R14G31G18G20G08R15R02
                                R17G29R24R01R18G04
  20240921.684    20240921.452   106366794.669 8        51.500    20240924.032
  20240923.876    82883233.948 8        49.250    20240923.393    79429774.987 9
        55.000

  21527752.330    21527751.570   113129225.489 8        48.000
  21527750.322    88152673.14046        39.750


  21838797.103    21838796.737   114763684.698 7        47.000    21838798.512
  21838797.984    89426253.331 7        44.750    21838798.892    85700163.104 8
        51.000

  23847457.920    23847457.768   125319288.657 6        40.500    23847459.776
  23847459.132    97651375.126 6        39.000    23847457.500    93582565.516 7
        42.750

  20462905.216    20462904.599   107533315.082 8        50.250
  20462903.204    83792190.48747        44.000


  21671367.399                   115520609.210 6        39.500    21671374.316
  21671374.652    89849383.884 6        37.250


  23892268.629    23892268.527   125554730.883 6        37.750    23892268.070
  23892267.337    97834844.292 6        37.000


  22744119.607    22744118.937   119521179.585 7        43.750
  22744118.811    93133400.32844        29.000


  23595322.138    23595321.289   123994273.489 6        40.250
  23595320.599    96618913.97643        20.750


  24474211.409    24474211.244   128612858.815 6        36.750    24474214.450
  24474213.354   100217837.926 5        33.500    24474214.512    96042080.345 6
        41.250

  19520884.699                   104313699.705 8        49.750    19520889.238
  19520888.496    81132904.191 8        48.250


  23495966.610                   125378968.173 7        42.500    23495970.487
  23495970.487    97516997.551 6        38.500


  20172753.329                   107948519.133 8        48.750    20172753.973
  20172754.894    83959963.745 5        33.000


  24494427.057    24494426.981   128719171.456 6        37.250    24494426.261
  24494425.962   100300701.66242        16.500


  22388917.638                   119723755.955 6        38.750    22388920.075
  22388918.215    93118402.724 5        32.000


  22836393.793                   122073601.909 7        42.500    22836398.207
  22836399.257    94946163.827 5        34.750


  20966840.484                   111922498.181 8        49.750    20966843.301
  20966843.095    87050853.500 7        45.500


  20550513.785    20550513.705   107993701.662 8        50.250
  20550512.282    84150949.11447        42.750


 16  2 18  0  0 40.0000000  0 18G26G21G27G10G16R14G31G18G20G08R15R02
                                R17G29R24R01R18G04
  20241036.726    20241036.494   106367399.157 8        51.500    20241039.069
  20241038.912    82883704.979 8        49.250    20241038.443    79430226.390 9
        55.000

  21528037.664    21528036.909   113130724.948 8        48.000
  21528035.656    88153841.54946        39.750


  21838412.499    21838412.128   114761663.533 7        47.000    21838413.881
  21838413.380    89424678.400 7        44.750    21838414.239    85698653.798 8
        51.000

  23846838.891    23846838.744   125316035.888 6        40.500    23846841.073
  23846840.188    97648840.494 6        39.250    23846838.506    93580136.498 7
        43.000

  20462674.310    20462673.689   107532101.501 8        50.500
  20462672.280    83791244.83847        44.000


  21672164.707                   115524859.501 6        39.500    21672171.946
  21672172.085    89852689.665 6        37.250


  23892930.568    23892930.457   125558209.480 6        38.000    23892930.474
  23892929.321    97837554.882 6        37.000


  22743803.311    22743802.641   119519517.892 7        44.000
  22743802.574    93132105.50044        28.750


  23595563.145    23595562.296   123995538.916 6        40.500
  23595561.392    96619900.02843        20.500


  24473691.087    24473690.918   128610123.909 6        36.750    24473694.932
  24473692.902   100215706.854 5        33.250    24473694.078    96040038.061 6
        41.250

  19521178.574                   104315269.614 8        49.750    19521182.961
  19521182.304    81134125.231 8        48.250


  23495310.734                   125375468.918 7        42.250    23495314.799
  23495314.607    97514275.929 6        38.500


  20173131.548                   107950543.784 8        48.750    20173133.914
  20173133.444    83961538.484 5        33.000


  24494965.816    24494965.736   128722002.837 6        37.250    24494964.935
  24494964.748   100302907.92842        16.500


  22389506.734                   119726908.154 6        39.000    22389509.296
  22389507.995    93120854.438 5        31.750


  22836189.024                   122072508.302 7        42.250    22836194.430
  22836194.685    94945313.282 5        34.250


  20966454.931                   111920440.767 8        49.750    20966457.856
  20966457.731    87049253.291 7        45.500


  20550791.289    20550791.209   107995160.400 8        50.250
  20550789.867    84152085.79347        42.750


 16  2 18  0  0 41.0000000  0 18G26G21G27G10G16R14G31G18G20G08R15R02
                                R17G29R24R01R18G04
  20241151.870    20241151.638   106368004.173 8        51.500    20241154.213
  20241154.052    82884176.414 8        49.250    20241153.569    79430678.187 9
        55.250

  21528323.034    21528322.274   113132224.789 8        48.000
  21528321.062    88155010.25546        39.750


  21838027.926    21838027.560   114759642.584 7        47.000    21838029.214
  21838028.811    89423103.629 7        44.750    21838029.679    85697144.643 8
        51.000

  23846219.804    23846219.652   125312783.198 6        40.250    23846221.928
  23846221.266    97646305.927 6        39.250    23846219.652    93577707.546 7
        43.000

  20462443.499    20462442.882   107530888.366 8        50.500
  20462441.437    83790299.53947        44.000


  21672962.784                   115529110.162 6        39.500    21672969.214
  21672969.465    89855995.733 6        37.500


  23893592.118    23893592.007   125561688.115 6        37.500    23893592.413
  23893591.282    97840265.524 6        37.250


  22743487.199    22743486.529   119517856.580 7        44.000
  22743486.430    93130810.97344        28.750


  23595804.241    23595803.387   123996804.933 6        40.750
  23595802.341    96620886.53643        20.750


  24473170.626    24473170.466   128607389.095 6        37.250    24473175.003
  24473172.450   100213575.807 5        33.500    24473173.666    96037995.801 6
        41.250

  19521472.517                   104316840.391 8        49.750    19521476.984
  19521476.246    81135346.943 8        48.250


  23494654.671                   125371969.866 7        42.250    23494658.678
  23494658.727    97511554.438 6        38.750


  20173509.915                   107952568.699 8        48.750    20173511.913
  20173511.918    83963113.411 5        32.500


  24495504.508    24495504.424   128724834.213 6        37.250    24495504.553
  24495503.507   100305114.18842        16.500


  22390096.403                   119730060.380 6        39.000    22390098.442
  22390097.874    93123306.211 5        32.000


  22835984.264                   122071415.442 7        42.250    22835989.286
  22835990.055    94944463.265 5        33.750


  20966069.348                   111918383.723 8        49.500    20966072.277
  20966072.420    87047653.356 7        45.500


  20551068.892    20551068.812   107996619.638 8        50.250
  20551067.542    84153222.86247        42.750


 16  2 18  0  0 42.0000000  0 18G26G21G27G10G16R14G31G18G20G08R15R02
                                R17G29R24R01R18G04
  20241267.166    20241266.930   106368609.723 8        51.500    20241269.420
  20241269.295    82884648.276 8        49.000    20241268.803    79431130.383 9
        55.000

  21528608.619    21528607.859   113133725.001 8        48.000
  21528606.539    88156179.25246        39.750


  21837643.407    21837643.041   114757621.839 7        47.250    21837644.601
  21837644.270    89421529.024 7        44.750    21837645.119    85695635.644 8
        51.000

  23845600.560    23845600.408   125309530.562 6        40.250    23845602.984
  23845602.317    97643771.415 6        39.000    23845600.717    93575278.636 7
        43.000

  20462212.763    20462212.146   107529675.670 8        50.500
  20462210.675    83789354.58247        44.000


  21673760.517                   115533361.170 6        39.250    21673766.880
  21673767.032    89859302.082 6        37.500


  23894253.775    23894253.655   125565166.813 6        37.750    23894253.927
  23894253.283    97842976.186 6        36.750


  22743171.064    22743170.394   119516195.658 7        44.000
  22743170.331    93129516.74644        28.750


  23596045.472    23596044.618   123998071.542 6        40.750
  23596043.330    96621873.50443        21.000


  24472650.245    24472650.085   128604654.339 6        37.000    24472654.587
  24472652.025   100211444.846 5        34.000    24472653.147    96035953.628 6
        41.000

  19521766.669                   104318412.035 8        49.750    19521771.020
  19521770.327    81136569.334 8        48.250


  23493998.488                   125368470.994 7        42.000    23494002.937
  23494002.874    97508833.098 6        38.750


  20173888.335                   107954593.880 8        48.750    20173890.338
  20173890.597    83964688.561 5        33.000


  24496043.549    24496043.460   128727665.617 6        37.250    24496043.589
  24496042.292   100307320.48942        16.000


  22390685.865                   119733212.643 6        39.000    22390687.493
  22390687.815    93125757.935 5        31.500


  22835779.924                   122070323.342 7        42.250    22835784.798
  22835785.728    94943613.821 5        34.500


  20965683.885                   111916327.040 8        49.500    20965687.243
  20965687.181    87046053.720 7        45.500


  20551346.723    20551346.639   107998079.382 8        50.250
  20551345.310    84154360.32447        42.750


 16  2 18  0  0 43.0000000  0 18G26G21G27G10G16R14G31G18G20G08R15R02
                                R17G29R24R01R18G04
  20241382.516    20241382.284   106369215.819 8        51.500    20241384.672
  20241384.645    82885120.552 8        49.000    20241384.140    79431582.987 9
        55.000

  21528894.091    21528893.331   113135225.588 8        48.000
  21528892.084    88157348.54046        39.750


  21837258.972    21837258.606   114755601.293 7        47.250    21837259.970
  21837259.777    89419954.580 7        44.750    21837260.623    85694126.800 8
        51.000

  23844981.544    23844981.388   125306278.030 6        40.000    23844984.004
  23844983.405    97641236.975 6        39.000    23844981.835    93572849.795 7
        43.000

  20461982.112    20461981.491   107528463.426 8        50.500
  20461979.997    83788409.97647        44.000


  21674557.843                   115537612.522 6        39.000    21674564.117
  21674564.488    89862608.688 6        38.000


  23894915.566    23894915.450   125568645.578 6        37.500    23894916.031
  23894915.347    97845686.904 6        36.750


  22742855.023    22742854.353   119514535.121 7        44.000
  22742854.290    93128222.82444        28.750


  23596286.769    23596285.915   123999338.737 6        40.750
  23596284.444    96622860.93643        20.750


  24472130.481    24472130.325   128601919.644 6        37.000    24472133.853
  24472131.617   100209313.931 5        33.750    24472132.749    96033911.504 6
        41.000

  19522060.893                   104319984.541 8        49.750    19522065.315
  19522064.542    81137792.394 8        48.250


  23493342.407                   125364972.294 6        41.750    23493346.919
  23493347.169    97506111.890 6        38.500


  20174266.853                   107956619.327 8        48.750    20174270.663
  20174268.963    83966263.888 5        33.250


  24496582.415    24496582.317   128730496.991 6        37.250    24496581.507
  24496581.132   100309526.74242        16.250


  22391275.623                   119736364.897 6        39.250    22391276.008
  22391277.220    93128209.726 5        31.750


  22835575.786                   122069232.013 7        42.250    22835580.029
  22835581.827    94942764.995 5        33.500


  20965298.592                   111914270.714 8        49.500    20965302.062
  20965302.022    87044454.366 7        45.500


  20551624.585    20551624.505   107999539.621 8        50.250
  20551623.176    84155498.17247        42.750


 16  2 18  0  0 44.0000000  0 18G26G21G27G10G16R14G31G18G20G08R15R02
                                R17G29R24R01R18G04
  20241497.889    20241497.653   106369822.440 8        51.250    20241500.138
  20241500.089    82885593.248 8        49.250    20241499.575    79432035.985 9
        55.000

  21529179.707    21529178.947   113136726.544 8        48.000
  21529177.704    88158518.11646        39.750


  21836874.601    21836874.235   114753580.964 7        47.250    21836875.410
  21836875.330    89418380.296 7        44.750    21836876.170    85692618.111 8
        51.000

  23844362.614    23844362.454   125303025.552 6        40.000    23844364.841
  23844364.541    97638702.581 6        39.000    23844362.940    93570421.003 7
        43.000

  20461751.555    20461750.938   107527251.619 8        50.500
  20461749.404    83787465.71247        44.000


  21675355.804                   115541864.221 6        39.000    21675361.877
  21675362.319    89865915.567 6        37.500


  23895577.509    23895577.393   125572124.343 6        37.750    23895577.742
  23895577.344    97848397.642 6        37.000


  22742539.144    22742538.474   119512874.991 7        43.750
  22742538.370    93126929.21544        28.750


  23596528.049    23596527.191   124000606.524 6        40.750
  23596525.644    96623848.81843        20.750


  24471610.092    24471609.945   128599185.049 6        36.750    24471613.526
  24471611.259   100207183.060 5        34.000    24471612.288    96031869.417 6
        41.000

  19522355.282                   104321557.895 8        50.000    19522359.624
  19522358.967    81139016.116 8        48.250


  23492686.348                   125361473.715 6        41.750    23492690.932
  23492691.280    97503390.774 6        38.000


  20174645.447                   107958645.054 8        48.750    20174649.467
  20174647.392    83967839.461 5        33.500


  24497121.089    24497120.987   128733328.376 6        37.250    24497120.848
  24497119.980   100311733.01742        16.750


  22391865.775                   119739517.172 6        39.250    22391865.122
  22391866.660    93130661.430 5        32.000


  22835371.553                   122068141.438 7        42.250    22835377.308
  22835378.109    94941916.776 5        34.500


  20964913.259                   111912214.743 8        49.500    20964916.778
  20964916.863    87042855.278 7        45.750


  20551902.572    20551902.488   108001000.363 8        50.250
  20551901.141    84156636.41347        42.750


 16  2 18  0  0 45.0000000  0 18G26G21G27G10G16R14G31G18G20G08R15R02
                                R17G29R24R01R18G04
  20241613.462    20241613.226   106370429.607 8        51.250    20241615.582
  20241615.644    82886066.362 8        49.000    20241615.112    79432489.384 9
        55.000

  21529465.440    21529464.680   113138227.891 8        48.000
  21529463.405    88159687.99746        39.750


  21836490.238    21836489.872   114751560.841 7        47.250    21836490.891
  21836490.913    89416806.175 7        44.750    21836491.736    85691109.579 8
        51.000

  23843743.428    23843743.263   125299773.144 6        39.500    23843745.820
  23843745.668    97636168.239 6        39.000    23843743.965    93567992.257 7
        43.000

  20461520.998    20461520.381   107526040.265 8        50.500
  20461518.897    83786521.80047        44.000


  21676153.072                   115546116.286 6        39.000    21676159.945
  21676159.820    89869222.717 6        37.750


  23896239.779    23896239.659   125575603.188 6        37.000    23896239.242
  23896239.345    97851108.445 6        36.750


  22742223.290    22742222.620   119511215.252 7        43.750
  22742222.526    93125635.91244        28.750


  23596769.387    23596768.529   124001874.906 6        40.500
  23596766.973    96624837.17843        21.000


  24471089.649    24471089.502   128596450.518 6        36.750    24471092.855
  24471090.878   100205052.246 5        34.000    24471091.965    96029827.394 6
        41.000

  19522649.846                   104323132.113 8        50.000    19522654.214
  19522653.566    81140240.501 8        48.250


  23492030.983                   125357975.316 6        41.750    23492035.951
  23492035.705    97500669.812 6        38.500


  20175023.948                   107960671.070 8        48.750    20175026.859
  20175025.960    83969415.253 5        33.250


  24497659.781    24497659.679   128736159.776 6        37.250    24497659.137
  24497658.797   100313939.30642        17.250


  22392455.398                   119742669.435 6        39.250    22392455.407
  22392456.087    93133113.229 5        32.000


  22835167.764                   122067051.646 7        42.250    22835173.241
  22835174.368    94941069.171 5        34.000


  20964528.234                   111910159.152 8        49.500    20964531.673
  20964531.762    87041256.482 7        45.250


  20552180.685    20552180.605   108002461.610 8        50.250
  20552179.196    84157775.04547        42.750


 16  2 18  0  0 46.0000000  0 18G26G21G27G10G16R14G31G18G20G08R15R02
                                R17G29R24R01R18G04
  20241729.116    20241728.884   106371037.294 8        51.250    20241731.173
  20241731.285    82886539.885 8        49.000    20241730.740    79432943.179 9
        55.000

  21529751.208    21529750.448   113139729.607 8        48.000
  21529749.168    88160858.16546        39.750


  21836105.978    21836105.612   114749540.932 7        47.250    21836106.541
  21836106.546    89415232.217 7        44.750    21836107.364    85689601.207 8
        51.000

  23843124.520    23843124.346   125296520.813 6        39.750    23843126.993
  23843126.800    97633633.958 6        38.750    23843125.007    93565563.575 7
        43.000

  20461290.585    20461289.968   107524829.351 8        50.250
  20461288.474    83785578.23047        44.000


  21676950.568                   115550368.682 6        39.250    21676957.794
  21676957.633    89872530.160 6        37.750


  23896901.906    23896901.786   125579082.103 6        36.750    23896901.637
  23896901.324    97853819.255 6        37.000


  22741907.500    22741906.834   119509555.891 7        43.750
  22741906.758    93124342.90644        28.750


  23597010.895    23597010.037   124003143.858 6        40.500
  23597008.440    96625825.96343        21.250


  24470569.264    24470569.121   128593716.037 6        36.750    24470572.814
  24470570.520   100202921.488 5        33.750    24470571.589    96027785.431 6
        40.750

  19522944.637                   104324707.180 8        50.000    19522948.876
  19522948.326    81141465.553 8        48.250


  23491375.429                   125354477.094 6        41.750    23491380.344
  23491380.165    97497948.970 6        38.250


  20175402.672                   107962697.353 8        48.750    20175405.069
  20175404.411    83970991.257 5        33.250


  24498198.786    24498198.679   128738991.159 6        37.000    24498197.713
  24498197.574   100316145.56942        17.250


  22393045.755                   119745821.763 6        39.250    22393045.907
  22393045.733    93135565.028 5        32.250


  22834964.050                   122065962.611 7        42.000    22834970.109
  22834970.131    94940222.125 5        33.750


  20964143.201                   111908103.932 8        49.250    20964146.693
  20964146.689    87039657.980 7        45.500


  20552458.851    20552458.767   108003923.351 8        50.250
  20552457.349    84158914.06347        42.750


 16  2 18  0  0 47.0000000  0 18G26G21G27G10G16R14G31G18G20G08R15R02
                                R17G29R24R01R18G04
  20241844.914    20241844.682   106371645.523 8        51.250    20241846.894
  20241847.038    82887013.831 8        49.000    20241846.492    79433397.373 9
        55.000

  21530037.078    21530036.318   113141231.698 8        48.000
  21530035.004    88162028.62646        39.750


  21835721.714    21835721.348   114747521.220 7        47.250    21835722.286
  21835722.214    89413658.409 7        44.750    21835723.046    85688092.975 8
        51.000

  23842505.500    23842505.326   125293268.571 6        39.250    23842507.972
  23842507.955    97631099.742 6        38.750    23842506.072    93563134.946 7
        43.000

  20461060.073    20461059.456   107523618.882 8        50.500
  20461058.136    83784635.00847        44.000


  21677748.534                   115554621.438 6        39.250    21677756.059
  21677755.563    89875837.819 6        37.750


  23897563.835    23897563.715   125582561.041 6        36.750    23897563.415
  23897563.330    97856530.120 6        36.750


  22741591.871    22741591.210   119507896.927 7        43.750
  22741591.034    93123050.20744        28.750


  23597252.144    23597251.286   124004413.405 6        40.500
  23597249.979    96626815.22243        21.000


  24470048.932    24470048.780   128590981.636 6        36.750    24470052.577
  24470050.180   100200790.781 5        34.000    24470051.181    96025743.490 6
        40.750

  19523239.460                   104326283.101 8        49.750    19523243.775
  19523243.234    81142691.277 8        48.250


  23490719.585                   125350979.091 7        42.000    23490724.303
  23490724.607    97495228.296 6        38.250


  20175781.315                   107964723.917 8        48.750    20175784.759
  20175783.283    83972567.481 5        32.750


  24498737.299    24498737.183   128741822.546 6        37.000    24498736.646
  24498736.351   100318351.82842        17.000


  22393635.075                   119748974.092 6        39.000    22393635.737
  22393635.334    93138016.871 5        31.250


  22834760.519                   122064874.327 7        42.000    22834765.595
  22834766.301    94939375.711 5        34.500


  20963758.203                   111906049.096 8        49.250    20963761.803
  20963761.740    87038059.771 7        45.500


  20552737.102    20552737.022   108005385.592 8        50.000
  20552735.595    84160053.47147        42.750


 16  2 18  0  0 48.0000000  0 18G26G21G27G10G16R14G31G18G20G08R15R02
                                R17G29R24R01R18G04
  20241960.787    20241960.551   106372254.289 8        51.250    20241962.656
  20241962.893    82887488.196 8        49.000    20241962.338    79433851.975 9
        55.000

  21530322.985    21530322.225   113142734.165 8        48.000
  21530320.901    88163199.37946        39.750


  21835337.458    21835337.092   114745501.720 7        47.250    21835338.022
  21835337.923    89412084.775 7        44.750    21835338.773    85686584.906 8
        51.000

  23841886.614    23841886.440   125290016.399 6        39.250    23841888.952
  23841889.109    97628565.591 6        38.500    23841887.222    93560706.380 7
        43.000

  20460829.753    20460829.136   107522408.856 8        50.500
  20460827.884    83783692.13147        44.000


  21678546.575                   115558874.508 6        39.000    21678554.034
  21678553.426    89879145.784 6        38.000


  23898225.810    23898225.681   125586040.055 6        36.500    23898225.215
  23898225.376    97859241.015 6        36.750


  22741276.272    22741275.615   119506238.347 7        43.750
  22741275.400    93121757.80644        28.500


  23597493.701    23597492.843   124005683.531 6        40.500
  23597491.612    96627804.92743        21.000


  24469528.905    24469528.771   128588247.276 6        36.750    24469531.794
  24469529.822   100198660.115 5        33.750    24469530.761    96023701.599 6
        40.500

  19523534.426                   104327859.891 8        49.750    19523538.751
  19523538.290    81143917.669 8        48.250


  23490064.193                   125347481.260 7        42.250    23490068.168
  23490068.853    97492507.757 6        38.250


  20176159.972                   107966750.766 8        48.750    20176163.814
  20176162.119    83974143.904 5        33.500


  24499276.371    24499276.255   128744653.945 6        37.250    24499275.155
  24499275.088   100320558.11742        17.000


  22394224.095                   119752126.458 6        38.750    22394226.934
  22394224.953    93140468.656 5        31.750


  22834556.833                   122063786.811 7        42.250    22834562.006
  22834562.887    94938529.861 5        34.000


  20963373.411                   111903994.609 8        49.500    20963376.885
  20963376.751    87036461.838 7        45.500


  20553015.434    20553015.350   108006848.334 8        50.000
  20553013.936    84161193.26947        42.750


 16  2 18  0  0 49.0000000  0 18G26G21G27G10G16R14G31G18G20G08R15R02
                                R17G29R24R01R18G04
  20242076.709    20242076.473   106372863.589 8        51.250    20242078.672
  20242078.842    82887962.971 8        49.000    20242078.287    79434306.971 9
        55.000

  21530608.945    21530608.185   113144237.012 8        48.000
  21530606.875    88164370.43046        39.750


  21834953.252    21834952.881   114743482.417 7        47.250    21834953.739
  21834953.668    89410511.292 7        45.000    21834954.499    85685076.986 8
        51.000

  23841267.312    23841267.143   125286764.301 6        39.000    23841269.695
  23841270.241    97626031.474 6        38.500    23841268.273    93558277.866 7
        43.000

  20460599.580    20460598.963   107521199.279 8        50.500
  20460597.716    83782749.60247        44.000


  21679344.196                   115563127.956 6        39.250    21679351.968
  21679351.333    89882454.012 6        37.750


  23898887.521    23898887.396   125589519.098 6        36.500    23898887.333
  23898887.431    97861951.959 6        36.750


  22740960.822    22740960.165   119504580.154 7        43.750
  22740959.829    93120465.71144        28.750


  23597735.481    23597734.618   124006954.254 6        40.500
  23597733.393    96628795.10143        21.000


  24469008.627    24469008.493   128585512.994 6        36.750    24469011.695
  24469009.468   100196529.524 5        33.750    24469010.362    96021659.757 6
        40.500

  19523829.549                   104329437.537 8        49.750    19523833.972
  19523833.502    81145144.728 8        48.250


  23489408.908                   125343983.627 7        42.250    23489413.340
  23489413.335    97489787.389 6        38.500


  20176538.965                   107968777.875 8        48.750    20176541.688
  20176540.968    83975720.582 5        34.000


  24499814.893    24499814.777   128747485.345 6        37.250    24499814.325
  24499813.887   100322764.41242        17.500


  22394813.486                   119755278.847 6        39.000    22394815.932
  22394814.157    93142920.528 5        31.500


  22834353.615                   122062700.040 7        42.000    22834358.261
  22834359.634    94937684.586 5        33.750


  20962988.655                   111901940.459 8        49.250    20962992.227
  20962991.888    87034864.173 7        45.500


  20553293.904    20553293.824   108008311.572 8        50.250
  20553292.371    84162333.45547        42.750


 16  2 18  0  0 50.0000000  0 18G26G21G27G10G16R14G31G18G20G08R15R02
                                R17G29R24R01R18G04
  20242192.752    20242192.520   106373473.427 8        51.250    20242194.778
  20242194.898    82888438.170 8        49.000    20242194.353    79434762.366 9
        54.750

  21530895.008    21530894.248   113145740.238 8        48.000
  21530892.925    88165541.77446        39.750


  21834569.077    21834568.711   114741463.331 7        47.250    21834569.560
  21834569.457    89408937.985 7        45.000    21834570.293    85683569.228 8
        50.750

  23840647.943    23840647.774   125283512.277 6        38.500    23840650.925
  23840651.404    97623497.427 6        38.250    23840649.378    93555849.404 7
        43.000

  20460369.538    20460368.921   107519990.144 8        50.500
  20460367.628    83781807.41947        44.000


  21680142.260                   115567381.719 6        39.250    21680150.077
  21680149.545    89885762.485 6        38.000


  23899549.535    23899549.406   125592998.185 6        36.500    23899549.218
  23899549.477    97864662.943 6        36.500


  22740645.402    22740644.745   119502922.361 7        44.000
  22740644.356    93119173.92544        28.750


  23597977.548    23597976.685   124008225.553 6        40.500
  23597975.272    96629785.72843        21.000


  24468488.327    24468488.189   128582778.768 6        37.000    24468491.909
  24468489.168   100194398.943 5        33.750    24468490.058    96019617.978 6
        40.500

  19524124.860                   104331016.057 8        49.750    19524129.506
  19524128.906    81146372.455 8        48.250


  23488753.650                   125340486.160 7        42.500    23488757.916
  23488758.019    97487067.128 6        38.250


  20176917.805                   107970805.244 8        49.000    20176920.126
  20176919.719    83977297.404 5        32.750


  24500353.746    24500353.621   128750316.739 6        37.250    24500352.981
  24500352.744   100324970.69942        17.000


  22395402.314                   119758431.241 6        38.500    22395404.281
  22395403.557    93145372.356 5        31.500


  22834150.474                   122061614.036 7        42.000    22834154.619
  22834156.452    94936839.917 5        33.500


  20962604.068                   111899886.683 8        49.250    20962607.386
  20962607.091    87033266.787 7        45.250


  20553572.410    20553572.330   108009775.324 8        50.250
  20553570.899    84163474.03847        42.750


 16  2 18  0  0 51.0000000  0 18G26G21G27G10G16R14G31G18G20G08R15R02
                                R17G29R24R01R18G04
  20242308.943    20242308.707   106374083.797 8        51.500    20242310.946
  20242311.058    82888913.781 8        49.000    20242310.512    79435218.163 9
        54.750

  21531181.107    21531180.347   113147243.827 8        48.000
  21531179.050    88166713.40146        39.750


  21834184.888    21834184.517   114739444.451 7        47.250    21834185.438
  21834185.282    89407364.825 7        45.000    21834186.109    85682061.621 8
        50.750

  23840029.008    23840028.843   125280260.343 6        38.750    23840031.803
  23840032.634    97620963.446 6        38.500    23840030.510    93553421.004 7
        42.750

  20460139.652    20460139.035   107518781.448 8        50.500
  20460137.626    83780865.57947        44.000


  21680940.472                   115571635.842 6        39.250    21680947.939
  21680947.792    89889071.244 6        38.250


  23900211.747    23900211.613   125596477.319 6        36.500    23900211.443
  23900211.510    97867373.950 6        36.500


  22740330.028    22740329.371   119501264.961 7        44.000
  22740328.950    93117882.44244        28.750


  23598219.816    23598218.953   124009497.455 6        40.750
  23598217.276    96630776.82143        21.250


  24467967.754    24467967.616   128580044.627 6        37.000    24467971.846
  24467968.841   100192268.449 5        34.000    24467969.775    96017576.250 6
        40.500

  19524420.371                   104332595.438 8        49.750    19524425.044
  19524424.485    81147600.866 8        48.250


  23488098.539                   125336988.858 7        42.750    23488102.881
  23488102.846    97484347.003 6        38.500


  20177296.789                   107972832.865 8        49.000    20177298.953
  20177298.456    83978874.412 5        33.500


  24500892.487    24500892.358   128753148.132 6        37.250    24500892.281
  24500891.575   100327176.97642        17.000


  22395991.893                   119761583.645 6        38.500    22395993.324
  22395992.751    93147824.271 5        31.000


  22833947.078                   122060528.756 6        41.750    22833951.482
  22833953.123    94935995.828 5        33.250


  20962219.464                   111897833.257 8        49.250    20962222.612
  20962222.451    87031669.677 7        45.500


  20553851.060    20553850.980   108011239.563 8        50.250
  20553849.526    84164615.00447        42.750


 16  2 18  0  0 52.0000000  0 18G26G21G27G10G16R14G31G18G20G08R15R02
                                R17G29R24R01R18G04
  20242425.200    20242424.964   106374694.698 8        51.500    20242427.199
  20242427.316    82889389.811 8        49.000    20242426.761    79435674.358 9
        54.750

  21531467.322    21531466.562   113148747.806 8        48.000
  21531465.248    88167885.33446        39.750


  21833800.646    21833800.275   114737425.776 7        47.500    21833801.228
  21833801.152    89405791.835 7        45.000    21833801.966    85680554.174 8
        50.750

  23839410.095    23839409.930   125277008.457 6        38.250    23839412.957
  23839413.856    97618429.516 6        38.250    23839411.638    93550992.667 7
        42.750

  20459909.801    20459909.184   107517573.206 8        50.500
  20459907.713    83779924.09247        44.000


  21681738.339                   115575890.302 6        39.250    21681746.204
  21681746.075    89892380.283 6        38.000


  23900873.717    23900873.583   125599956.513 6        36.250    23900873.628
  23900873.565    97870085.008 6        36.500


  22740014.711    22740014.054   119499607.955 7        44.000
  22740013.620    93116591.27044        28.750


  23598462.106    23598461.230   124010769.946 6        40.750
  23598459.397    96631768.38243        21.250


  24467447.633    24467447.504   128577310.550 6        36.750    24467451.309
  24467448.576   100190137.970 5        34.000    24467449.466    96015534.564 6
        40.250

  19524716.075                   104334175.688 8        49.750    19524720.837
  19524720.261    81148829.954 8        48.250


  23487443.567                   125333491.726 7        42.750    23487447.400
  23487447.619    97481627.007 6        38.750


  20177675.844                   107974860.742 8        49.000    20177677.462
  20177677.364    83980451.645 5        33.250


  24501431.255    24501431.126   128755979.538 6        37.250    24501430.964
  24501430.396   100329383.27642        16.750


  22396580.881                   119764736.059 6        38.250    22396583.225
  22396582.272    93150276.137 5        32.250


  22833744.513                   122059444.234 7        42.000    22833748.162
  22833750.389    94935152.290 5        33.500


  20961834.726                   111895780.215 8        49.500    20961838.017
  20961837.820    87030072.868 7        45.500


  20554129.843    20554129.763   108012704.315 8        50.250
  20554128.246    84165756.36947        42.750


 16  2 18  0  0 53.0000000  0 18G26G21G27G10G16R14G31G18G20G08R15R02
                                R17G29R24R01R18G04
  20242541.552    20242541.316   106375306.140 8        51.500    20242543.582
  20242543.676    82889866.258 8        49.250    20242543.117    79436130.953 9
        54.750

  21531753.506    21531752.746   113150252.152 8        48.000
  21531751.512    88169057.55246        39.750


  21833416.503    21833416.132   114735407.302 7        47.250    21833417.173
  21833417.057    89404219.004 7        45.000    21833417.871    85679046.873 8
        50.750

  23838791.052    23838790.892   125273756.638 6        38.000    23838794.299
  23838795.046    97615895.647 6        38.500    23838792.846    93548564.368 7
        43.000

  20459679.973    20459679.356   107516365.402 8        50.500
  20459677.876    83778982.94647        44.000


  21682536.676                   115580145.104 6        39.250    21682544.259
  21682544.089    89895689.564 6        38.000


  23901535.853    23901535.719   125603435.751 6        36.250    23901536.036
  23901535.651    97872796.101 6        36.250


  22739699.498    22739698.841   119497951.327 7        44.250
  22739698.357    93115300.39044        28.500


  23598704.464    23598703.579   124012043.026 6        40.500
  23598701.571    96632760.39343        21.250


  24466927.395    24466927.261   128574576.533 6        36.750    24466930.664
  24466928.325   100188007.581 5        34.000    24466929.189    96013492.918 6
        40.250

  19525012.056                   104335756.799 8        49.750    19525016.568
  19525016.170    81150059.705 8        48.250


  23486788.631                   125329994.793 7        42.750    23486791.846
  23486792.191    97478907.150 6        38.500


  20178054.925                   107976888.879 8        49.000    20178056.741
  20178056.464    83982029.117 5        33.000


  24501969.781    24501969.652   128758810.917 6        37.000    24501970.640
  24501969.245   100331589.53242        16.500


  22397170.116                   119767888.527 6        38.500    22397171.668
  22397171.650    93152728.074 5        31.250


  22833541.998                   122058360.464 7        42.250    22833545.678
  22833547.449    94934309.406 5        33.750


  20961450.278                   111893727.541 8        49.500    20961453.332
  20961453.278    87028476.345 7        45.500


  20554408.693    20554408.613   108014169.561 8        50.250
  20554407.070    84166898.12047        42.500


 16  2 18  0  0 54.0000000  0 18G26G21G27G10G16R14G31G18G20G08R15R02
                                R17G29R24R01R18G04
  20242658.069    20242657.833   106375918.124 8        51.500    20242660.046
  20242660.139    82890343.126 8        49.000    20242659.576    79436587.952 9
        54.750

  21532039.802    21532039.042   113151756.888 8        48.000
  21532037.848    88170230.07446        39.750


  21833032.288    21833031.913   114733389.051 7        47.250    21833033.168
  21833033.003    89402646.338 7        45.000    21833033.808    85677539.733 8
        50.750

  23838172.162    23838172.006   125270504.923 6        38.000    23838175.368
  23838176.298    97613361.828 6        38.250    23838173.991    93546136.140 7
        42.750

  20459450.226    20459449.609   107515158.046 8        50.500
  20459448.120    83778042.14947        44.000


  21683334.775                   115584400.249 6        39.250    21683342.596
  21683342.364    89898999.145 6        38.500


  23902197.867    23902197.733   125606915.047 6        36.000    23902197.832
  23902197.747    97875507.227 6        36.250


  22739384.485    22739383.824   119496295.109 7        44.250
  22739383.175    93114009.83244        28.500


  23598946.701    23598945.812   124013316.699 6        40.500
  23598943.906    96633752.85243        21.250


  24466407.100    24466406.966   128571842.588 6        37.000    24466410.091
  24466408.092   100185877.253 5        34.000    24466408.933    96011451.354 6
        40.000

  19525308.167                   104337338.776 8        50.000    19525312.715
  19525312.268    81151290.124 8        48.250


  23486133.704                   125326498.053 7        43.000    23486136.110
  23486136.879    97476187.464 6        38.000


  20178434.132                   107978917.293 8        49.250    20178436.484
  20178435.876    83983606.771 5        33.250


  24502508.366    24502508.237   128761642.323 6        36.750    24502509.068
  24502508.111   100333795.81142        16.250


  22397759.400                   119771040.988 6        38.750    22397762.060
  22397760.831    93155180.015 5        31.500


  22833339.290                   122057277.455 7        42.250    22833343.418
  22833344.750    94933467.040 5        33.250


  20961065.799                   111891675.250 8        49.500    20961068.710
  20961068.790    87026880.113 7        45.500


  20554687.669    20554687.585   108015635.314 8        50.250
  20554685.983    84168040.26447        42.500


 16  2 18  0  0 55.0000000  0 18G26G21G27G10G16R14G31G18G20G08R15R02
                                R17G29R24R01R18G04
  20242774.550    20242774.318   106376530.635 8        51.500    20242776.706
  20242776.706    82890820.406 8        49.250    20242776.138    79437045.348 9
        55.000

  21532326.241    21532325.486   113153261.982 8        48.000
  21532324.246    88171402.87446        39.750


  21832648.220    21832647.849   114731370.993 7        47.250    21832649.168
  21832648.989    89401073.830 7        45.250    21832649.785    85676032.744 8
        50.750

  23837553.052    23837552.900   125267253.280 6        37.750    23837556.715
  23837557.555    97610828.072 6        38.250    23837555.132    93543707.962 7
        42.750

  20459220.514    20459219.897   107513951.138 8        50.500
  20459218.453    83777101.70047        44.000


  21684132.897                   115588655.743 6        39.000    21684141.429
  21684140.620    89902308.958 6        38.250


  23902859.931    23902859.797   125610394.390 6        36.250    23902859.855
  23902859.793    97878218.407 6        36.250


  22739069.375    22739068.714   119494639.263 7        44.250
  22739068.055    93112719.56744        28.500


  23599188.973    23599188.084   124014590.964 6        40.500
  23599186.375    96634745.79443        21.250


  24465887.157    24465887.028   128569108.703 6        37.000    24465890.086
  24465887.859   100183746.940 5        33.750    24465888.597    96009409.804 6
        40.000

  19525604.399                   104338921.606 8        49.750    19525608.893
  19525608.450    81152521.226 8        48.250


  23485478.365                   125323001.499 7        43.000    23485480.950
  23485481.522    97473467.929 6        38.250


  20178813.326                   107980945.969 8        49.250    20178815.361
  20178815.262    83985184.607 5        33.250


  24503047.281    24503047.161   128764473.713 6        36.750    24503047.478
  24503046.924   100336002.09842        16.750


  22398348.782                   119774193.487 6        38.500    22398351.380
  22398350.535    93157631.923 5        31.500


  22833136.753                   122056195.186 7        42.000    22833141.989
  22833142.494    94932625.265 5        32.500


  20960681.302                   111889623.314 8        49.500    20960684.249
  20960684.445    87025284.158 7        45.500


  20554966.711    20554966.631   108017101.557 8        50.250
  20554964.994    84169182.79147        42.500


 16  2 18  0  0 56.0000000  0 18G26G21G27G10G16R14G31G18G20G08R15R02
                                R17G29R24R01R18G04
  20242891.233    20242890.997   106377143.672 8        51.500    20242893.344
  20242893.375    82891298.096 8        49.250    20242892.802    79437503.136 9
        55.000

  21532612.684    21532611.924   113154767.456 8        48.000
  21532610.721    88172575.97146        39.750


  21832264.219    21832263.848   114729353.154 7        47.000    21832265.078
  21832265.024    89399501.483 7        45.250    21832265.802    85674525.911 8
        50.750

  23836934.211    23836934.068   125264001.704 6        37.750    23836938.164
  23836938.804    97608294.382 6        38.500    23836936.353    93541279.841 7
        42.750

  20458990.896    20458990.279   107512744.673 8        50.500
  20458988.871    83776161.59647        44.000


  21684931.328                   115592911.586 6        39.000    21684939.994
  21684938.818    89905619.029 6        38.000


  23903521.933    23903521.795   125613873.784 6        36.250    23903522.125
  23903521.861    97880929.630 6        36.250


  22738754.362    22738753.696   119492983.807 7        44.000
  22738753.012    93111429.60044        28.500


  23599431.326    23599430.432   124015865.825 6        40.250
  23599428.965    96635739.19043        21.250


  24465366.951    24465366.844   128566374.897 6        37.000    24465369.741
  24465367.662   100181616.705 5        34.000    24465368.387    96007368.327 6
        40.000

  19525900.738                   104340505.299 8        49.750    19525905.393
  19525904.802    81153752.980 8        48.250


  23484823.067                   125319505.119 7        43.000    23484825.638
  23484825.965    97470748.544 6        38.500


  20179192.631                   107982974.912 8        49.250    20179194.934
  20179194.420    83986762.675 5        33.250


  24503585.973    24503585.848   128767305.111 6        37.000    24503586.206
  24503585.745   100338208.39342        17.000


  22398938.281                   119777345.997 6        38.500    22398940.910
  22398939.864    93160083.869 5        31.750


  22832934.282                   122055113.688 7        42.000    22832939.362
  22832940.301    94931784.107 5        32.750


  20960297.020                   111887571.724 8        49.250    20960299.698
  20960300.212    87023688.480 7        45.500


  20555245.844    20555245.760   108018568.311 8        50.250
  20555244.100    84170325.71747        42.500


 16  2 18  0  0 57.0000000  0 18G26G21G27G10G16R14G31G18G20G08R15R02
                                R17G29R24R01R18G04
  20243008.000    20243007.764   106377757.260 8        51.250    20243010.169
  20243010.147    82891776.217 8        49.250    20243009.561    79437961.333 9
        55.000

  21532899.261    21532898.501   113156273.314 8        48.000
  21532897.276    88173749.36746        39.750


  21831880.147    21831879.776   114727335.516 7        47.250    21831881.006
  21831881.095    89397929.300 7        45.250    21831881.842    85673019.237 8
        50.750

  23836315.737    23836315.599   125260750.221 6        37.750    23836319.068
  23836320.079    97605760.752 6        38.250    23836317.642    93538851.783 7
        43.000

  20458761.390    20458760.769   107511538.661 8        50.500
  20458759.374    83775221.84647        44.000


  21685729.584                   115597167.757 6        38.750    21685738.214
  21685737.320    89908929.394 6        38.250


  23904184.506    23904184.368   125617353.214 6        36.250    23904183.867
  23904183.943    97883640.834 6        36.000


  22738439.444    22738438.778   119491328.746 7        44.000
  22738438.040    93110139.94144        28.500


  23599673.778    23599672.889   124017141.272 6        40.250
  23599671.716    96636733.04843        21.000


  24464846.526    24464846.424   128563641.130 6        37.000    24464849.634
  24464847.398   100179486.501 5        34.000    24464848.140    96005326.883 6
        40.000

  19526197.273                   104342089.850 8        49.750    19526201.892
  19526201.316    81154985.409 8        48.250


  23484167.880                   125316008.925 7        43.000    23484170.156
  23484170.841    97468029.290 6        38.000


  20179571.847                   107985004.142 8        49.250    20179574.097
  20179573.305    83988340.970 5        33.250


  24504124.607    24504124.478   128770136.541 6        37.000    24504125.197
  24504124.562   100340414.69142        17.000


  22399528.119                   119780498.539 6        38.500    22399530.131
  22399529.281    93162535.860 5        32.500


  22832732.147                   122054032.965 7        42.000    22832736.587
  22832737.996    94930943.520 5        32.750


  20959912.782                   111885520.515 8        49.250    20959915.398
  20959916.006    87022093.095 7        45.500


  20555524.994    20555524.910   108020035.556 8        50.250
  20555523.299    84171469.02447        42.500


 16  2 18  0  0 58.0000000  0 18G26G21G27G10G16R14G31G18G20G08R15R02
                                R17G29R24R01R18G04
  20243124.839    20243124.607   106378371.378 8        51.500    20243126.892
  20243127.013    82892254.753 8        49.250    20243126.405    79438419.927 9
        55.000

  21533185.874    21533185.114   113157779.533 8        48.000
  21533183.898    88174923.04546        39.750


  21831496.214    21831495.843   114725318.077 7        47.250    21831497.197
  21831497.197    89396357.268 7        45.250    21831497.931    85671512.707 8
        51.000

  23835697.092    23835696.958   125257498.780 6        38.000    23835700.106
  23835701.380    97603227.197 6        38.500    23835698.827    93536423.777 7
        42.750

  20458531.898    20458531.281   107510333.091 8        50.500
  20458529.961    83774282.44147        44.000


  21686527.719                   115601424.271 6        38.750    21686536.108
  21686535.648    89912240.009 6        38.000


  23904846.758    23904846.624   125620832.702 6        36.500    23904846.181
  23904846.052    97886352.127 6        36.000


  22738124.498    22738123.828   119489674.074 7        44.000
  22738123.121    93108850.58544        28.500


  23599916.354    23599915.465   124018417.304 6        40.250
  23599914.588    96637727.35943        21.000


  24464326.275    24464326.164   128560907.438 6        37.000    24464329.360
  24464327.165   100177356.342 5        34.000    24464327.903    96003285.481 6
        40.000

  19526493.930                   104343675.255 8        49.750    19526498.406
  19526497.954    81156218.506 8        48.250


  23483512.506                   125312512.880 7        43.250    23483515.144
  23483515.815    97465310.134 6        38.250


  20179951.197                   107987033.641 8        49.250    20179954.404
  20179952.499    83989919.425 5        32.750


  24504663.344    24504663.224   128772967.913 6        37.250    24504664.229
  24504663.370   100342620.95442        16.750


  22400117.483                   119783651.098 6        38.500    22400121.727
  22400119.080    93164987.871 5        31.250


  22832530.128                   122052952.995 7        42.000    22832533.575
  22832535.843    94930103.563 5        32.250


  20959528.589                   111883469.685 8        49.250    20959531.321
  20959531.760    87020498.009 7        45.500


  20555804.224    20555804.140   108021503.306 8        50.250
  20555802.601    84172612.72747        42.500


 16  2 18  0  0 59.0000000  0 18G26G21G27G10G16R14G31G18G20G08R15R02
                                R17G29R24R01R18G04
  20243241.746    20243241.514   106378986.031 8        51.500    20243243.937
  20243243.981    82892733.703 8        49.000    20243243.360    79438878.924 9
        55.000

  21533472.644    21533471.884   113159286.137 8        48.000
  21533470.587    88176097.02146        39.750


  21831112.298    21831111.927   114723300.851 7        47.250    21831113.380
  21831113.340    89394785.411 7        45.250    21831114.064    85670006.341 8
        50.750

  23835078.461    23835078.341   125254247.426 6        37.750    23835081.649
  23835082.691    97600693.660 6        38.500    23835080.035    93533995.814 7
        42.750

  20458302.548    20458301.931   107509127.963 8        50.500
  20458300.634    83773343.38047        44.000


  21687326.575                   115605681.137 6        38.750    21687334.534
  21687334.221    89915550.904 6        38.000


  23905509.184    23905509.050   125624312.217 6        36.750    23905507.995
  23905508.183    97889063.455 6        36.000


  22737809.584    22737808.914   119488019.795 7        43.750
  22737808.314    93107561.53644        28.500


  23600159.342    23600158.453   124019693.925 6        40.250
  23600157.495    96638722.12943        20.750


  24463805.894    24463805.792   128558173.805 6        37.000    24463808.908
  24463806.981   100175226.243 5        33.750    24463807.643    96001244.142 6
        40.000

  19526790.796                   104345261.517 8        49.750    19526795.371
  19526794.830    81157452.264 8        48.250


  23482857.391                   125309016.997 7        43.500    23482860.449
  23482860.575    97462591.093 6        38.500


  20180330.646                   107989063.405 8        49.250    20180333.226
  20180331.741    83991498.185 5        34.000


  24505202.103    24505201.992   128775799.309 6        37.250    24505203.113
  24505202.116   100344827.23342        16.750


  22400706.803                   119786803.669 6        38.500    22400710.774
  22400708.985    93167439.852 5        31.000


  22832328.824                   122051873.790 7        42.250    22832332.514
  22832333.694    94929264.196 5        33.250


  20959144.414                   111881419.206 8        49.250    20959147.173
  20959147.746    87018903.194 7        45.500


  20556083.468    20556083.388   108022971.556 8        50.000
  20556081.992    84173756.81747        42.500


 16  2 18  0  1  0.0000000  0 18G26G21G27G10G16R14G31G18G20G08R15R02
                                R17G29R24R01R18G04
  20243358.857    20243358.621   106379601.221 8        51.250    20243360.914
  20243361.058    82893213.068 8        49.000    20243360.436    79439338.316 9
        55.000

  21533759.378    21533758.618   113160793.110 8        48.250
  21533757.343    88177271.28446        39.750


  21830728.458    21830728.092   114721283.839 7        47.000    21830729.567
  21830729.518    89393213.710 7        45.250    21830730.225    85668500.128 8
        51.000

  23834460.009    23834459.889   125250996.177 6        38.250    23834463.126
  23834464.056    97598160.204 6        38.500    23834461.350    93531567.945 7
        42.750

  20458073.261    20458072.644   107507923.293 8        50.500
  20458071.392    83772404.67647        44.000


  21688124.585                   115609938.358 6        39.000    21688132.679
  21688132.804    89918862.070 6        37.750


  23906171.651    23906171.517   125627791.814 6        36.500    23906170.202
  23906170.332    97891774.798 5        35.750


  22737494.827    22737494.152   119486365.911 7        44.000
  22737493.584    93106272.79644        28.500


  23600402.437    23600401.552   124020971.143 6        40.250
  23600400.501    96639717.37743        21.250


  24463286.006    24463285.899   128555440.264 6        36.750    24463288.510
  24463286.775   100173096.208 5        33.750    24463287.428    95999202.856 6
        40.000

  19527087.716                   104346848.645 8        49.750    19527092.443
  19527091.888    81158686.695 8        48.250


  23482202.397                   125305521.296 7        43.500    23482205.817
  23482205.384    97459872.248 6        38.000


  20180709.942                   107991093.428 8        49.250    20180711.713
  20180711.060    83993077.083 5        33.250


  24505741.201    24505741.094   128778630.704 6        37.250    24505740.987
  24505740.853   100347033.51342        16.750


  22401296.865                   119789956.278 6        38.250    22401300.183
  22401298.470    93169891.852 5        32.000


  22832127.315                   122050795.350 7        42.500    22832131.255
  22832131.577    94928425.425 5        33.500


  20958760.338                   111879369.104 8        49.250    20958763.284
  20958763.803    87017308.667 7        45.750


  20556362.913    20556362.829   108024440.310 8        50.000
  20556361.487    84174901.29847        42.500


 16  2 18  0  1  1.0000000  0 18G26G21G27G10G16R14G31G18G20G08R15R02
                                R17G29R24R01R18G04
  20243475.983    20243475.751   106380216.941 8        51.250    20243478.022
  20243478.232    82893692.849 8        49.000    20243477.606    79439798.105 9
        55.000

  21534046.232    21534045.472   113162300.455 8        48.250
  21534044.175    88178445.83846        39.750


  21830344.771    21830344.405   114719267.030 7        47.000    21830346.130
  21830345.741    89391642.166 7        45.250    21830346.506    85666994.067 8
        51.000

  23833841.588    23833841.468   125247744.972 6        38.250    23833844.521
  23833845.398    97595626.814 6        38.750    23833842.621    93529140.086 7
        42.750

  20457844.126    20457843.509   107506719.057 8        50.500
  20457842.230    83771466.30947        44.250


  21688923.288                   115614195.903 6        39.000    21688931.132
  21688931.395    89922173.499 6        38.250


  23906833.902    23906833.764   125631271.421 6        36.250    23906831.984
  23906832.498    97894486.191 5        35.500


  22737180.007    22737179.332   119484712.402 7        44.000
  22737178.920    93104984.34944        28.750


  23600645.537    23600644.652   124022248.931 6        40.250
  23600643.659    96640713.06043        21.250


  24462765.795    24462765.684   128552706.769 6        36.750    24462767.852
  24462766.604   100170966.195 5        34.000    24462767.199    95997161.609 6
        40.000

  19527384.896                   104348436.636 8        49.750    19527389.533
  19527389.126    81159921.797 8        48.250


  23481547.514                   125302025.786 7        43.500    23481550.675
  23481550.224    97457153.512 6        37.750


  20181089.471                   107993123.713 8        49.250    20181091.296
  20181090.696    83994656.210 5        33.750


  24506280.166    24506280.059   128781462.101 6        37.250    24506279.294
  24506279.652   100349239.80342        17.000


  22401886.412                   119793108.862 6        38.250    22401888.760
  22401887.861    93172343.882 5        31.750


  22831925.574                   122049717.640 7        42.500    22831929.594
  22831930.398    94927587.183 5        33.000


  20958376.306                   111877319.354 8        49.250    20958379.530
  20958379.820    87015714.420 7        45.750


  20556642.403    20556642.319   108025909.544 8        50.000
  20556641.070    84176046.15647        42.500


 16  2 18  0  1  2.0000000  0 18G26G21G27G10G16R14G31G18G20G08R15R02
                                R17G29R24R01R18G04
  20243593.282    20243593.050   106380833.202 8        51.250    20243595.147
  20243595.505    82894173.052 8        49.000    20243594.892    79440258.298 9
        55.000

  21534333.149    21534332.389   113163808.180 8        48.250
  21534331.079    88179620.68846        39.750


  21829961.039    21829960.668   114717250.427 7        47.000    21829962.644
  21829962.000    89390070.783 7        45.250    21829962.760    85665488.163 8
        51.000

  23833223.042    23833222.926   125244493.865 6        38.500    23833225.989
  23833226.735    97593093.476 6        38.750    23833223.945    93526712.321 7
        42.750

  20457615.023    20457614.406   107505515.275 8        50.500
  20457613.158    83770528.29847        44.250


  21689722.032                   115618453.811 6        39.000    21689730.385
  21689730.313    89925485.207 6        38.000


  23907496.056    23907495.913   125634751.092 6        36.500    23907494.746
  23907494.679    97897197.600 5        35.500


  22736865.357    22736864.682   119483059.295 7        43.750
  22736864.337    93103696.21644        28.750


  23600888.843    23600887.963   124023527.330 6        40.250
  23600886.920    96641709.20743        21.000


  24462245.495    24462245.384   128549973.352 6        36.750    24462246.944
  24462246.438   100168836.280 5        33.750    24462247.194    95995120.412 6
        40.000

  19527682.165                   104350025.497 8        50.000    19527686.909
  19527686.440    81161157.582 8        48.250


  23480892.783                   125298530.491 7        43.500    23480895.677
  23480895.082    97454434.914 6        37.750


  20181468.973                   107995154.264 8        49.500    20181470.726
  20181470.042    83996235.484 5        32.500


  24506818.800    24506818.693   128784293.527 6        37.000    24506818.321
  24506818.482   100351446.11242        17.000


  22402476.331                   119796261.492 6        38.250    22402476.966
  22402477.704    93174795.901 5        31.250


  22831723.939                   122048640.711 7        42.500    22831728.612
  22831728.912    94926749.580 5        33.250


  20957992.403                   111875269.994 8        49.250    20957995.981
  20957995.900    87014120.472 7        45.750


  20556922.031    20556921.947   108027379.302 8        49.750
  20556920.748    84177191.42247        42.500


 16  2 18  0  1  3.0000000  0 18G26G21G27G10G16R14G31G18G20G08R15R02
                                R17G29R24R01R18G04
  20243710.644    20243710.412   106381449.997 8        51.250    20243712.487
  20243712.885    82894653.674 8        49.000    20243712.254    79440718.892 9
        55.000

  21534620.120    21534619.360   113165316.281 8        48.250
  21534618.050    88180795.83446        39.750


  21829577.418    21829577.047   114715234.030 7        47.000    21829578.871
  21829578.294    89388499.560 7        45.500    21829579.073    85663982.416 8
        51.000

  23832604.352    23832604.241   125241242.835 6        39.000    23832607.228
  23832608.113    97590560.201 6        39.000    23832605.283    93524284.603 7
        42.750

  20457386.053    20457385.436   107504311.932 8        50.500
  20457384.162    83769590.62847        44.250


  21690520.561                   115622712.048 6        38.750    21690529.728
  21690529.142    89928797.164 6        37.750


  23908158.173    23908158.021   125638230.802 6        36.000    23908156.166
  23908156.859    97899909.076 5        35.250


  22736550.648    22736549.973   119481406.578 7        43.750
  22736549.808    93102408.38344        28.750


  23601132.282    23601131.406   124024806.303 6        40.500
  23601130.248    96642705.80543        21.500


  24461725.776    24461725.665   128547239.996 6        36.750    24461726.733
  24461726.286   100166706.406 5        33.750    24461727.091    95993079.283 6
        40.000

  19527979.675                   104351615.224 8        50.000    19527984.429
  19527983.964    81162394.030 8        48.250


  23480237.803                   125295035.382 7        43.500    23480240.253
  23480240.222    97451716.517 6        37.500


  20181848.520                   107997185.074 8        49.500    20181850.738
  20181849.464    83997815.020 5        32.750


  24507357.460    24507357.358   128787124.924 6        37.000    24507357.429
  24507357.295   100353652.39742        17.000


  22403065.839                   119799414.112 6        38.500    22403067.109
  22403067.225    93177247.969 5        32.500


  22831522.197                   122047564.536 7        42.500    22831526.924
  22831527.769    94925912.548 5        33.250


  20957608.416                   111873220.992 8        49.000    20957612.396
  20957612.087    87012526.804 7        45.750


  20557201.763    20557201.683   108028849.553 8        49.750
  20557200.519    84178337.07347        42.500


 16  2 18  0  1  4.0000000  0 18G26G21G27G10G16R14G31G18G20G08R15R02
                                R17G29R24R01R18G04
  20243828.141    20243827.909   106382067.326 8        51.250    20243829.956
  20243830.368    82895134.710 8        49.000    20243829.737    79441179.886 9
        55.000

  21534907.190    21534906.430   113166824.742 8        48.250
  21534905.088    88181971.26046        39.750


  21829193.686    21829193.315   114713217.833 7        47.000    21829195.224
  21829194.634    89386928.514 7        45.250    21829195.416    85662476.812 8
        51.000

  23831985.659    23831985.548   125237991.863 6        39.000    23831988.650
  23831989.509    97588026.977 6        39.000    23831986.705    93521856.934 7
        42.750

  20457157.214    20457156.602   107503109.035 8        50.500
  20457155.255    83768653.30647        44.250


  21691319.640                   115626970.632 6        38.750    21691327.930
  21691327.953    89932109.399 6        38.000


  23908820.000    23908819.844   125641710.585 6        36.000    23908818.753
  23908819.052    97902620.570 5        35.000


  22736236.159    22736235.489   119479754.239 7        43.500
  22736235.376    93101120.84844        28.750


  23601375.677    23601374.801   124026085.865 6        40.500
  23601373.745    96643702.87043        21.250


  24461205.740    24461205.629   128544506.717 6        36.500    24461206.509
  24461206.173   100164576.560 5        33.500    24461206.911    95991038.178 6
        40.000

  19528277.347                   104353205.805 8        50.000    19528282.163
  19528281.577    81163631.154 8        48.250


  23479582.696                   125291540.452 7        43.250    23479585.505
  23479585.160    97448998.254 6        37.750


  20182228.112                   107999216.149 8        49.500    20182231.121
  20182228.823    83999394.740 5        32.250


  24507896.608    24507896.506   128789956.313 6        37.250    24507895.661
  24507896.108   100355858.68142        16.250


  22403655.328                   119802566.761 6        38.250    22403657.917
  22403656.522    93179700.031 5        31.500


  22831321.323                   122046489.093 7        43.000    22831325.978
  22831326.331    94925076.101 5        33.250


  20957224.653                   111871172.340 8        49.250    20957228.628
  20957228.400    87010933.411 7        45.750


  20557481.704    20557481.624   108030320.303 8        49.750
  20557480.385    84179483.11147        42.500


 16  2 18  0  1  5.0000000  0 18G26G21G27G10G16R14G31G18G20G08R15R02
                                R17G29R24R01R18G04
  20243945.673    20243945.437   106382685.180 8        51.000    20243947.658
  20243947.940    82895616.152 8        49.000    20243947.292    79441641.267 9
        55.000

  21535194.362    21535193.602   113168333.582 8        48.250
  21535192.206    88183146.98046        39.750


  21828809.953    21828809.587   114711201.857 7        47.000    21828811.590
  21828811.018    89385357.613 7        45.500    21828811.809    85660971.369 8
        51.000

  23831367.162    23831367.055   125234740.993 6        39.500    23831370.194
  23831370.896    97585493.838 6        39.250    23831368.083    93519429.335 7
        42.750

  20456928.450    20456927.833   107501906.582 8        50.500
  20456926.438    83767716.32947        44.250


  21692118.848                   115631229.585 6        38.750    21692126.862
  21692126.795    89935421.894 6        37.750


  23909481.993    23909481.833   125645190.419 5        35.750    23909480.799
  23909481.268    97905332.132 5        35.000


  22735921.625    22735920.955   119478102.306 7        43.500
  22735920.986    93099833.62844        28.750


  23601619.349    23601618.464   124027366.016 6        40.500
  23601617.350    96644700.39143        21.000


  24460685.824    24460685.708   128541773.493 6        36.250    24460686.303
  24460686.025   100162446.775 5        33.250    24460686.754    95988997.152 6
        39.750

  19528575.161                   104354797.260 8        50.000    19528580.067
  19528579.400    81164868.953 8        48.250


  23478927.443                   125288045.679 7        43.000    23478930.336
  23478930.327    97446280.101 6        37.750


  20182607.659                   108001247.490 8        49.250    20182610.641
  20182608.911    84000974.679 5        32.750


  24508435.269    24508435.162   128792787.725 6        37.000    24508433.954
  24508434.929   100358064.96942        16.250


  22404245.157                   119805719.454 6        38.250    22404246.579
  22404246.597    93182152.120 5        31.750


  22831120.547                   122045414.442 7        43.250    22831123.807
  22831125.238    94924240.248 5        33.250


  20956841.014                   111869124.046 8        49.250    20956845.106
  20956844.645    87009340.290 7        45.750


  20557761.753    20557761.673   108031791.553 8        49.750
  20557760.349    84180629.53947        42.500


 16  2 18  0  1  6.0000000  0 18G26G21G27G10G16R14G31G18G20G08R15R02
                                R17G29R24R01R18G04
  20244063.339    20244063.103   106383303.579 8        51.000    20244065.343
  20244065.615    82896098.022 8        49.000    20244064.962    79442103.062 9
        54.750

  21535481.561    21535480.801   113169842.792 8        48.000
  21535479.392    88184322.98646        39.750


  21828426.382    21828426.016   114709186.084 7        47.000    21828427.956
  21828427.446    89383786.878 7        45.250    21828428.211    85659466.092 8
        50.750

  23830748.781    23830748.674   125231490.191 6        39.500    23830752.037
  23830752.296    97582960.731 6        39.500    23830749.434    93517001.787 7
        42.750

  20456699.784    20456699.167   107500704.577 8        50.750
  20456697.705    83766779.70347        44.250


  21692918.218                   115635488.860 6        38.750    21692926.209
  21692925.704    89938734.681 6        38.000


  23910143.784    23910143.619   125648670.281 5        35.750    23910143.002
  23910143.484    97908043.724 5        34.750


  22735607.359    22735606.689   119476450.753 7        43.750
  22735606.657    93098546.70544        28.750


  23601863.191    23601862.302   124028646.761 6        40.500
  23601861.018    96645698.37943        21.250


  24460165.627    24460165.516   128539040.371 6        36.000    24460165.828
  24460165.891   100160317.084 5        33.250    24460166.718    95986956.179 6
        39.750

  19528873.132                   104356389.580 8        50.000    19528877.975
  19528877.430    81166107.423 8        48.250


  23478272.203                   125284551.058 7        43.000    23478275.221
  23478275.243    97443562.046 6        38.000


  20182987.313                   108003279.095 8        49.250    20182990.286
  20182988.529    84002554.826 5        33.000


  24508973.787    24508973.676   128795619.148 6        36.500    24508972.154
  24508973.728   100360271.26642        16.250


  22404834.960                   119808872.146 6        38.500    22404836.132
  22404836.427    93184604.226 5        32.000


  22830920.451                   122044340.544 7        43.250    22830922.674
  22830924.203    94923404.995 5        33.250


  20956457.376                   111867076.111 8        49.250    20956461.539
  20956461.007    87007747.454 7        45.750


  20558041.891    20558041.811   108033263.312 8        49.750
  20558040.415    84181776.36247        42.500


 16  2 18  0  1  7.0000000  0 18G26G21G27G10G16R14G31G18G20G08R15R02
                                R17G29R24R01R18G04
  20244181.117    20244180.885   106383922.519 8        51.000    20244183.237
  20244183.398    82896580.313 8        49.000    20244182.745    79442565.257 9
        54.750

  21535768.769    21535768.009   113171352.371 8        48.000
  21535766.644    88185499.28146        39.750


  21828042.851    21828042.485   114707170.509 7        47.000    21828044.349
  21828043.906    89382216.305 7        45.250    21828044.653    85657960.954 8
        50.750

  23830130.459    23830130.352   125228239.447 6        39.500    23830133.441
  23830133.732    97580427.705 6        39.750    23830130.874    93514574.289 7
        43.000

  20456471.097    20456470.480   107499503.017 8        50.500
  20456469.062    83765843.42247        44.250


  21693717.735                   115639748.494 6        38.750    21693725.006
  21693724.935    89942047.730 6        38.000


  23910805.964    23910805.795   125652150.184 5        35.750    23910804.828
  23910805.687    97910755.343 5        34.750


  22735293.219    22735292.553   119474799.583 7        44.000
  22735292.428    93097260.08444        28.750


  23602107.208    23602106.328   124029928.089 6        40.500
  23602104.753    96646696.81743        21.000


  24459645.103    24459644.983   128536307.312 6        36.000    24459646.351
  24459645.810   100158187.433 5        32.750    24459646.601    95984915.261 6
        39.750

  19529171.287                   104357982.756 8        50.000    19529176.264
  19529175.620    81167346.559 8        48.250


  23477617.311                   125281056.606 7        42.750    23477620.508
  23477620.486    97440844.153 6        37.500


  20183366.985                   108005310.950 8        49.250    20183369.771
  20183368.537    84004135.140 5        33.250


  24509512.608    24509512.492   128798450.568 6        36.500    24509511.544
  24509512.501   100362477.55642        16.500


  22405424.432                   119812024.850 6        38.750    22405426.659
  22405426.068    93187056.289 5        31.750


  22830719.809                   122043267.396 7        43.250    22830722.837
  22830723.651    94922570.316 5        33.000


  20956073.890                   111865028.548 8        49.250    20956077.650
  20956077.467    87006154.905 7        46.000


  20558322.096    20558322.016   108034735.560 8        49.750
  20558320.567    84182923.56947        42.500


 16  2 18  0  1  8.0000000  0 18G26G21G27G10G16R14G31G18G20G08R15R02
                                R17G29R24R01R18G04
  20244298.971    20244298.735   106384541.980 8        51.000    20244301.154
  20244301.279    82897063.009 8        49.000    20244300.648    79443027.843 9
        55.000

  21536056.097    21536055.342   113172862.336 8        48.000
  21536053.982    88186675.87646        40.000


  21827659.365    21827658.999   114705155.146 7        47.000    21827660.733
  21827660.411    89380645.894 7        45.250    21827661.162    85656455.977 8
        51.000

  23829512.091    23829511.984   125224988.793 6        40.000    23829515.235
  23829515.159    97577894.725 6        40.000    23829512.360    93512146.862 7
        42.750

  20456242.574    20456241.957   107498301.902 8        50.750
  20456240.495    83764907.49047        44.250


  21694517.167                   115644008.472 6        39.250    21694524.107
  21694523.942    89945361.033 6        38.250


  23911468.422    23911468.257   125655630.149 5        35.750    23911467.344
  23911467.863    97913466.994 5        34.750


  22734979.289    22734978.623   119473148.823 7        44.000
  22734978.287    93095973.77944        28.750


  23602351.278    23602350.402   124031210.005 6        40.750
  23602348.635    96647695.71043        21.000


  24459124.763    24459124.643   128533574.299 6        36.000    24459126.578
  24459125.711   100156057.795 5        33.250    24459126.583    95982874.386 6
        39.500

  19529469.584                   104359576.791 8        50.000    19529474.552
  19529473.935    81168586.360 8        48.250


  23476962.276                   125277562.387 7        42.750    23476965.840
  23476965.648    97438126.414 6        37.500


  20183746.684                   108007343.067 8        49.250    20183748.982
  20183748.383    84005715.699 5        33.000


  24510051.448    24510051.346   128801281.961 6        36.500    24510049.395
  24510051.278   100364683.84042        16.500


  22406014.690                   119815177.569 6        39.000    22406016.747
  22406015.768    93189508.431 5        31.750


  22830519.025                   122042195.026 7        43.000    22830522.597
  22830522.982    94921736.255 5        32.500


  20955690.215                   111862981.371 8        49.250    20955694.083
  20955693.931    87004562.657 7        45.750


  20558602.351    20558602.271   108036208.317 8        49.750
  20558600.817    84184071.17247        42.500


 16  2 18  0  1  9.0000000  0 18G26G21G27G10G16R14G31G18G20G08R15R02
                                R17G29R24R01R18G04
  20244416.893    20244416.657   106385161.989 8        51.000    20244419.070
  20244419.263    82897546.134 8        49.000    20244418.645    79443490.836 9
        54.750

  21536343.435    21536342.680   113174372.669 8        48.000
  21536341.387    88187852.76046        39.750


  21827275.990    21827275.619   114703139.989 7        47.000    21827277.282
  21827276.943    89379075.649 7        45.500    21827277.703    85654951.152 8
        50.750

  23828893.621    23828893.519   125221738.223 6        39.750    23828896.921
  23828896.617    97575361.821 6        40.250    23828893.903    93509719.487 7
        42.750

  20456014.048    20456013.431   107497101.242 8        50.500
  20456012.013    83763971.90947        44.250


  21695316.313                   115648268.775 6        39.250    21695323.276
  21695323.271    89948674.619 6        37.500


  23912130.611    23912130.451   125659110.149 6        36.000    23912128.330
  23912130.039    97916178.674 5        34.750


  22734665.439    22734664.778   119471498.451 7        44.000
  22734664.214    93094687.77644        28.750


  23602595.129    23602594.258   124032492.510 6        40.500
  23602592.678    96648695.06043        21.000


  24458604.646    24458604.526   128530841.372 6        36.000    24458606.336
  24458605.616   100153928.251 5        33.000    24458606.538    95980833.554 6
        39.750

  19529767.980                   104361171.684 8        50.000    19529772.868
  19529772.398    81169826.834 8        48.250


  23476307.304                   125274068.401 7        42.750    23476310.676
  23476310.953    97435408.863 6        37.750


  20184126.418                   108009375.442 8        49.250    20184127.340
  20184128.212    84007296.440 5        33.500


  24510590.703    24510590.605   128804113.383 6        37.250    24510587.913
  24510590.050   100366890.13342        16.750


  22406604.672                   119818330.319 6        39.000    22406604.502
  22406605.083    93191960.584 5        32.000


  22830318.459                   122041123.393 7        43.000    22830321.911
  22830322.537    94920902.764 5        33.250


  20955306.640                   111860934.578 8        49.000    20955310.669
  20955310.597    87002970.706 7        46.000


  20558882.672    20558882.592   108037681.576 8        50.000
  20558881.165    84185219.16547        42.500


 16  2 18  0  1 10.0000000  0 18G26G21G27G10G16R14G31G18G20G08R15R02
                                R17G29R24R01R18G04
  20244534.957    20244534.725   106385782.535 8        51.250    20244537.050
  20244537.345    82898029.678 8        49.000    20244536.728    79443954.229 9
        54.750

  21536630.844    21536630.084   113175883.388 8        48.000
  21536628.858    88189029.94246        39.750


  21826892.629    21826892.258   114701125.050 7        47.250    21826893.962
  21826893.528    89377505.558 7        45.500    21826894.266    85653446.492 8
        51.000

  23828275.272    23828275.170   125218487.738 6        40.000    23828278.366
  23828278.089    97572828.982 6        40.250    23828275.428    93507292.172 7
        42.750

  20455785.615    20455784.998   107495901.030 8        50.500
  20455783.616    83763036.68047        44.250


  21696115.576                   115652529.467 6        39.000    21696123.003
  21696122.476    89951988.477 6        37.750


  23912793.408    23912793.248   125662590.204 5        35.750    23912790.792
  23912792.281    97918890.416 5        34.750


  22734351.620    22734350.963   119469848.483 7        44.000
  22734350.266    93093402.08144        28.750


  23602839.212    23602838.341   124033775.614 6        40.500
  23602836.842    96649694.87343        21.000


  24458084.368    24458084.243   128528108.511 5        35.750    24458085.889
  24458085.517   100151798.744 5        32.750    24458086.524    95978792.783 6
        39.500

  19530066.591                   104362767.438 8        50.000    19530071.366
  19530070.982    81171067.977 8        48.250


  23475652.538                   125270574.592 7        42.500    23475656.581
  23475656.276    97432691.462 6        37.750


  20184506.198                   108011408.082 8        49.250    20184506.591
  20184507.781    84008877.377 5        33.250


  24511129.636    24511129.538   128806944.800 6        37.500    24511127.347
  24511128.867   100369096.44242        16.750


  22407193.804                   119821483.102 6        39.000    22407194.251
  22407194.371    93194412.717 5        31.500


  22830118.130                   122040052.525 7        43.000    22830121.632
  22830122.007    94920069.877 5        34.000


  20954923.211                   111858888.147 8        49.000    20954926.994
  20954927.254    87001379.037 7        46.000


  20559163.141    20559163.061   108039155.347 8        50.000
  20559161.608    84186367.55947        42.500


 16  2 18  0  1 11.0000000  0 18G26G21G27G10G16R14G31G18G20G08R15R02
                                R17G29R24R01R18G04
  20244653.146    20244652.910   106386403.611 8        51.250    20244655.199
  20244655.530    82898513.638 8        49.000    20244654.908    79444418.021 9
        54.750

  21536918.414    21536917.654   113177394.473 8        48.000
  21536916.410    88190207.41246        39.750


  21826509.183    21826508.812   114699110.311 7        47.250    21826510.453
  21826510.144    89375935.635 7        45.500    21826510.904    85651941.980 8
        50.750

  23827656.703    23827656.601   125215237.320 6        40.000    23827659.789
  23827659.588    97570296.181 6        40.250    23827656.931    93504864.919 7
        42.750

  20455557.307    20455556.690   107494701.261 8        50.750
  20455555.304    83762101.79447        44.250


  21696915.021                   115656790.468 6        39.250    21696922.257
  21696921.912    89955302.586 6        38.000


  23913455.562    23913455.393   125666070.322 6        36.250    23913453.344
  23913454.542    97921602.193 5        34.750


  22734037.695    22734037.043   119468198.897 7        44.250
  22734036.362    93092116.69144        28.750


  23603083.475    23603082.604   124035059.302 6        40.500
  23603081.145    96650695.15143        21.000


  24457563.938    24457563.813   128525375.704 5        35.750    24457565.199
  24457565.481   100149669.295 5        33.000    24457566.402    95976752.051 6
        39.500

  19530365.501                   104364364.041 8        50.000    19530370.129
  19530369.735    81172309.784 8        48.250


  23474998.219                   125267080.917 7        42.500    23475002.181
  23475001.568    97429974.169 6        37.750


  20184886.147                   108013440.984 8        49.500    20184887.372
  20184887.346    84010458.542 5        33.000


  24511668.923    24511668.821   128809776.216 6        37.750    24511666.088
  24511667.675   100371302.72242        16.500


  22407782.904                   119824635.887 6        38.750    22407783.722
  22407783.803    93196864.901 5        31.250


  22829918.106                   122038982.408 7        42.750    22829922.152
  22829921.741    94919237.557 5        32.500


  20954539.975                   111856842.063 8        49.000    20954543.575
  20954543.919    86999787.641 7        46.000


  20559443.713    20559443.633   108040629.610 8        50.000
  20559442.144    84187516.33547        42.500


 16  2 18  0  1 12.0000000  0 18G26G21G27G10G16R14G31G18G20G08R15R02
                                R17G29R24R01R18G04
  20244771.474    20244771.242   106387025.230 8        51.250    20244773.375
  20244773.822    82898998.012 8        49.000    20244773.183    79444882.214 9
        54.750

  21537206.015    21537205.255   113178905.939 8        48.000
  21537204.034    88191385.17646        39.750


  21826125.942    21826125.576   114697095.788 7        47.250    21826127.074
  21826126.806    89374365.875 7        45.500    21826127.575    85650437.627 8
        50.750

  23827038.001    23827037.894   125211986.974 6        40.000    23827041.341
  23827041.113    97567763.463 6        40.500    23827038.546    93502437.717 7
        42.750

  20455329.129    20455328.512   107493501.943 8        50.750
  20455327.081    83761167.26047        44.250


  21697714.481                   115661051.820 6        39.250    21697721.438
  21697721.331    89958616.981 6        38.000


  23914118.033    23914117.864   125669550.460 6        36.000    23914115.792
  23914116.772    97924313.994 5        35.000


  22733723.943    22733723.291   119466549.703 7        44.000
  22733722.503    93090831.60344        28.500


  23603327.809    23603326.942   124036343.587 6        40.500
  23603325.497    96651695.90343        21.000


  24457044.068    24457043.943   128522642.975 5        35.750    24457045.051
  24457045.463   100147539.878 5        32.750    24457046.335    95974711.381 6
        39.500

  19530664.487                   104365961.498 8        50.000    19530669.204
  19530668.677    81173552.250 8        48.500


  23474342.894                   125263587.428 7        42.250    23474346.458
  23474347.030    97427257.001 6        37.500


  20185266.007                   108015474.162 8        49.250    20185267.903
  20185266.821    84012039.860 5        33.000


  24512207.861    24512207.763   128812607.636 6        38.000    24512205.527
  24512206.501   100373509.03242        16.500


  22408372.590                   119827788.697 6        38.750    22408372.796
  22408373.243    93199317.067 5        31.250


  22829718.126                   122037913.051 7        43.000    22829722.262
  22829721.645    94918405.844 5        33.500


  20954156.856                   111854796.345 8        49.000    20954160.268
  20954160.724    86998196.523 7        46.000


  20559724.308    20559724.232   108042104.378 8        50.000
  20559722.774    84188665.50547        42.250


 16  2 18  0  1 13.0000000  0 18G26G21G27G10G16R14G31G18G20G08R15R02
                                R17G29R24R01R18G04
  20244889.905    20244889.669   106387647.382 8        51.250    20244891.716
  20244892.208    82899482.803 8        48.750    20244891.564    79445346.805 9
        54.750

  21537493.764    21537493.009   113180417.780 8        48.000
  21537491.725    88192563.23546        39.750


  21825742.617    21825742.251   114695081.477 7        47.250    21825743.596
  21825743.503    89372796.278 7        45.500    21825744.325    85648933.431 8
        51.000

  23826419.566    23826419.459   125208736.736 6        40.000    23826423.032
  23826422.620    97565230.812 6        40.750    23826420.036    93500010.582 7
        42.750

  20455101.050    20455100.433   107492303.069 8        50.750
  20455098.948    83760233.07247        44.250


  21698514.047                   115665313.523 6        39.250    21698520.321
  21698520.786    89961931.614 6        37.500


  23914780.418    23914780.240   125673030.652 6        36.000    23914778.308
  23914779.068    97927025.827 5        34.750


  22733410.268    22733409.616   119464900.906 7        44.000
  22733408.734    93089546.82544        28.500


  23603572.080    23603571.213   124037628.451 6        40.500
  23603569.961    96652697.09343        21.000


  24456524.027    24456523.916   128519910.305 5        35.750    24456525.427
  24456525.427   100145410.547 5        33.250    24456526.294    95972670.757 6
        39.500

  19530963.674                   104367559.820 8        50.000    19530968.481
  19530967.757    81174795.385 8        48.250


  23473688.181                   125260094.118 7        42.250    23473691.405
  23473692.246    97424539.985 6        37.000


  20185646.153                   108017507.598 8        49.250    20185647.495
  20185647.038    84013621.451 5        33.000


  24512746.745    24512746.643   128815439.037 6        37.750    24512745.265
  24512745.242   100375715.31342        16.500


  22408962.026                   119830941.527 6        38.750    22408962.500
  22408963.010    93201769.274 5        31.000


  22829517.945                   122036844.455 7        42.750    22829522.474
  22829521.830    94917574.692 5        33.250


  20953773.548                   111852750.993 8        48.750    20953777.416
  20953777.506    86996605.691 7        46.000


  20560005.027    20560004.947   108043579.644 8        50.000
  20560003.507    84189815.06447        42.250


 16  2 18  0  1 14.0000000  0 18G26G21G27G10G16R14G31G18G20G08R15R02
                                R17G29R24R01R18G04
  20245008.444    20245008.208   106388270.064 8        51.250    20245010.205
  20245010.702    82899968.011 8        48.750    20245010.044    79445811.798 9
        54.750

  21537781.553    21537780.798   113181929.988 8        48.000
  21537779.487    88193741.57946        39.750


  21825359.274    21825358.908   114693067.364 7        47.000    21825360.316
  21825360.240    89371226.838 7        45.500    21825361.049    85647429.383 8
        51.000

  23825800.841    23825800.730   125205486.545 6        40.000    23825804.642
  23825804.159    97562698.195 6        40.750    23825801.575    93497583.496 7
        43.000

  20454872.997    20454872.385   107491104.645 8        50.750
  20454870.900    83759299.23647        44.250


  21699313.622                   115669575.550 6        39.250    21699319.574
  21699320.160    89965246.529 6        37.500


  23915442.670    23915442.487   125676510.888 6        36.000    23915440.600
  23915441.356    97929737.695 5        34.750


  22733096.494    22733095.842   119463252.493 7        44.000
  22733095.023    93088262.34544        28.500


  23603816.664    23603815.801   124038913.912 6        40.500
  23603814.505    96653698.74243        21.000


  24456004.049    24456003.942   128517177.722 5        35.250    24456005.743
  24456005.430   100143281.276 5        32.750    24456006.347    95970630.189 6
        39.250

  19531263.125                   104369158.995 8        50.250    19531267.771
  19531267.007    81176039.188 8        48.500


  23473033.934                   125256600.993 7        42.500    23473037.274
  23473037.739    97421823.111 6        37.000


  20186026.165                   108019541.294 8        49.250    20186026.344
  20186026.939    84015203.215 5        32.500


  24513285.540    24513285.429   128818270.455 6        38.000    24513283.970
  24513284.006   100377921.61442        16.750


  22409551.578                   119834094.369 6        38.750    22409553.197
  22409552.656    93204221.484 5        31.250


  22829317.974                   122035776.608 7        42.750    22829321.877
  22829322.575    94916744.144 5        33.500


  20953390.505                   111850706.014 8        49.000    20953394.449
  20953394.377    86995015.148 7        46.000


  20560285.885    20560285.805   108045055.412 8        50.000
  20560284.338    84190965.01247        42.250


 16  2 18  0  1 15.0000000  0 18G26G21G27G10G16R14G31G18G20G08R15R02
                                R17G29R24R01R18G04
  20245127.053    20245126.817   106388893.275 8        51.250    20245128.891
  20245129.285    82900453.638 8        49.000    20245128.623    79446277.189 9
        54.750

  21538069.356    21538068.596   113183442.577 8        48.000
  21538067.317    88194920.22046        39.750


  21824976.065    21824975.694   114691053.449 7        47.000    21824977.066
  21824977.022    89369657.561 7        45.500    21824977.840    85645925.488 8
        51.000

  23825182.492    23825182.385   125202236.435 6        40.000    23825186.235
  23825185.694    97560165.658 6        40.750    23825183.136    93495156.473 7
        42.750

  20454645.002    20454644.385   107489906.658 8        50.750
  20454642.932    83758365.73947        44.250


  21700113.797                   115673837.920 6        39.250    21700119.096
  21700119.802    89968561.707 6        37.250


  23916104.882    23916104.699   125679991.164 5        35.500    23916102.641
  23916103.616    97932449.610 5        34.750


  22732782.787    22732782.130   119461604.475 7        44.000
  22732781.428    93086978.17644        28.500


  23604061.459    23604060.601   124040199.935 6        40.500
  23604059.174    96654700.84143        20.750


  24455484.084    24455483.964   128514445.192 5        35.500    24455485.962
  24455485.439   100141152.029 5        32.500    24455486.288    95968589.681 6
        39.250

  19531562.661                   104370759.023 8        50.000    19531567.209
  19531566.400    81177283.661 8        48.500


  23472379.713                   125253108.069 7        42.750    23472383.277
  23472383.174    97419106.390 6        37.500


  20186406.204                   108021575.243 8        49.250    20186407.469
  20186407.170    84016785.157 5        32.250


  24513824.173    24513824.048   128821101.865 6        38.000    24513822.456
  24513822.805   100380127.92442        16.500


  22410141.274                   119837247.238 6        38.750    22410143.635
  22410142.070    93206673.733 5        31.250


  22829118.280                   122034709.513 7        42.750    22829122.434
  22829122.939    94915914.202 5        33.500


  20953007.591                   111848661.367 8        49.000    20953011.477
  20953011.338    86993424.878 7        46.000


  20560566.775    20560566.695   108046531.675 8        50.000
  20560565.259    84192115.34647        42.250


 16  2 18  0  1 16.0000000  0 18G26G21G27G10G16R14G31G18G20G08R15R02
                                R17G29R24R01R18G04
  20245245.699    20245245.463   106389517.040 8        51.250    20245247.577
  20245247.979    82900939.689 8        48.750    20245247.300    79446742.986 9
        54.750

  21538357.270    21538356.510   113184955.540 8        48.000
  21538355.218    88196099.15346        39.750


  21824592.824    21824592.458   114689039.753 7        47.250    21824593.933
  21824593.844    89368088.445 7        45.500    21824594.649    85644421.756 8
        50.750

  23824563.946    23824563.835   125198986.415 6        40.000    23824567.894
  23824567.268    97557633.159 6        40.750    23824564.773    93492729.516 7
        43.000

  20454417.070    20454416.453   107488709.128 8        50.750
  20454415.049    83757432.59947        44.250


  21700913.207                   115678100.633 6        39.250    21700918.456
  21700919.207    89971877.153 6        37.500


  23916766.901    23916766.714   125683471.506 5        35.500    23916765.399
  23916765.877    97935161.560 5        34.750


  22732469.309    22732468.657   119459956.850 7        43.750
  22732467.891    93085694.31244        28.500


  23604306.204    23604305.346   124041486.578 6        40.750
  23604304.040    96655703.42143        20.750


  24454964.244    24454964.133   128511712.750 5        35.500    24454966.073
  24454965.447   100139022.838 5        32.750    24454966.275    95966549.226 6
        39.250

  19531862.309                   104372359.923 8        50.000    19531866.785
  19531866.048    81178528.798 8        48.500


  23471725.188                   125249615.319 7        42.500    23471728.645
  23471728.426    97416389.804 6        37.250


  20186786.314                   108023609.455 8        49.250    20186787.329
  20186787.468    84018367.330 5        33.250


  24514362.503    24514362.369   128823933.309 6        37.750    24514361.206
  24514361.569   100382334.24042        16.000


  22410730.790                   119840400.136 6        38.750    22410731.487
  22410731.523    93209125.959 5        31.000


  22828919.029                   122033643.192 7        43.000    22828923.058
  22828923.635    94915084.848 5        34.000


  20952624.695                   111846617.090 8        48.750    20952628.491
  20952628.419    86991834.888 7        46.250


  20560847.789    20560847.709   108048008.444 8        50.000
  20560846.274    84193266.07647        42.250


 16  2 18  0  1 17.0000000  0 18G26G21G27G10G16R14G31G18G20G08R15R02
                                R17G29R24R01R18G04
  20245364.514    20245364.282   106390141.335 8        51.250    20245366.473
  20245366.768    82901426.152 8        48.750    20245366.124    79447209.178 9
        54.750

  21538645.287    21538644.527   113186468.879 8        48.000
  21538643.199    88197278.37946        39.750


  21824209.651    21824209.285   114687026.251 7        47.000    21824210.845
  21824210.711    89366519.488 7        45.500    21824211.520    85642918.165 8
        51.000

  23823945.744    23823945.633   125195736.475 6        40.000    23823949.460
  23823948.870    97555100.743 6        40.750    23823946.419    93490302.599 7
        43.000

  20454189.362    20454188.745   107487512.040 8        50.750
  20454187.256    83756499.80447        44.250


  21701712.379                   115682363.661 6        39.250    21701719.024
  21701718.854    89975192.864 6        37.750


  23917428.558    23917428.362   125686951.892 5        35.000    23917427.521
  23917428.147    97937873.522 5        34.750


  22732155.629    22732154.977   119458309.612 7        43.750
  22732154.399    93084410.75144        28.500


  23604551.549    23604550.695   124042773.810 6        40.500
  23604548.964    96656706.46243        21.000


  24454444.298    24454444.182   128508980.376 5        35.250    24454446.386
  24454445.492   100136893.725 5        32.500    24454446.399    95964508.806 6
        39.750

  19532162.015                   104373961.687 8        50.250    19532166.500
  19532165.870    81179774.617 8        48.500


  23471070.905                   125246122.737 7        42.750    23471073.834
  23471073.811    97413673.358 6        37.500


  20187166.536                   108025643.913 8        49.500    20187169.040
  20187167.801    84019949.688 5        32.750


  24514901.083    24514900.945   128826764.709 6        37.500    24514899.947
  24514900.341   100384540.52242        16.000


  22411319.886                   119843553.059 6        38.750    22411320.655
  22411321.433    93211578.253 5        31.500


  22828719.925                   122032577.638 7        43.000    22828724.563
  22828724.053    94914256.065 5        33.500


  20952241.700                   111844573.196 8        49.000    20952245.693
  20952245.523    86990245.192 7        46.250


  20561128.916    20561128.836   108049485.711 8        50.000
  20561127.387    84194417.19347        42.250


 16  2 18  0  1 18.0000000  0 18G26G21G27G10G16R14G31G18G20G08R15R02
                                R17G29R24R01R18G04
  20245483.468    20245483.232   106390766.163 8        51.250    20245485.347
  20245485.660    82901913.025 8        48.750    20245485.025    79447675.768 9
        54.750

  21538933.367    21538932.607   113187982.600 8        48.000
  21538931.243    88198457.90146        39.750


  21823826.549    21823826.183   114685012.976 7        47.000    21823827.779
  21823827.609    89364950.697 7        45.500    21823828.441    85641414.745 8
        50.750

  23823327.252    23823327.136   125192486.625 6        39.750    23823330.941
  23823330.476    97552568.390 6        40.750    23823327.949    93487875.746 7
        43.000

  20453961.729    20453961.112   107486315.403 8        50.750
  20453959.547    83755567.35847        44.250


  21702511.973                   115686627.071 6        39.000    21702518.917
  21702518.863    89978508.842 6        37.750


  23918090.251    23918090.059   125690432.319 5        35.250    23918089.710
  23918090.416    97940585.538 5        35.000


  22731842.141    22731841.489   119456662.778 7        43.750
  22731841.001    93083127.50444        28.500


  23604796.580    23604795.726   124044061.620 6        40.750
  23604794.000    96657709.95143        21.000


  24453924.163    24453924.043   128506248.050 5        35.500    24453925.929
  24453925.558   100134764.636 5        33.000    24453926.533    95962468.417 6
        39.500

  19532461.967                   104375564.309 8        50.250    19532466.408
  19532465.844    81181021.103 8        48.500


  23470416.264                   125242630.355 7        42.500    23470419.363
  23470419.219    97410957.043 6        37.000


  20187546.843                   108027678.629 8        49.250    20187549.919
  20187548.028    84021532.223 5        32.750


  24515440.061    24515439.923   128829596.137 6        37.500    24515439.131
  24515439.113   100386746.83342        16.000


  22411909.671                   119846705.990 6        38.500    22411909.371
  22411911.128    93214030.524 5        32.000


  22828520.665                   122031512.832 7        43.000    22828524.314
  22828524.413    94913427.855 5        33.500


  20951859.050                   111842529.680 8        48.750    20951862.739
  20951862.690    86988655.787 7        46.250


  20561410.069    20561409.989   108050963.481 8        50.000
  20561408.598    84195568.70147        42.250


 16  2 18  0  1 19.0000000  0 18G26G21G27G10G16R14G31G18G20G08R15R02
                                R17G29R24R01R18G04
  20245602.494    20245602.258   106391391.518 8        51.250    20245604.332
  20245604.654    82902400.318 8        48.750    20245604.032    79448142.757 9
        54.750

  21539221.501    21539220.746   113189496.655 8        48.000
  21539219.345    88199637.68446        39.750


  21823443.380    21823443.014   114682999.893 7        47.000    21823444.735
  21823444.543    89363382.066 7        45.500    21823445.375    85639911.472 8
        51.000

  23822708.723    23822708.607   125189236.825 6        39.750    23822712.260
  23822712.108    97550036.084 6        40.750    23822709.542    93485448.963 7
        43.000

  20453734.137    20453733.520   107485119.208 8        50.750
  20453731.915    83754635.25747        44.250


  21703312.084                   115690890.804 6        38.750    21703318.430
  21703318.770    89981825.071 6        37.500


  23918752.798    23918752.611   125693912.791 5        35.000    23918751.957
  23918752.699    97943297.603 5        34.750


  22731528.855    22731528.203   119455016.316 7        43.750
  22731527.719    93081844.55144        28.500


  23605042.054    23605041.200   124045350.017 6        40.750
  23605039.143    96658713.90043        20.750


  24453404.511    24453404.400   128503515.779 5        35.250    24453406.067
  24453405.643   100132635.616 5        33.000    24453406.725    95960428.110 6
        39.750

  19532762.076                   104377167.796 8        50.250    19532766.641
  19532765.912    81182268.256 8        48.500


  23469761.918                   125239138.162 7        42.500    23469764.136
  23469764.780    97408240.893 6        37.500


  20187927.052                   108029713.587 8        49.250    20187929.645
  20187928.219    84023114.996 5        33.000


  24515978.954    24515978.816   128832427.554 6        37.500    24515978.302
  24515977.872   100388953.12042        16.250


  22412499.254                   119849858.931 6        38.750    22412499.487
  22412500.783    93216482.863 5        32.000


  22828321.580                   122030448.762 7        42.750    22828325.448
  22828325.278    94912600.270 5        33.500


  20951476.225                   111840486.524 8        48.750    20951480.004
  20951479.955    86987066.669 7        46.000


  20561691.263    20561691.183   108052441.746 8        50.000
  20561689.903    84196720.59647        42.250


 16  2 18  0  1 20.0000000  0 18G26G21G27G10G16R14G31G18G20G08R15R02
                                R17G29R24R01R18G04
  20245721.596    20245721.360   106392017.421 8        51.250    20245723.398
  20245723.756    82902888.038 8        48.750    20245723.143    79448610.150 9
        54.750

  21539509.634    21539508.874   113191011.097 8        48.000
  21539507.528    88200817.76846        39.750


  21823060.395    21823060.029   114680987.020 7        47.000    21823061.741
  21823061.517    89361813.587 7        45.750    21823062.309    85638408.349 8
        51.000

  23822090.396    23822090.285   125185987.114 6        39.750    23822093.647
  23822093.759    97547503.847 6        40.750    23822091.121    93483022.232 7
        43.000

  20453506.599    20453505.982   107483923.457 8        50.750
  20453504.376    83753703.50347        44.250


  21704112.205                   115695154.886 6        38.750    21704118.220
  21704118.761    89985141.587 6        37.750


  23919415.206    23919415.023   125697393.305 5        35.000    23919413.753
  23919415.032    97946009.671 5        34.750


  22731215.560    22731214.908   119453370.264 7        43.500
  22731214.518    93080561.91444        28.500


  23605287.506    23605286.657   124046639.004 6        41.000
  23605284.434    96659718.30843        21.000


  24452884.904    24452884.806   128500783.583 5        35.500    24452886.720
  24452885.696   100130506.628 5        32.750    24452886.800    95958387.819 6
        39.500

  19533062.278                   104378772.142 8        50.250    19533066.808
  19533066.092    81183516.074 8        48.500


  23469107.903                   125235646.112 7        42.500    23469109.906
  23469110.291    97405524.865 6        37.750


  20188307.323                   108031748.825 8        49.250    20188309.603
  20188308.785    84024697.956 5        32.500


  24516517.615    24516517.472   128835258.990 6        37.500    24516516.220
  24516516.667   100391159.42442        16.250


  22413089.066                   119853011.854 6        38.250    22413090.671
  22413090.170    93218935.107 5        30.750


  22828122.253                   122029385.455 7        42.750    22828126.541
  22828126.608    94911773.282 5        33.750


  20951093.294                   111838443.718 8        48.750    20951097.314
  20951097.260    86985477.823 7        46.250


  20561972.648    20561972.568   108053920.516 8        50.000
  20561971.302    84197872.88247        42.250


 16  2 18  0  1 21.0000000  0 18G26G21G27G10G16R14G31G18G20G08R15R02
                                R17G29R24R01R18G04
  20245840.733    20245840.501   106392643.854 8        51.250    20245842.638
  20245842.956    82903376.165 8        48.750    20245842.339    79449077.941 9
        54.750

  21539797.879    21539797.119   113192525.906 8        48.000
  21539795.778    88201998.13846        39.750


  21822677.472    21822677.101   114678974.350 7        47.250    21822678.800
  21822678.527    89360245.278 7        45.750    21822679.328    85636905.384 8
        51.000

  23821471.644    23821471.533   125182737.477 6        39.500    23821475.123
  23821475.383    97544971.665 6        40.500    23821472.820    93480595.554 7
        43.250

  20453279.083    20453278.466   107482728.155 8        50.500
  20453276.918    83752772.09647        44.250


  21704911.790                   115699419.291 6        38.750    21704919.101
  21704918.814    89988458.355 6        37.750


  23920077.283    23920077.100   125700873.867 5        34.750    23920076.000
  23920077.359    97948721.822 5        35.000


  22730902.408    22730901.756   119451724.598 7        43.500
  22730901.370    93079279.57644        28.500


  23605532.851    23605532.002   124047928.576 6        41.000
  23605529.864    96660723.16943        20.750


  24452364.868    24452364.761   128498051.458 5        35.500    24452367.086
  24452365.794   100128377.694 5        32.500    24452366.818    95956347.591 6
        39.500

  19533362.485                   104380377.343 8        50.000    19533367.256
  19533366.487    81184764.566 8        48.500


  23468453.405                   125232154.243 7        42.000    23468454.755
  23468455.739    97402808.970 6        37.250


  20188687.541                   108033784.314 8        49.250    20188689.808
  20188689.137    84026281.108 5        33.000


  24517056.624    24517056.481   128838090.396 6        37.750    24517054.711
  24517055.466   100393365.72042        16.000


  22413678.537                   119856164.801 6        38.500    22413680.876
  22413679.700    93221387.396 5        31.750


  22827923.270                   122028322.921 7        42.750    22827927.469
  22827927.804    94910946.855 5        33.500


  20950710.733                   111836401.266 8        49.000    20950714.547
  20950714.637    86983889.251 7        46.000


  20562254.164    20562254.084   108055399.779 8        50.000
  20562252.791    84199025.55647        42.250


 16  2 18  0  1 22.0000000  0 18G26G21G27G10G16R14G31G18G20G08R15R02
                                R17G29R24R01R18G04
  20245959.987    20245959.751   106393270.817 8        51.250    20245961.852
  20245962.250    82903864.709 8        48.750    20245961.646    79449546.129 9
        54.750

  21540086.214    21540085.459   113194041.092 8        48.000
  21540084.099    88203178.80346        39.750


  21822294.531    21822294.160   114676961.880 7        47.250    21822295.998
  21822295.577    89358677.120 7        45.500    21822296.396    85635402.568 8
        51.000

  23820853.165    23820853.049   125179487.929 6        39.500    23820856.568
  23820857.060    97542439.546 6        40.500    23820854.507    93478168.945 7
        43.250

  20453051.683    20453051.066   107481533.296 8        50.500
  20453049.550    83751841.03747        44.250


  21705711.736                   115703684.055 6        38.750    21705718.980
  21705718.877    89991775.381 6        38.250


  23920739.262    23920739.084   125704354.476 5        35.250    23920739.231
  23920739.683    97951433.968 5        34.750


  22730589.161    22730588.509   119450079.329 7        43.500
  22730588.258    93077997.54944        28.500


  23605778.464    23605777.610   124049218.747 6        41.000
  23605775.369    96661728.49343        21.000


  24451844.912    24451844.801   128495319.375 5        35.250    24451847.251
  24451845.914   100126248.829 5        32.500    24451847.009    95954307.412 6
        39.500

  19533662.969                   104381983.399 8        50.000    19533667.705
  19533667.002    81186013.719 8        48.500


  23467798.486                   125228662.571 6        41.500    23467800.552
  23467801.277    97400093.234 6        36.750


  20189067.964                   108035820.086 8        49.250    20189070.124
  20189069.350    84027864.487 5        33.250


  24517595.339    24517595.192   128840921.819 6        37.750    24517593.094
  24517594.243   100395572.03342        16.000


  22414268.653                   119859317.769 6        38.500    22414270.526
  22414269.547    93223839.717 5        31.500


  22827724.735                   122027261.158 7        42.500    22827728.598
  22827729.166    94910120.998 5        33.000


  20950328.239                   111834359.194 8        48.750    20950331.919
  20950332.027    86982300.974 7        46.250


  20562535.778    20562535.698   108056879.547 8        50.000
  20562534.378    84200178.62247        42.500


 16  2 18  0  1 23.0000000  0 18G26G21G27G10G16R14G31G18G20G08R15R02
                                R17G29R24R01R18G04
  20246079.370    20246079.134   106393898.319 8        51.500    20246081.302
  20246081.655    82904353.671 8        48.750    20246081.052    79450014.717 9
        54.750

  21540374.687    21540373.927   113195556.649 8        48.000
  21540372.496    88204359.75746        39.750


  21821911.626    21821911.255   114674949.636 7        47.250    21821913.115
  21821912.677    89357109.132 7        45.500    21821913.459    85633899.911 8
        51.000

  23820234.458    23820234.342   125176238.447 6        39.250    23820238.125
  23820238.729    97539907.497 6        40.250    23820236.211    93475742.391 7
        43.250

  20452824.359    20452823.742   107480338.885 8        50.500
  20452822.266    83750910.32747        44.250


  21706511.293                   115707949.151 6        38.500    21706519.736
  21706519.262    89995092.693 6        38.000


  23921401.747    23921401.569   125707835.116 5        35.500    23921401.586
  23921402.019    97954146.166 5        35.000


  22730276.081    22730275.429   119448434.456 7        43.500
  22730275.249    93076715.83544        28.250


  23606023.978    23606023.124   124050509.495 6        41.000
  23606020.955    96662734.27143        21.000


  24451325.184    24451325.055   128492587.369 5        35.250    24451326.495
  24451326.021   100124119.971 5        32.500    24451327.156    95952267.285 6
        39.500

  19533963.780                   104383590.315 8        50.250    19533968.569
  19533967.750    81187263.537 8        48.500


  23467143.747                   125225171.075 6        41.500    23467146.734
  23467146.891    97397377.638 6        36.500


  20189448.369                   108037856.115 8        49.250    20189450.413
  20189449.331    84029448.067 5        33.000


  24518133.919    24518133.781   128843753.245 6        37.500    24518131.840
  24518133.038   100397778.33742        15.500


  22414857.776                   119862470.726 6        38.250    22414859.824
  22414859.122    93226291.994 5        32.250


  22827526.472                   122026200.179 7        42.250    22827529.472
  22827530.729    94909295.798 5        32.750


  20949945.620                   111832317.499 8        48.750    20949949.569
  20949949.636    86980712.990 7        46.000


  20562817.521    20562817.441   108058359.812 8        50.250
  20562816.064    84201332.07447        42.250


 16  2 18  0  1 24.0000000  0 18G26G21G27G10G16R14G31G18G20G08R15R02
                                R17G29R24R01R18G04
  20246198.843    20246198.607   106394526.361 8        51.250    20246200.905
  20246201.159    82904843.054 8        48.750    20246200.560    79450483.707 9
        54.750

  21540663.237    21540662.482   113197072.586 8        48.000
  21540660.965    88205541.00846        39.750


  21821528.681    21821528.310   114672937.582 7        47.250    21821530.206
  21821529.799    89355541.309 7        45.500    21821530.586    85632397.411 8
        51.000

  23819616.037    23819615.926   125172989.055 6        39.000    23819619.624
  23819620.420    97537375.500 6        40.000    23819617.853    93473315.890 7
        43.500

  20452597.191    20452596.574   107479144.920 8        50.500
  20452595.063    83749979.96647        44.250


  21707311.334                   115712214.572 6        38.500    21707320.465
  21707319.454    89998410.230 6        37.500


  23922063.873    23922063.699   125711315.826 5        34.750    23922064.370
  23922064.405    97956858.391 5        35.000


  22729963.255    22729962.607   119446789.978 7        43.500
  22729962.312    93075434.42644        28.250


  23606269.680    23606268.831   124051800.829 6        41.000
  23606266.689    96663740.50743        21.250


  24450805.367    24450805.238   128489855.437 5        35.250    24450806.539
  24450806.185   100121991.196 5        32.000    24450807.209    95950227.193 6
        39.500

  19534264.791                   104385198.097 8        50.250    19534269.339
  19534268.628    81188514.039 8        48.500


  23466489.155                   125221679.791 6        41.250    23466492.263
  23466492.339    97394662.189 6        36.750


  20189828.904                   108039892.417 8        49.250    20189830.317
  20189830.018    84031031.837 5        32.250


  24518672.803    24518672.665   128846584.674 6        37.500    24518671.609
  24518671.868   100399984.63942        15.250


  22415447.694                   119865623.702 6        38.250    22415450.534
  22415448.620    93228744.320 5        32.250


  22827328.213                   122025139.957 7        42.500    22827331.858
  22827332.663    94908471.205 5        34.000


  20949563.256                   111830276.149 8        48.750    20949567.348
  20949567.232    86979125.273 7        46.250


  20563099.269    20563099.189   108059840.584 8        50.000
  20563097.847    84202485.92347        42.250


 16  2 18  0  1 25.0000000  0 18G26G21G27G10G16R14G31G18G20G08R15R02
                                R17G29R24R01R18G04
  20246318.517    20246318.285   106395154.931 8        51.500    20246320.529
  20246320.766    82905332.847 8        48.750    20246320.176    79450953.096 9
        54.750

  21540951.817    21540951.062   113198588.893 8        48.250
  21540949.514    88206722.54446        39.750


  21821145.816    21821145.445   114670925.751 7        47.000    21821147.233
  21821146.965    89353973.639 7        45.500    21821147.748    85630895.065 8
        51.000

  23818997.728    23818997.617   125169739.734 6        38.750    23819001.127
  23819002.093    97534843.564 6        39.750    23818999.526    93470889.454 7
        43.500

  20452370.042    20452369.421   107477951.406 8        50.500
  20452367.949    83749049.95447        44.250


  21708111.159                   115716480.342 6        39.000    21708120.657
  21708119.763    90001728.049 6        38.000


  23922725.857    23922725.697   125714796.556 5        34.000    23922726.867
  23922726.787    97959570.653 5        35.250


  22729650.483    22729649.835   119445145.877 7        43.750
  22729649.405    93074153.30744        28.250


  23606515.494    23606514.645   124053092.760 6        41.250
  23606512.480    96664747.20743        21.250


  24450285.617    24450285.488   128487123.583 5        35.250    24450286.167
  24450286.328   100119862.487 5        32.250    24450287.267    95948187.178 6
        39.500

  19534565.901                   104386806.735 8        50.250    19534570.360
  19534569.676    81189765.204 8        48.500


  23465834.317                   125218188.694 6        41.250    23465837.792
  23465838.154    97391946.909 6        36.500


  20190209.390                   108041928.980 8        49.000    20190211.331
  20190210.441    84032615.830 5        32.750


  24519211.490    24519211.347   128849416.091 6        37.000    24519211.495
  24519210.686   100402190.93942        14.750


  22416037.390                   119868776.725 6        38.250    22416039.527
                  93231178.614 5        30.250


  22827129.687                   122024080.505 7        42.500    22827132.513
  22827134.266    94907647.196 5        32.750


  20949180.879                   111828235.143 8        48.750    20949184.827
  20949184.854    86977537.825 7        46.250


  20563381.169    20563381.089   108061321.847 8        50.000
  20563379.721    84203640.15447        42.250


 16  2 18  0  1 26.0000000  0 18G26G21G27G10G16R14G31G18G20G08R15R02
                                R17G29R24R01R18G04
  20246438.263    20246438.027   106395784.039 8        51.250    20246440.257
  20246440.476    82905823.064 8        48.500    20246439.886    79451422.886 9
        54.750

  21541240.416    21541239.661   113200105.572 8        48.250
  21541238.117    88207904.37146        39.750


  21820762.947    21820762.572   114668914.120 7        47.000    21820764.257
  21820764.172    89352406.134 7        45.500    21820764.954    85629392.873 8
        51.000

  23818378.981    23818378.874   125166490.500 6        38.750    23818382.952
  23818383.792    97532311.690 6        40.000    23818381.244    93468463.080 7
        43.500

  20452142.937    20452142.320   107476758.336 8        50.500
  20452140.920    83748120.28947        44.250


  21708911.674                   115720746.446 6        38.750    21708920.689
  21708920.076    90005046.116 6        37.750


  23923388.627    23923388.484   125718277.363 5        34.500    23923389.311
  23923389.164    97962282.963 5        35.000


  22729337.881    22729337.238   119443502.189 7        43.750
  22729336.602    93072872.50944        28.250


  23606761.367    23606760.518   124054385.271 6        41.000
  23606758.362    96665754.35743        21.250


  24449765.755    24449765.621   128484391.779 5        35.250    24449766.426
  24449766.471   100117733.822 5        32.250    24449767.338    95946147.198 6
        39.500

  19534867.083                   104388416.241 8        50.250    19534871.747
  19534870.951    81191017.038 8        48.500


  23465179.801                   125214697.790 6        41.250    23465183.821
  23465183.911    97389231.751 6        36.250


  20190590.010                   108043965.807 8        49.250    20190591.835
  20190591.191    84034200.038 5        33.250


  24519750.053    24519749.901   128852247.546 6        37.000    24519750.343
  24519749.476   100404397.26442        15.000


  22416626.960                   119871929.792 6        38.250    22416629.017
  22416627.773    93233649.025 5        32.000


  22826931.737                   122023021.791 7        42.250    22826934.773
  22826935.905    94906823.739 5        33.000


  20948798.694                   111826194.506 8        49.000    20948802.410
  20948802.629    86975950.666 7        46.250


  20563663.181    20563663.101   108062803.618 8        50.000
  20563661.697    84204794.78047        42.250


 16  2 18  0  1 27.0000000  0 18G26G21G27G10G16R14G31G18G20G08R15R02
                                R17G29R24R01R18G04
  20246558.075    20246557.843   106396413.688 8        51.250    20246559.922
  20246560.284    82906313.702 8        48.500    20246559.721    79451893.077 9
        54.750

  21541529.023    21541528.268   113201622.632 8        48.000
  21541526.792    88209086.49546        39.750


  21820380.136    21820379.765   114666902.700 7        47.000    21820381.334
  21820381.410    89350838.796 7        45.250    21820382.197    85627890.842 8
        51.000

  23817760.810    23817760.708   125163241.322 6        38.750    23817764.567
  23817765.506    97529779.872 6        39.750    23817762.970    93466036.752 7
        43.500

  20451915.882    20451915.265   107475565.715 8        50.500
  20451913.968    83747190.97447        44.250


  21709712.135                   115725012.880 6        39.000    21709721.096
  21709720.420    90008364.463 6        38.000


  23924051.492    23924051.349   125721758.215 5        34.500    23924051.675
  23924051.545    97964995.298 5        35.250


  22729025.341    22729024.693   119441858.882 7        44.000
  22729023.879    93071592.01044        28.250


  23607007.288    23607006.443   124055678.377 6        41.000
  23607004.395    96666761.97243        21.250


  24449245.728    24449245.599   128481660.039 5        35.000    24449247.110
  24449246.649   100115605.190 5        32.500    24449247.539    95944107.283 6
        39.500

  19535168.578                   104390026.603 8        50.250    19535173.063
  19535172.356    81192269.546 8        48.500


  23464525.590                   125211207.044 6        41.500    23464530.164
  23464529.730    97386516.727 6        36.750


  20190970.711                   108046002.905 8        49.250    20190971.426
  20190971.864    84035784.421 5        32.750


  24520288.561    24520288.409   128855078.961 6        36.750    24520287.931
  24520288.293   100406603.56342        14.750


  22417216.172                   119875082.882 6        38.250    22417217.943
  22417217.411    93236101.443 5        32.250


  22826733.872                   122021963.837 7        42.500    22826737.373
  22826737.955    94906000.871 5        33.000


  20948416.558                   111824154.258 8        49.000    20948420.193
  20948420.390    86974363.805 7        46.250


  20563945.251    20563945.171   108064285.888 8        50.000
  20563943.767    84205949.79747        42.250


 16  2 18  0  1 28.0000000  0 18G26G21G27G10G16R14G31G18G20G08R15R02
                                R17G29R24R01R18G04
  20246678.022    20246677.786   106397043.868 8        51.250    20246679.797
  20246680.195    82906804.750 8        48.500    20246679.636    79452363.666 9
        54.750

  21541817.778    21541817.018   113203140.062 8        48.000
  21541815.538    88210268.90746        39.500


  21819997.311    21819996.940   114664891.490 7        47.000    21819998.581
  21819998.688    89349271.624 7        45.500    21819999.493    85626388.964 8
        51.000

  23817142.582    23817142.480   125159992.243 6        39.000    23817145.909
  23817147.196    97527248.123 6        39.500    23817144.674    93463610.501 7
        43.500

  20451689.005    20451688.384   107474373.537 8        50.500
  20451687.104    83746262.00447        44.250


  21710513.212                   115729279.671 6        38.750    21710521.029
  21710520.935    90011683.082 6        38.250


  23924713.627    23924713.489   125725239.098 5        34.500    23924714.182
  23924713.945    97967707.666 5        35.000


  22728712.739    22728712.091   119440215.980 7        44.000
  22728711.250    93070311.82944        28.250


  23607253.361    23607252.512   124056972.069 6        41.000
  23607250.549    96667770.05343        21.000


  24448726.130    24448725.996   128478928.383 5        34.750    24448728.191
  24448726.854   100113476.633 5        32.250    24448727.878    95942067.386 6
        39.500

  19535470.126                   104391637.819 8        50.250    19535474.602
  19535473.842    81193522.712 8        48.500


  23463871.584                   125207716.462 6        41.750    23463876.167
  23463875.568    97383801.835 6        36.500


  20191351.483                   108048040.280 8        49.000    20191352.856
  20191352.847    84037369.064 5        32.500


  24520827.580    24520827.433   128857910.371 6        36.750    24520826.506
  24520827.110   100408809.85342        15.000


  22417806.261                   119878235.994 6        38.500    22417807.817
  22417807.052    93238553.874 5        32.000


  22826535.882                   122020906.617 7        42.000    22826540.260
  22826540.322    94905178.626 5        33.250


  20948034.543                   111822114.394 8        49.000    20948038.232
  20948038.214    86972777.246 7        46.250


  20564227.460    20564227.380   108065768.655 8        50.000
  20564225.935    84207105.19947        42.250


 16  2 18  0  1 29.0000000  0 18G26G21G27G10G16R14G31G18G20G08R15R02
                                R17G29R24R01R18G04
  20246797.996    20246797.760   106397674.580 8        51.250    20246799.807
  20246800.214    82907296.214 8        48.500    20246799.668    79452834.654 9
        54.750

  21542106.609    21542105.849   113204657.865 8        48.250
  21542104.356    88211451.61146        39.500


  21819614.607    21819614.236   114662880.479 7        47.250    21819615.806
  21819616.007    89347704.603 7        45.250    21819616.798    85624887.237 8
        51.000

  23816524.214    23816524.121   125156743.259 6        38.750    23816527.671
  23816528.932    97524716.436 6        39.250    23816526.401    93461184.295 7
        43.500

  20451462.298    20451461.681   107473181.807 8        50.750
  20451460.331    83745333.38247        44.250


  21711314.183                   115733546.810 6        39.000    21711321.185
  21711321.387    90015001.967 6        38.250


  23925376.219    23925376.076   125728720.014 5        34.500    23925376.062
  23925376.313    97970420.094 5        34.750


  22728400.137    22728399.485   119438573.458 7        44.000
  22728398.661    93069031.94444        28.250


  23607499.797    23607498.948   124058266.343 6        41.250
  23607496.899    96668778.58043        21.000


  24448206.004    24448205.884   128476196.770 5        34.750    24448207.261
  24448207.082   100111348.071 5        32.500    24448208.101    95940027.558 6
        39.500

  19535771.764                   104393249.905 8        50.250    19535776.088
  19535775.516    81194776.557 8        48.500


  23463217.551                   125204226.109 6        41.750    23463222.188
  23463221.463    97381087.116 6        36.750


  20191732.367                   108050077.951 8        49.000    20191734.603
  20191733.869    84038953.914 5        32.750


  24521366.213    24521366.070   128860741.815 6        37.000
  24521365.914   100411016.17442        14.500


  22418395.567                   119881389.111 6        38.750    22418398.424
  22418396.609    93241006.257 5        31.750


  22826337.941                   122019850.154 7        42.000    22826342.878
  22826342.941    94904356.919 5        33.500


  20947652.568                   111820074.887 8        49.250    20947656.203
  20947656.065    86971190.967 7        46.250


  20564509.713    20564509.633   108067251.923 8        50.000
  20564508.193    84208260.99147        42.250


 16  2 18  0  1 30.0000000  0 18G26G21G27G10G16R14G31G18G20G08R15R02
                                R17G29R24R01R18G04
  20246918.068    20246917.832   106398305.838 8        51.250    20246919.852
  20246920.335    82907788.101 8        48.500    20246919.789    79453306.046 9
        54.750

  21542395.525    21542394.770   113206176.051 8        48.250
  21542393.254    88212634.61146        39.500


  21819231.885    21819231.514   114660869.685 7        47.000    21819233.160
  21819233.366    89346137.740 7        45.500    21819234.144    85623385.663 8
        51.000

  23815905.709    23815905.620   125153494.317 6        38.750    23815909.563
  23815910.681    97522184.816 6        39.000    23815908.213    93458758.167 7
        43.500

  20451235.614    20451234.997   107471990.528 8        50.750
  20451233.642    83744405.11347        44.250


  21712115.260                   115737814.278 6        39.000    21712121.870
  21712122.084    90018321.114 6        38.250


  23926038.511    23926038.373   125732200.997 5        34.250    23926038.547
  23926038.667    97973132.524 5        35.000


  22728087.615    22728086.963   119436931.333 7        44.000
  22728086.122    93067752.36844        28.250


  23607746.237    23607745.392   124059561.209 6        41.000
  23607743.411    96669787.56143        21.000


  24447685.834    24447685.723   128473465.240 5        34.750    24447688.025
  24447687.278   100109219.604 5        32.250    24447688.356    95937987.775 6
        39.500

  19536073.616                   104394862.843 8        50.250    19536077.878
  19536077.395    81196031.064 8        48.750


  23462563.697                   125200735.947 7        42.000    23462568.128
  23462567.730    97378372.561 6        36.750


  20192113.228                   108052115.902 8        49.000    20192115.196
  20192114.766    84040538.969 5        32.750


  24521905.071    24521904.942   128863573.241 6        37.000    24521902.549
  24521904.686   100413222.47342        14.500


  22418985.763                   119884542.222 6        38.750    22418987.484
  22418986.282    93243458.712 5        31.250


  22826140.407                   122018794.448 7        42.000    22826146.127
  22826145.518    94903535.809 5        34.000


  20947270.651                   111818035.712 8        49.250    20947274.197
  20947274.067    86969604.930 7        46.000


  20564792.087    20564792.007   108068735.702 8        50.000
  20564790.544    84209417.18147        42.250


 16  2 18  0  1 31.0000000  0 18G26G21G27G10G16R14G31G18G20G08R15R02
                                R17G29R24R01R18G04
  20247038.265    20247038.029   106398937.633 8        51.250    20247040.094
  20247040.559    82908280.411 8        48.500    20247040.018    79453777.839 9
        54.750

  21542684.423    21542683.668   113207694.602 8        48.250
  21542682.228    88213817.89946        39.500


  21818849.253    21818848.878   114658859.089 7        47.000    21818850.689
  21818850.765    89344571.043 7        45.250    21818851.547    85621884.246 8
        51.000

  23815287.390    23815287.306   125150245.469 6        39.000    23815290.614
  23815292.417    97519653.249 6        39.000    23815289.975    93456332.079 7
        43.500

  20451009.046    20451008.429   107470799.691 8        50.750
  20451007.033    83743477.18947        44.000


  21712915.480                   115742082.094 6        38.750    21712922.357
  21712922.442    90021640.503 6        38.000


  23926701.053    23926700.919   125735681.984 5        34.000    23926701.116
  23926701.049    97975845.006 5        34.750


  22727775.335    22727774.683   119435289.594 7        44.000
  22727773.685    93066473.09044        28.000


  23607992.981    23607992.136   124060856.672 6        41.000
  23607989.998    96670797.01043        21.250


  24447165.609    24447165.502   128470733.787 5        35.000    24447168.404
  24447167.510   100107091.232 5        32.500    24447168.610    95935948.064 6
        39.500

  19536375.531                   104396476.642 8        50.250    19536379.838
  19536379.440    81197286.241 8        48.750


  23461910.370                   125197245.974 7        42.250    23461914.327
  23461913.769    97375658.118 6        36.750


  20192494.188                   108054154.124 8        49.250    20192496.732
  20192495.467    84042124.260 5        32.500


  24522444.286    24522444.157   128866404.693 6        37.000
  24522443.463   100415428.78642        14.500


  22419575.780                   119887695.324 6        38.750    22419576.236
  22419575.704    93245911.109 5        31.500


  22825942.605                   122017739.508 7        42.000    22825948.172
  22825948.047    94902715.297 5        34.000


  20946888.631                   111815996.887 8        49.250    20946892.320
  20946892.119    86968019.181 7        46.000


  20565074.524    20565074.444   108070219.969 8        50.000
  20565072.990    84210573.75247        42.250


 16  2 18  0  1 32.0000000  0 18G26G21G27G10G16R14G31G18G20G08R15R02
                                R17G29R24R01R18G04
  20247158.525    20247158.289   106399569.953 8        51.000    20247160.506
  20247160.886    82908773.123 8        48.500    20247160.358    79454250.028 9
        54.750

  21542973.407    21542972.647   113209213.527 8        48.250
  21542971.265    88215001.47646        39.500


  21818466.791    21818466.420   114656848.706 7        46.750    21818468.253
  21818468.204    89343004.512 7        45.500    21818468.973    85620382.985 8
        51.000

  23814669.368    23814669.292   125146996.694 6        38.750    23814672.355
  23814674.161    97517121.749 6        39.000    23814671.733    93453906.064 7
        43.500

  20450782.607    20450781.986   107469609.306 8        50.750
  20450780.519    83742549.61647        44.000


  21713716.110                   115746350.251 6        38.750    21713723.748
  21713723.283    90024960.187 6        38.250


  23927363.309    23927363.184   125739163.064 5        34.000    23927363.305
  23927363.484    97978557.513 5        35.000


  22727463.064    22727462.407   119433648.252 7        44.250
  22727461.306    93065194.12044        28.250


  23608239.488    23608238.643   124062152.704 6        40.750
  23608236.676    96671806.90543        21.000


  24446645.891    24446645.793   128468002.422 5        34.750    24446648.636
  24446647.715   100104962.843 5        33.000    24446648.824    95933908.383 6
        39.500

  19536677.607                   104398091.305 8        50.250    19536682.012
  19536681.587    81198542.086 8        48.500


  23461256.726                   125193756.154 7        42.500    23461259.865
  23461259.968    97372943.818 6        36.500


  20192875.255                   108056192.610 8        49.000    20192878.032
  20192876.561    84043709.775 5        32.250


  24522983.112    24522982.987   128869236.105 6        37.000
  24522982.222   100417635.09242        14.750


  22420165.135                   119890848.457 6        38.500    22420166.003
  22420165.632    93248363.573 5        31.500


  22825745.518                   122016685.328 7        42.500    22825751.300
  22825750.562    94901895.414 5        34.000


  20946506.840                   111813958.455 8        49.250    20946510.395
  20946510.310    86966433.732 7        46.250


  20565357.094    20565357.018   108071704.750 8        50.000
  20565355.534    84211730.72547        42.250


 16  2 18  0  1 33.0000000  0 18G26G21G27G10G16R14G31G18G20G08R15R02
                                R17G29R24R01R18G04
  20247278.923    20247278.687   106400202.817 8        51.250    20247280.873
  20247281.311    82909266.267 8        48.500    20247280.766    79454722.621 9
        54.750

  21543262.568    21543261.813   113210732.831 8        48.250
  21543260.377    88216185.34846        39.500


  21818084.275    21818083.904   114654838.520 7        46.750    21818085.858
  21818085.688    89341438.145 7        45.500    21818086.470    85618881.879 8
        51.000

  23814051.201    23814051.130   125143748.016 6        39.250    23814053.858
  23814055.915    97514590.317 6        38.750    23814053.536    93451480.091 7
        43.750

  20450556.227    20450555.610   107468419.357 8        50.750
  20450554.085    83741622.38347        44.000


  21714517.215                   115750618.730 6        39.000    21714524.879
  21714524.088    90028280.101 6        37.750


  23928025.919    23928025.799   125742644.161 5        34.000    23928026.089
  23928025.932    97981270.057 5        35.000


  22727150.761    22727150.104   119432007.310 7        44.250
  22727149.030    93063915.46644        28.000


  23608486.067    23608485.222   124063449.337 6        41.000
  23608483.473    96672817.27443        21.000


  24446126.351    24446126.244   128465271.101 5        35.250    24446128.604
  24446127.961   100102834.554 5        32.750    24446129.119    95931868.777 6
        39.500

  19536979.871                   104399706.824 8        50.250    19536984.508
  19536983.922    81199798.608 8        48.750


  23460603.230                   125190266.515 7        43.000    23460606.458
  23460606.181    97370229.642 6        36.500


  20193256.282                   108058231.351 8        49.250    20193259.368
  20193257.642    84045295.457 5        33.000


  24523522.126    24523522.001   128872067.546 6        37.250
  24523521.017   100419841.40942        15.000


  22420754.956                   119894001.613 6        38.500    22420755.197
  22420755.716    93250816.007 5        32.000


  22825548.915                   122015631.888 7        42.500    22825553.310
  22825553.306    94901076.064 5        33.750


  20946125.053                   111811920.413 8        49.250    20946128.366
  20946128.590    86964848.587 7        46.250


  20565639.737    20565639.661   108073190.025 8        50.000
  20565638.172    84212888.08247        42.250


 16  2 18  0  1 34.0000000  0 18G26G21G27G10G16R14G31G18G20G08R15R02
                                R17G29R24R01R18G04
  20247399.442    20247399.210   106400836.214 8        51.000    20247401.432
  20247401.839    82909759.821 8        48.500    20247401.303    79455195.612 9
        54.750

  21543551.753    21543550.998   113212252.500 8        48.250
  21543549.553    88217369.50646        39.500


  21817701.799    21817701.424   114652828.551 7        46.750    21817703.498
  21817703.212    89339871.929 7        45.500    21817703.963    85617380.927 8
        51.000

  23813433.527    23813433.465   125140499.413 6        39.500    23813435.656
  23813437.699    97512058.922 6        38.750    23813435.374    93449054.197 7
        43.500

  20450329.887    20450329.270   107467229.868 8        50.750
  20450327.736    83740695.50947        44.000


  21715317.837                   115754887.544 6        39.000    21715325.331
  21715324.902    90031600.311 6        38.250


  23928688.233    23928688.122   125746125.327 5        33.750    23928688.470
  23928688.390    97983982.642 5        35.000


  22726838.445    22726837.784   119430366.756 7        44.000
  22726836.862    93062637.11244        28.000


  23608732.927    23608732.082   124064746.550 6        41.000
  23608730.383    96673828.08243        21.250


  24445606.645    24445606.538   128462539.846 5        34.750    24445608.975
  24445608.210   100100706.323 5        33.000    24445609.279    95929829.211 6
        39.750

  19537282.350                   104401323.209 8        50.000    19537287.040
  19537286.374    81201055.789 8        48.500


  23459949.599                   125186777.088 7        43.000    23459952.698
  23459952.296    97367515.643 6        37.000


  20193637.260                   108060270.362 8        49.000    20193640.600
  20193638.646    84046881.364 5        32.750


  24524060.871    24524060.751   128874898.974 6        37.250    24524059.910
  24524059.802   100422047.72542        14.750


  22421344.401                   119897154.825 6        38.750    22421345.510
  22421345.626    93253268.499 5        32.750


  22825352.454                   122014579.216 7        42.750    22825356.796
  22825356.393    94900257.297 5        32.750


  20945743.368                   111809882.728 8        49.250    20945746.503
  20945746.856    86963263.726 7        46.250


  20565922.531    20565922.451   108074675.800 8        50.000
  20565920.899    84214045.82847        42.250


 16  2 18  0  1 35.0000000  0 18G26G21G27G10G16R14G31G18G20G08R15R02
                                R17G29R24R01R18G04
  20247520.096    20247519.860   106401470.150 8        51.000    20247522.014
  20247522.470    82910253.800 8        48.500    20247521.916    79455669.005 9
        54.750

  21543841.058    21543840.298   113213772.548 8        48.250
  21543838.804    88218553.95946        39.500


  21817319.417    21817319.046   114650818.785 7        46.750    21817320.915
  21817320.777    89338305.877 7        45.500    21817321.501    85615880.130 8
        51.000

  23812815.665    23812815.603   125137250.885 6        39.750    23812817.570
  23812819.502    97509527.630 6        38.500    23812817.199    93446628.356 7
        43.500

  20450103.636    20450103.019   107466040.824 8        50.750
  20450101.481    83739768.98147        44.000


  21716118.557                   115759156.710 6        39.000    21716125.747
  21716125.872    90034920.769 6        38.250


  23929350.141    23929350.039   125749606.503 5        34.000    23929350.789
  23929350.834    97986695.250 5        35.250


  22726526.205    22726525.544   119428726.606 7        44.000
  22726524.756    93061359.07344        28.000


  23608979.823    23608978.978   124066044.356 6        41.000
  23608977.315    96674839.35743        21.000


  24445086.788    24445086.695   128459808.670 5        35.250    24445089.234
  24445088.492   100098578.149 5        33.250    24445089.592    95927789.694 6
        39.500

  19537585.043                   104402940.443 8        50.250    19537589.599
  19537589.067    81202313.636 8        48.500


  23459295.799                   125183287.871 7        43.250    23459298.674
  23459298.464    97364801.828 6        36.750


  20194018.238                   108062309.624 8        49.250    20194020.800
  20194019.767    84048467.427 5        33.250


  24524599.983    24524599.854   128877730.411 6        37.500    24524599.331
  24524598.611   100424254.03142        14.500


  22421934.248                   119900308.059 6        38.750    22421935.375
  22421935.339    93255721.028 5        32.250


  22825156.038                   122013527.301 7        42.750    22825159.718
  22825159.615    94899439.152 5        33.250


  20945361.599                   111807845.397 8        49.000    20945365.020
  20945365.149    86961679.139 7        46.250


  20566205.392    20566205.312   108076162.080 8        50.250
  20566203.720    84215203.96847        42.250


 16  2 18  0  1 36.0000000  0 18G26G21G27G10G16R14G31G18G20G08R15R02
                                R17G29R24R01R18G04
  20247640.847    20247640.611   106402104.612 8        51.000    20247642.726
  20247643.200    82910748.184 8        48.500    20247642.658    79456142.790 9
        54.750

  21544130.408    21544129.653   113215292.971 8        48.250
  21544128.127    88219738.70546        39.500


  21816936.973    21816936.598   114648809.222 7        46.750    21816938.498
  21816938.363    89336739.990 7        45.500    21816939.101    85614379.478 8
        51.000

  23812197.642    23812197.589   125134002.452 6        40.000    23812199.646
  23812201.345    97506996.378 6        38.500    23812199.020    93444202.572 7
        43.750

  20449877.457    20449876.836   107464852.235 8        50.750
  20449875.306    83738842.80947        44.000


  21716919.889                   115763426.204 6        39.250    21716926.771
  21716926.977    90038241.477 6        38.500


  23930012.571    23930012.473   125753087.728 5        33.500    23930013.242
  23930013.287    97989407.915 5        35.250


  22726214.126    22726213.465   119427086.854 7        43.750
  22726212.700    93060081.34444        28.250


  23609226.992    23609226.143   124067342.752 6        40.750
  23609224.390    96675851.09843        21.250


  24444567.279    24444567.186   128457077.560 5        35.250    24444570.061
  24444568.795   100096449.990 5        33.250    24444570.038    95925750.219 6
        39.500

  19537887.771                   104404558.528 8        50.250    19537892.391
  19537891.885    81203572.150 8        48.750


  23458642.535                   125179798.848 7        43.500    23458645.035
  23458644.762    97362088.129 6        37.000


  20194399.345                   108064349.132 8        49.000    20194401.805
  20194401.013    84050053.715 5        33.000


  24525138.474    24525138.336   128880561.855 6        37.250    24525138.532
  24525137.432   100426460.35442        14.750


  22422523.979                   119903461.323 6        39.250    22422525.705
  22422525.204    93258173.545 5        32.500


  22824959.371                   122012476.151 7        42.750    22824962.595
  22824963.034    94898621.583 5        33.500


  20944980.085                   111805808.425 8        49.000    20944983.380
  20944983.546    86960094.818 7        46.250


  20566488.334    20566488.254   108077648.861 8        50.250
  20566486.649    84216362.49847        42.250


 16  2 18  0  1 37.0000000  0 18G26G21G27G10G16R14G31G18G20G08R15R02
                                R17G29R24R01R18G04
  20247761.698    20247761.462   106402739.622 8        51.000    20247763.607
  20247764.032    82911242.998 8        48.500    20247763.500    79456616.986 9
        54.750

  21544419.842    21544419.082   113216813.760 8        48.250
  21544417.530    88220923.73546        39.500


  21816554.613    21816554.238   114646799.878 7        46.750    21816556.236
  21816556.008    89335174.269 7        45.500    21816556.693    85612878.994 8
        50.750

  23811579.432    23811579.379   125130754.106 6        40.250    23811581.565
  23811583.215    97504465.183 6        38.750    23811580.831    93441776.862 7
        43.750

  20449651.300    20449650.683   107463664.084 8        50.750
  20449649.207    83737916.97847        44.000


  21717720.860                   115767696.038 6        39.000    21717728.752
  21717728.028    90041562.457 6        38.500


  23930675.109    23930675.011   125756569.012 5        33.000    23930676.008
  23930675.767    97992120.582 5        35.750


  22725902.239    22725901.573   119425447.481 7        44.000
  22725900.732    93058803.91144        28.250


  23609474.058    23609473.204   124068641.721 6        41.000
  23609471.572    96676863.28343        21.250


  24444047.650    24444047.548   128454346.501 5        35.500    24444050.503
  24444049.135   100094321.889 5        33.000    24444050.337    95923710.803 6
        39.500

  19538190.670                   104406177.464 8        50.250    19538195.272
  19538194.878    81204831.326 8        48.500


  23457989.066                   125176309.982 7        43.500    23457990.608
  23457991.042    97359374.559 6        36.500


  20194780.466                   108066388.891 8        49.250    20194782.711
  20194782.138    84051640.234 5        33.250


  24525677.162    24525677.028   128883393.305 6        37.500    24525677.899
  24525676.240   100428666.67342        14.750


  22423113.719                   119906614.588 6        39.000    22423115.454
  22423114.595    93260626.102 5        31.750


  22824762.911                   122011425.766 7        42.750    22824766.206
  22824766.573    94897804.622 5        33.500


  20944598.427                   111803771.824 8        48.750    20944601.727
  20944602.089    86958510.803 7        46.000


  20566771.384    20566771.304   108079136.129 8        50.250
  20566769.671    84217521.40847        42.250


 16  2 18  0  1 38.0000000  0 18G26G21G27G10G16R14G31G18G20G08R15R02
                                R17G29R24R01R18G04
  20247882.642    20247882.410   106403375.168 8        51.000    20247884.466
  20247884.962    82911738.224 8        48.500    20247884.448    79457091.581 9
        54.750

  21544709.335    21544708.575   113218334.932 8        48.250
  21544707.005    88222109.06446        39.500


  21816172.249    21816171.874   114644790.739 7        46.750    21816173.895
  21816173.676    89333608.708 7        45.500    21816174.351    85611378.663 8
        50.750

  23810961.507    23810961.458   125127505.834 6        40.250    23810963.305
  23810965.080    97501934.060 6        38.750    23810962.710    93439351.195 7
        43.750

  20449425.268    20449424.651   107462476.391 8        50.750
  20449423.198    83736991.50447        44.000


  21718522.179                   115771966.208 6        39.250    21718529.597
  21718529.195    90044883.700 6        38.000


  23931338.001    23931337.908   125760050.370 5        33.250    23931339.141
  23931338.251    97994833.308 5        35.250


  22725590.348    22725589.682   119423808.529 7        43.750
  22725588.846    93057526.80744        28.250


  23609721.178    23609720.324   124069941.299 6        40.750
  23609718.880    96677875.93743        21.250


  24443528.123    24443528.016   128451615.524 5        35.750    24443530.900
  24443529.434   100092193.861 5        33.250    24443530.543    95921671.429 6
        39.250

  19538493.726                   104407797.260 8        50.000    19538498.497
  19538497.983    81206091.164 8        48.750


  23457335.390                   125172821.276 7        43.250    23457337.327
  23457337.242    97356661.108 6        36.500


  20195161.793                   108068428.904 8        49.250    20195163.791
  20195163.089    84053226.884 5        33.250


  24526215.719    24526215.585   128886224.737 6        37.250    24526216.046
  24526215.049   100430872.98942        14.750


  22423703.942                   119909767.861 6        39.500    22423705.596
  22423704.331    93263078.672 5        32.500


  22824566.709                   122010376.145 7        42.500    22824569.978
  22824570.354    94896988.266 5        33.500


  20944216.917                   111801735.607 8        48.750    20944220.177
  20944220.669    86956927.082 7        46.000


  20567054.464    20567054.384   108080623.913 8        50.250
  20567052.783    84218680.72047        42.250


 16  2 18  0  1 39.0000000  0 18G26G21G27G10G16R14G31G18G20G08R15R02
                                R17G29R24R01R18G04
  20248003.738    20248003.502   106404011.240 8        51.250    20248005.473
  20248006.000    82912233.868 8        48.500    20248005.508    79457566.573 9
        54.750

  21544998.904    21544998.149   113219856.463 8        48.250
  21544996.547    88223294.67146        39.500


  21815789.961    21815789.586   114642781.807 7        46.750    21815791.509
  21815791.383    89332043.298 7        45.750    21815792.054    85609878.492 8
        50.750

  23810343.484    23810343.435   125124257.631 6        40.250    23810345.219
  23810346.932    97499403.003 6        38.750    23810344.571    93436925.605 7
        43.750

  20449199.286    20449198.669   107461289.139 8        50.750
  20449197.274    83736066.37147        44.000


  21719323.284                   115776236.733 6        39.500    21719330.183
  21719330.089    90048205.229 6        38.000


  23932000.673    23932000.589   125763531.690 5        32.750    23932001.357
  23932000.735    97997546.060 5        35.500


  22725278.430    22725277.764   119422169.963 7        43.750
  22725277.021    93056250.00044        28.250


  23609968.486    23609967.632   124071241.462 6        40.750
  23609966.263    96678889.04843        21.250


  24443008.812    24443008.696   128448884.625 5        35.250    24443010.877
  24443009.742   100090065.877 5        33.250    24443010.819    95919632.121 6
        39.250

  19538796.910                   104409417.912 8        50.000    19538801.816
  19538801.261    81207351.676 8        48.500


  23456681.393                   125169332.726 7        43.250    23456683.347
  23456683.432    97353947.801 6        36.750


  20195543.186                   108070469.157 8        49.250    20195545.574
  20195544.510    84054813.779 5        32.750


  24526754.590    24526754.461   128889056.194 6        37.000    24526754.934
  24526753.839   100433079.31042        15.000


  22424293.592                   119912921.137 6        39.250    22424294.665
  22424294.031    93265531.176 5        33.000


  22824370.329                   122009327.285 7        43.000    22824373.347
  22824374.210    94896172.464 5        33.250


  20943835.331                   111799699.759 8        48.750    20943839.119
  20943839.213    86955343.645 7        46.250


  20567337.746    20567337.666   108082112.187 8        50.250
  20567335.993    84219840.41347        42.250


 16  2 18  0  1 40.0000000  0 18G26G21G27G10G16R14G31G18G20G08R15R02
                                R17G29R24R01R18G04
  20248124.860    20248124.628   106404647.851 8        51.250    20248126.694
  20248127.141    82912729.935 8        48.750    20248126.653    79458041.964 9
        54.750

  21545288.594    21545287.839   113221378.375 8        48.250
  21545286.161    88224480.57646        39.500


  21815407.861    21815407.486   114640773.083 7        46.750    21815409.212
  21815409.131    89330478.068 7        45.500    21815409.744    85608378.466 8
        50.750

  23809725.412    23809725.372   125121009.521 6        40.500    23809727.223
  23809728.815    97496871.998 6        38.750    23809726.476    93434500.061 7
        43.500

  20448973.411    20448972.794   107460102.342 8        50.750
  20448971.439    83735141.59447        44.000


  21720124.621                   115780507.584 6        39.500    21720131.462
  21720131.176    90051527.005 6        38.000


  23932663.376    23932663.292   125767013.119 5        32.750    23932663.698
  23932663.211    98000258.845 5        35.500


  22724966.628    22724965.967   119420531.781 7        43.750
  22724965.296    93054973.49744        28.250


  23610216.084    23610215.230   124072542.195 6        41.000
  23610213.817    96679902.60643        21.000


  24442489.066    24442488.950   128446153.789 5        35.500    24442491.490
  24442490.108   100087937.978 5        33.250    24442491.181    95917592.848 6
        39.250

  19539100.462                   104411039.433 8        50.000    19539105.269
  19539104.683    81208612.855 8        48.750


  23456027.512                   125165844.418 7        43.000    23456029.806
  23456029.627    97351234.675 6        37.000


  20195924.584                   108072509.669 8        49.250    20195927.719
  20195925.810    84056400.835 5        32.500


  24527293.121    24527292.987   128891887.635 6        37.000    24527293.564
  24527292.665   100435285.63242        14.500


  22424883.368                   119916074.423 6        39.500    22424882.849
  22424883.770    93267983.761 5        31.750


  22824174.083                   122008279.200 7        43.000    22824176.922
  22824178.335    94895357.258 5        33.500


  20943453.902                   111797664.264 8        48.750    20943457.841
  20943457.935    86953760.484 7        46.500


  20567621.010    20567620.930   108083600.966 8        50.000
  20567619.297    84221000.50047        42.250


 16  2 18  0  1 41.0000000  0 18G26G21G27G10G16R14G31G18G20G08R15R02
                                R17G29R24R01R18G04
  20248246.091    20248245.855   106405285.001 8        51.250    20248247.978
  20248248.380    82913226.409 8        48.750    20248247.893    79458517.753 9
        54.750

  21545578.221    21545577.461   113222900.656 8        48.250
  21545575.846    88225666.77146        39.500


  21815025.627    21815025.247   114638764.560 7        46.750    21815026.897
  21815026.919    89328912.990 7        45.500    21815027.478    85606878.602 8
        50.750

  23809107.228    23809107.188   125117761.500 6        40.500    23809109.003
  23809110.729    97494341.064 6        39.000    23809108.395    93432074.583 7
        43.750

  20448747.612    20448746.995   107458915.988 8        50.750
  20448745.689    83734217.16347        44.000


  21720925.940                   115784778.805 6        39.500    21720933.363
  21720932.527    90054849.027 6        37.750


  23933326.048    23933325.964   125770494.598 5        32.750    23933326.258
  23933325.708    98002971.676 5        35.500


  22724654.889    22724654.223   119418894.005 7        43.750
  22724653.637    93053697.30744        28.000


  23610463.892    23610463.047   124073843.542 6        40.750
  23610461.496    96680916.64343        20.750


  24441969.119    24441969.003   128443422.990 5        35.500    24441972.048
  24441970.438   100085810.073 5        33.500    24441971.502    95915553.617 6
        39.250

  19539404.117                   104412661.817 8        50.000    19539408.959
  19539408.262    81209874.707 8        48.500


  23455373.327                   125162356.331 7        43.000    23455376.015
  23455375.849    97348521.710 6        37.000


  20196305.866                   108074550.430 8        49.250    20196308.750
  20196306.823    84057988.073 5        33.250


  24527831.777    24527831.639   128894719.093 6        37.250    24527831.317
  24527831.486   100437491.95642        14.250


  22425472.674                   119919227.712 6        39.250    22425472.334
  22425473.202    93270436.361 5        31.250


  22823978.083                   122007231.872 7        43.000    22823980.918
  22823982.630    94894542.706 5        34.250


  20943072.414                   111795629.119 8        48.750    20943076.667
  20943076.721    86952177.598 7        46.000


  20567904.399    20567904.319   108085090.251 8        50.000
  20567902.695    84222160.98147        42.250


 16  2 18  0  1 42.0000000  0 18G26G21G27G10G16R14G31G18G20G08R15R02
                                R17G29R24R01R18G04
  20248367.504    20248367.268   106405922.686 8        51.250    20248369.498
  20248369.726    82913723.306 8        48.750    20248369.239    79458993.948 9
        54.750

  21545867.964    21545867.204   113224423.312 8        48.250
  21545865.603    88226853.25546        39.500


  21814643.308    21814642.933   114636756.258 7        46.750    21814644.676
  21814644.748    89327348.079 7        45.500    21814645.289    85605378.898 8
        51.000

  23808489.241    23808489.197   125114513.538 6        40.750    23808491.427
  23808492.626    97491810.199 6        39.000    23808490.390    93429649.158 7
        43.750

  20448521.907    20448521.290   107457730.080 8        50.750
  20448520.020    83733293.07847        44.000


  21721727.027                   115789050.341 6        39.750    21721734.610
  21721733.591    90058171.355 6        38.000


  23933988.287    23933988.198   125773976.106 5        32.750    23933988.488
  23933988.246    98005684.523 5        35.500


  22724343.208    22724342.538   119417256.619 7        43.750
  22724342.050    93052421.41944        28.250


  23610711.589    23610710.744   124075145.459 6        40.750
  23610709.282    96681931.12143        20.750


  24441449.624    24441449.508   128440692.286 5        35.250    24441452.204
  24441450.786   100083682.228 5        33.750    24441451.779    95913514.449 6
        39.250

  19539707.865                   104414285.061 8        50.000    19539712.735
  19539711.983    81211137.230 8        48.500


  23454719.384                   125158868.426 7        42.750    23454722.206
  23454722.089    97345808.905 6        36.500


  20196687.215                   108076591.459 8        49.250    20196690.283
  20196688.463    84059575.566 5        33.000


  24528370.997    24528370.863   128897550.526 6        37.250    24528369.637
  24528370.268   100439698.27742        14.250


  22426062.110                   119922381.023 6        39.000    22426062.781
  22426062.445    93272888.884 5        32.000


  22823782.516                   122006185.304 7        43.000    22823785.593
  22823787.216    94893728.697 5        33.500


  20942691.195                   111793594.338 8        48.500    20942695.510
  20942695.560    86950594.996 7        46.000


  20568187.766    20568187.686   108086580.031 8        50.000
  20568186.192    84223321.84947        42.250


 16  2 18  0  1 43.0000000  0 18G26G21G27G10G16R14G31G18G20G08R15R02
                                R17G29R24R01R18G04
  20248488.926    20248488.690   106406560.915 8        51.250    20248490.934
  20248491.171    82914220.624 8        48.750    20248490.670    79459470.546 9
        54.750

  21546157.823    21546157.068   113225946.338 8        48.250
  21546155.436    88228040.02846        39.500


  21814261.167    21814260.787   114634748.147 7        46.750    21814262.370
  21814262.616    89325783.319 7        45.750    21814263.139    85603879.332 8
        50.750

  23807871.276    23807871.241   125111265.668 6        40.750    23807873.655
  23807874.536    97489279.383 6        39.500    23807872.336    93427223.811 7
        43.750

  20448296.322    20448295.701   107456544.621 8        50.750
  20448294.435    83732369.34347        44.000


  21722528.440                   115793322.230 6        39.750    21722535.822
  21722534.910    90061493.931 6        37.750


  23934650.556    23934650.467   125777457.656 5        32.250    23934651.129
  23934650.802    98008397.404 5        35.500


  22724031.836    22724031.166   119415619.622 7        43.750
  22724030.516    93051145.84044        28.250


  23610959.639    23610958.794   124076447.955 6        41.000
  23610957.184    96682946.04843        21.000


  24440930.003    24440929.892   128437961.625 5        35.250    24440932.664
  24440931.175   100081554.472 5        33.500    24440932.190    95911475.346 6
        39.500

  19540011.622                   104415909.167 8        50.000    19540016.487
  19540015.942    81212400.423 8        48.750


  23454065.874                   125155380.708 7        42.500    23454068.504
  23454068.343    97343096.225 6        37.250


  20197068.604                   108078632.737 8        49.250    20197071.641
  20197070.174    84061163.217 5        32.750


  24528909.845    24528909.720   128900381.988 6        36.500    24528907.779
  24528909.049   100441904.60442        14.500


  22426651.770                   119925534.369 6        38.750    22426653.330
  22426652.087    93275341.500 5        32.000


  22823586.834                   122005139.493 7        43.000    22823590.290
  22823591.743    94892915.289 5        34.250


  20942310.132                   111791559.936 8        48.500    20942314.457
  20942314.492    86949012.681 7        46.000


  20568471.351    20568471.271   108088070.307 8        50.000
  20568469.786    84224483.10347        42.250


 16  2 18  0  1 44.0000000  0 18G26G21G27G10G16R14G31G18G20G08R15R02
                                R17G29R24R01R18G04
  20248610.488    20248610.252   106407199.666 8        51.250    20248612.473
  20248612.719    82914718.354 8        49.000    20248612.231    79459947.539 9
        54.750

  21546447.687    21546446.927   113227469.739 8        48.500
  21546445.340    88229227.09246        39.500


  21813879.112    21813878.732   114632740.244 7        46.750    21813880.257
  21813880.525    89324218.720 7        45.500    21813880.999    85602379.925 8
        50.750

  23807253.463    23807253.432   125108017.887 6        40.750    23807255.730
  23807256.482    97486748.643 6        39.750    23807254.407    93424798.520 7
        43.750

  20448070.827    20448070.210   107455359.608 8        50.750
  20448068.945    83731445.95647        44.000


  21723329.884                   115797594.469 6        40.000    21723336.802
  21723336.216    90064816.783 6        37.500


  23935313.371    23935313.278   125780939.232 5        32.500    23935313.483
  23935313.336    98011110.328 5        35.750


  22723720.369    22723719.699   119413983.020 7        43.750
  22723719.081    93049870.56344        28.250


  23611207.639    23611206.794   124077751.048 6        40.750
  23611205.193    96683961.45043        21.250


  24440410.128    24440410.017   128435231.067 5        35.500    24440412.954
  24440411.581   100079426.745 5        34.000    24440412.637    95909436.278 6
        39.500

  19540315.581                   104417534.136 8        49.750    19540320.602
  19540320.048    81213664.287 8        48.500


  23453412.244                   125151893.166 7        42.750    23453414.471
  23453414.891    97340383.689 6        37.000


  20197449.971                   108080674.276 8        49.000    20197452.073
  20197451.433    84062751.091 5        33.250


  24529448.564    24529448.444   128903213.423 6        36.500    24529447.526
  24529447.871   100444110.93542        14.500


  22427241.661                   119928687.723 6        38.750    22427243.119
  22427242.314    93277794.116 5        31.750


  22823391.652                   122004094.444 7        43.000    22823394.697
  22823396.083    94892102.488 5        34.250


  20941929.030                   111789525.885 8        48.750    20941933.282
  20941933.380    86947430.643 7        46.000


  20568754.937    20568754.857   108089561.085 8        50.000
  20568753.466    84225644.74847        42.250


 16  2 18  0  1 45.0000000  0 18G26G21G27G10G16R14G31G18G20G08R15R02
                                R17G29R24R01R18G04
  20248732.232    20248731.996   106407838.962 8        51.250    20248734.311
  20248734.365    82915216.504 8        49.000    20248733.895    79460424.929 9
        54.750

  21546737.650    21546736.895   113228993.516 8        48.250
  21546735.302    88230414.45346        39.500


  21813496.989    21813496.609   114630732.580 7        47.000    21813498.286
  21813498.474    89322654.293 7        45.750    21813498.930    85600880.692 8
        50.750

  23806635.239    23806635.208   125104770.179 6        41.000    23806637.833
  23806638.459    97484217.954 6        39.750    23806636.406    93422373.279 7
        43.500

  20447845.475    20447844.858   107454175.051 8        50.750
  20447843.530    83730522.92547        44.000


  21724131.436                   115801867.021 6        39.500    21724137.736
  21724137.669    90068139.883 6        38.000


  23935975.091    23935974.998   125784420.862 5        32.000    23935975.735
  23935975.851    98013823.297 6        36.000


  22723408.813    22723408.147   119412346.820 7        43.500
  22723407.713    93048595.60344        28.250


  23611455.484    23611454.644   124079054.725 6        40.750
  23611453.333    96684977.29943        21.000


  24439890.691    24439890.589   128432500.553 5        35.500    24439892.421
  24439892.001   100077299.095 5        33.250    24439893.150    95907397.259 6
        39.750

  19540619.812                   104419159.971 8        50.000    19540624.874
  19540624.288    81214928.818 8        48.750


  23452758.533                   125148405.806 7        42.750    23452761.573
  23452761.390    97337671.283 6        37.250


  20197831.432                   108082716.092 8        49.000    20197832.872
  20197833.100    84064339.142 5        33.500


  24529987.376    24529987.260   128906044.891 6        36.500    24529986.813
  24529986.697   100446317.28042        14.750


  22427830.847                   119931841.106 6        38.500    22427833.163
  22427831.853    93280246.732 5        32.000


  22823196.340                   122003050.156 7        42.750    22823198.979
  22823200.383    94891290.229 5        33.250


  20941548.168                   111787492.202 8        48.750    20941552.152
  20941552.398    86945848.885 7        46.250


  20569038.684    20569038.604   108091052.375 8        50.000
  20569037.249    84226806.79147        42.250


 16  2 18  0  1 46.0000000  0 18G26G21G27G10G16R14G31G18G20G08R15R02
                                R17G29R24R01R18G04
  20248853.994    20248853.762   106408478.783 8        51.250    20248856.024
  20248856.118    82915715.069 8        49.000    20248855.662    79460902.726 9
        54.750

  21547027.675    21547026.915   113230517.656 8        48.500
  21547025.345    88231602.09646        39.500


  21813114.974    21813114.594   114628725.093 7        46.750    21813116.427
  21813116.463    89321090.038 7        45.750    21813116.915    85599381.598 8
        50.750

  23806017.225    23806017.194   125101522.538 6        41.000    23806019.921
  23806020.431    97481687.331 6        40.000    23806018.392    93419948.099 7
        43.750

  20447620.284    20447619.667   107452990.926 8        50.750
  20447618.210    83729600.22947        44.000


  21724932.755                   115806139.904 6        39.750    21724938.340
  21724939.194    90071463.241 6        37.750


  23936637.915    23936637.813   125787902.539 5        32.000    23936637.660
  23936638.376    98016536.287 5        35.750


  22723097.472    22723096.806   119410711.000 7        43.500
  22723096.417    93047320.94044        28.250


  23611703.815    23611702.966   124080358.979 6        40.750
  23611701.570    96685993.59843        21.000


  24439370.789    24439370.687   128429770.110 5        35.250    24439373.235
  24439372.439   100075171.473 5        33.500    24439373.655    95905358.306 6
        39.500

  19540924.200                   104420786.645 8        50.000    19540929.266
  19540928.698    81216194.016 8        48.750


  23452105.099                   125144918.606 7        43.000    23452108.788
  23452107.992    97334959.048 6        37.000


  20198212.937                   108084758.140 8        49.000    20198214.373
  20198214.730    84065927.392 5        33.000


  24530526.243    24530526.127   128908876.314 6        36.500    24530524.928
  24530525.487   100448523.56942        14.250


  22428420.596                   119934994.526 6        38.750    22428421.088
  22428421.445    93282699.382 5        31.250


  22823001.015                   122002006.602 7        42.500    22823003.926
  22823005.384    94890478.586 5        33.250


  20941167.369                   111785458.895 8        48.750    20941171.116
  20941171.474    86944267.436 7        46.000


  20569322.534    20569322.454   108092544.155 8        50.000
  20569321.130    84227969.21747        42.500


 16  2 18  0  1 47.0000000  0 18G26G21G27G10G16R14G31G18G20G08R15R02
                                R17G29R24R01R18G04
  20248975.895    20248975.659   106409119.149 8        51.250    20248977.845
  20248977.965    82916214.049 8        49.000    20248977.536    79461380.916 9
        54.750

  21547317.749    21547316.989   113232042.178 8        48.250
  21547315.455    88232790.03546        39.500


  21812732.990    21812732.610   114626717.825 7        46.750    21812734.439
  21812734.502    89319525.922 7        45.750    21812734.958    85597882.664 8
        50.750

  23805399.198    23805399.172   125098275.011 6        40.750    23805402.256
  23805402.435    97479156.782 6        40.000    23805400.445    93417522.991 7
        43.500

  20447395.009    20447394.388   107451807.260 8        50.750
  20447392.970    83728677.89247        44.000


  21725734.432                   115810413.124 6        39.750    21725740.075
  21725740.666    90074786.879 6        38.000


  23937299.975    23937299.868   125791384.254 5        31.750    23937300.225
  23937300.936    98019249.310 5        35.500


  22722786.301    22722785.640   119409075.580 7        43.500
  22722785.232    93046046.58544        28.250


  23611951.959    23611951.105   124081663.834 6        40.750
  23611949.911    96687010.37343        21.250


  24438851.320    24438851.218   128427039.746 5        35.500    24438853.780
  24438852.881   100073043.917 5        34.000    24438854.044    95903319.394 6
        39.500

  19541228.785                   104422414.191 8        49.750    19541233.896
  19541233.287    81217459.877 8        48.750


  23451451.585                   125141431.602 7        43.000    23451455.292
  23451454.429    97332246.925 6        37.250


  20198594.581                   108086800.456 8        49.000    20198596.307
  20198596.737    84067515.880 5        32.750


  24531064.997    24531064.877   128911707.785 6        36.500    24531063.799
  24531064.277   100450729.90942        14.000


  22429010.300                   119938147.979 6        39.000    22429010.139
  22429011.539    93285152.067 5        31.750


  22822805.744                   122000963.813 7        42.000    22822809.299
  22822810.068    94889667.538 5        33.750


  20940786.628                   111783425.972 8        48.750    20940790.255
  20940790.532    86942686.268 7        46.000


  20569606.486    20569606.406   108094036.439 8        50.000
  20569605.104    84229132.03647        42.250


 16  2 18  0  1 48.0000000  0 18G26G21G27G10G16R14G31G18G20G08R15R02
                                R17G29R24R01R18G04
  20249097.881    20249097.645   106409760.051 8        51.500    20249099.768
  20249099.920    82916713.452 8        49.000    20249099.495    79461859.508 9
        54.750

  21547607.984    21547607.224   113233567.073 8        48.250
  21547605.636    88233978.26446        39.500


  21812351.114    21812350.734   114624710.765 7        46.750    21812352.589
  21812352.567    89317961.985 7        45.750    21812353.032    85596383.887 8
        50.750

  23804781.389    23804781.363   125095027.542 6        41.000    23804784.385
  23804784.457    97476626.298 6        40.000    23804782.534    93415097.933 7
        43.750

  20447169.773    20447169.156   107450624.042 8        50.750
  20447167.814    83727755.90347        44.000


  21726536.060                   115814686.688 6        39.250    21726541.851
  21726542.544    90078110.733 6        38.000


  23937962.173    23937962.071   125794866.029 5        32.000    23937962.884
  23937963.505    98021962.370 5        35.750


  22722475.264    22722474.603   119407440.560 7        43.500
  22722474.088    93044772.54544        28.250


  23612200.326    23612199.472   124082969.277 6        40.750
  23612198.345    96688027.60643        21.250


  24438331.937    24438331.830   128424309.445 5        35.500    24438334.419
  24438333.355   100070916.423 5        34.000    24438334.553    95901280.524 6
        39.500

  19541533.535                   104424042.583 8        50.000    19541538.646
  19541537.970    81218726.408 8        48.750


  23450798.366                   125137944.808 7        43.000    23450801.402
  23450801.138    97329534.957 6        37.000


  20198976.435                   108088843.029 8        49.250    20198977.330
  20198978.273    84069104.547 5        33.000


  24531603.694    24531603.574   128914539.219 6        36.750    24531602.486
  24531603.081   100452936.22442        14.250


  22429599.906                   119941301.429 6        39.000    22429600.228
  22429600.903    93287604.771 5        31.500


  22822610.017                   121999921.786 6        41.750    22822614.484
  22822615.137    94888857.066 5        33.750


  20940405.865                   111781393.416 8        49.000    20940409.545
  20940409.715    86941105.390 7        46.000


  20569890.627    20569890.547   108095529.229 8        50.250
  20569889.173    84230295.24947        42.500


 16  2 18  0  1 49.0000000  0 18G26G21G27G10G16R14G31G18G20G08R15R02
                                R17G29R24R01R18G04
  20249219.938    20249219.702   106410401.477 8        51.500    20249221.843
  20249221.973    82917213.265 8        48.750    20249221.566    79462338.498 9
        54.750

  21547898.143    21547897.383   113235092.331 8        48.250
  21547895.880    88235166.77846        39.500


  21811969.179    21811968.799   114622703.910 7        47.000    21811970.780
  21811970.677    89316398.194 7        45.750    21811971.142    85594885.259 8
        50.750

  23804163.509    23804163.478   125091780.156 6        40.750    23804166.622
  23804166.488    97474095.865 6        40.250    23804164.614    93412672.938 7
        43.750

  20446944.770    20446944.153   107449441.268 8        50.750
  20446942.740    83726834.26047        44.000


  21727337.782                   115818960.576 6        39.500    21727343.957
  21727344.359    90081434.869 6        38.000


  23938624.679    23938624.581   125798347.787 5        31.750    23938625.440
  23938626.048    98024675.453 6        36.000


  22722164.240    22722163.579   119405805.920 7        43.500
  22722163.042    93043498.80344        28.250


  23612448.810    23612447.961   124084275.292 6        40.750
  23612446.932    96689045.28343        21.000


  24437812.428    24437812.326   128421579.200 5        35.500    24437814.830
  24437813.770   100068788.932 5        33.750    24437814.968    95899241.695 6
        39.500

  19541838.530                   104425671.827 8        50.000    19541843.615
  19541842.872    81219993.596 8        48.500


  23450145.044                   125134458.194 7        43.000    23450147.834
  23450147.910    97326823.171 6        37.250


  20199358.339                   108090885.854 8        49.250    20199359.385
  20199360.002    84070693.403 5        32.750


  24532142.631    24532142.520   128917370.681 6        36.750    24532141.920
  24532141.876   100455142.56442        14.250


  22430189.851                   119944454.890 6        38.750    22430190.156
  22430190.799    93290057.471 5        32.250


  22822414.571                   121998880.503 6        41.750    22822419.870
  22822420.129    94888047.186 5        34.000


  20940025.290                   111779361.202 8        49.000    20940028.800
  20940028.939    86939524.790 7        46.000


  20570174.870    20570174.794   108097022.508 8        50.000
  20570173.336    84231458.84247        42.250


 16  2 18  0  1 50.0000000  0 18G26G21G27G10G16R14G31G18G20G08R15R02
                                R17G29R24R01R18G04
  20249342.134    20249341.898   106411043.452 8        51.500    20249343.981
  20249344.133    82917713.504 8        49.000    20249343.744    79462817.896 9
        54.750

  21548188.553    21548187.793   113236617.965 8        48.250
  21548186.209    88236355.58446        39.500


  21811587.356    21811586.981   114620697.249 7        46.750    21811589.055
  21811588.814    89314834.566 7        45.750    21811589.297    85593386.777 8
        50.750

  23803545.527    23803545.496   125088532.857 6        40.750    23803548.800
  23803548.532    97471565.508 6        40.250    23803546.712    93410248.014 7
        43.750

  20446719.749    20446719.132   107448258.945 8        50.500
  20446717.750    83725912.97147        44.000


  21728139.745                   115823234.814 6        39.250    21728146.425
  21728146.197    90084759.267 6        38.250


  23939287.244    23939287.160   125801829.651 5        32.000    23939288.429
  23939288.626    98027388.579 6        36.000


  22721853.426    22721852.760   119404171.695 7        43.500
  22721852.067    93042225.38244        28.250


  23612697.669    23612696.824   124085581.906 6        40.750
  23612695.643    96690063.41843        21.000


  24437292.830    24437292.714   128418849.005 5        35.250    24437295.187
  24437294.221   100066661.517 5        33.750    24437295.433    95897202.917 6
        39.750

  19542143.705                   104427301.930 8        50.000    19542148.870
  19542148.003    81221261.450 8        48.750


  23449491.851                   125130971.745 7        42.750    23449494.329
  23449494.557    97324111.489 6        36.750


  20199740.283                   108092928.945 8        49.250    20199741.231
  20199741.964    84072282.465 5        33.750


  24532681.592    24532681.490   128920202.106 6        36.750    24532678.833
  24532680.688   100457348.87642        14.250


  22430779.149                   119947608.338 6        38.750    22430781.022
  22430780.132    93292510.101 5        31.750


  22822219.792                   121997839.992 7        42.000    22822225.162
  22822225.350    94887237.907 5        33.250


  20939644.715                   111777329.331 8        49.250    20939648.122
  20939648.296    86937944.440 7        46.000


  20570459.229    20570459.153   108098516.295 8        50.250
  20570457.593    84232622.83247        42.250


 16  2 18  0  1 51.0000000  0 18G26G21G27G10G16R14G31G18G20G08R15R02
                                R17G29R24R01R18G04
  20249464.433    20249464.197   106411685.956 8        51.500    20249466.226
  20249466.396    82918214.155 8        49.000    20249465.998    79463297.683 9
        54.750

  21548478.976    21548478.221   113238143.972 8        48.250
  21548476.601    88237544.67946        39.500


  21811205.444    21811205.064   114618690.802 7        46.750    21811207.313
  21811207.004    89313271.098 7        46.000    21811207.460    85591888.458 8
        50.750

  23802927.356    23802927.330   125085285.636 6        40.500    23802930.835
  23802930.598    97469035.205 6        40.500    23802928.823    93407823.141 7
        44.000

  20446494.822    20446494.205   107447077.076 8        50.500
  20446492.850    83724992.03547        44.000


  21728941.855                   115827509.377 6        39.500    21728948.415
  21728948.254    90088083.944 6        38.000


  23939949.290    23939949.219   125805311.552 5        31.250    23939951.370
  23939951.200    98030101.743 5        35.750


  22721542.456    22721541.790   119402537.863 7        43.500
  22721541.160    93040952.26144        28.250


  23612946.470    23612945.625   124086889.104 6        40.750
  23612944.453    96691082.02043        20.750


  24436772.959    24436772.839   128416118.904 5        35.500    24436776.573
  24436774.717   100064534.154 5        34.250    24436775.906    95895164.207 6
        39.500

  19542448.956                   104428932.883 8        49.750    19542453.942
  19542453.213    81222529.969 8        48.750


  23448838.328                   125127485.495 7        43.000    23448841.365
  23448841.177    97321399.939 6        37.250


  20200122.088                   108094972.294 8        49.000    20200124.413
  20200123.957    84073871.742 5        33.250


  24533220.547    24533220.449   128923033.571 6        36.750    24533218.325
  24533219.505   100459555.20642        14.250


  22431368.611                   119950761.792 6        38.750    22431370.923
  22431369.948    93294962.843 5        32.000


  22822025.616                   121996800.254 7        42.000    22822029.877
  22822030.781    94886429.207 5        33.500


  20939264.247                   111775297.841 8        49.000    20939267.368
  20939267.605    86936364.391 7        46.000


  20570743.593    20570743.513   108100010.581 8        50.250
  20570741.943    84233787.20947        42.500


 16  2 18  0  1 52.0000000  0 18G26G21G27G10G16R14G31G18G20G08R15R02
                                R17G29R24R01R18G04
  20249586.848    20249586.616   106412329.001 8        51.500    20249588.534
  20249588.753    82918715.230 8        49.000    20249588.337    79463777.881 9
        54.750

  21548769.466    21548768.706   113239670.347 8        48.250
  21548767.064    88238734.06246        39.500


  21810823.679    21810823.304   114616684.571 7        46.750    21810825.468
  21810825.231    89311707.807 7        45.750    21810825.682    85590390.301 8
        51.000

  23802309.320    23802309.294   125082038.498 6        40.500    23802313.067
  23802312.656    97466504.973 6        40.500    23802311.028    93405398.333 7
        43.750

  20446269.939    20446269.322   107445895.644 8        50.500
  20446268.035    83724071.43847        44.000


  21729743.532                   115831784.285 6        39.250    21729750.763
  21729750.253    90091408.854 6        37.750


  23940612.164    23940612.097   125808793.444 5        31.000    23940613.796
  23940613.773    98032814.914 5        35.750


  22721231.634    22721230.968   119400904.409 7        43.500
  22721230.319    93039679.44144        28.250


  23613195.481    23613194.636   124088196.880 6        40.750
  23613193.402    96692101.05843        20.750


  24436253.513    24436253.379   128413388.839 5        35.500    24436257.198
  24436255.204   100062406.842 5        34.250    24436256.447    95893125.515 6
        39.500

  19542754.328                   104430564.690 8        49.750    19542759.278
  19542758.571    81223799.157 8        48.750


  23448185.306                   125123999.425 7        42.750    23448187.770
  23448187.931    97318688.557 6        38.000


  20200503.817                   108097015.905 8        49.000    20200506.584
  20200506.008    84075461.205 5        33.000


  24533759.785    24533759.683   128925865.012 6        37.250    24533757.916
  24533758.340   100461761.50942        14.500


  22431958.289                   119953915.261 6        38.500    22431960.887
  22431959.451    93297415.521 5        31.500


  22821831.480                   121995761.289 7        42.000    22821835.894
  22821836.614    94885621.130 5        33.750


  20938883.828                   111773266.729 8        49.250    20938886.792
  20938887.074    86934784.635 7        45.750


  20571028.078    20571027.998   108101505.366 8        50.000
  20571026.392    84234951.97547        42.250


 16  2 18  0  1 53.0000000  0 18G26G21G27G10G16R14G31G18G20G08R15R02
                                R17G29R24R01R18G04
  20249709.232    20249709.000   106412972.579 8        51.500    20249711.119
  20249711.213    82919216.726 8        49.000    20249710.802    79464258.478 9
        54.750

  21549060.090    21549059.330   113241197.093 8        48.250
  21549057.595    88239923.73646        39.500


  21810441.905    21810441.525   114614678.544 7        46.750    21810443.783
  21810443.502    89310144.665 7        45.750    21810443.967    85588892.293 8
        50.750

  23801691.163    23801691.137   125078791.450 6        40.250    23801695.223
  23801694.762    97463974.806 6        40.250    23801693.170    93402973.586 7
        43.750

  20446045.249    20446044.632   107444714.671 8        50.500
  20446043.295    83723151.20147        44.000


  21730546.211                   115836059.524 6        39.250    21730552.802
  21730552.306    90094734.048 6        37.500


  23941274.451    23941274.389   125812275.428 5        30.750    23941276.566
  23941276.356    98035528.149 5        35.750


  22720920.803    22720920.137   119399271.368 7        43.500
  22720919.533    93038406.94444        28.250


  23613444.341    23613443.492   124089505.261 6        40.750
  23613442.440    96693120.58043        20.750


  24435734.058    24435733.920   128410658.841 5        35.750    24435736.974
  24435735.700   100060279.563 5        34.000    24435736.983    95891086.875 6
        39.750

  19543059.771                   104432197.363 8        49.750    19543064.632
  19543064.037    81225069.005 8        48.500


  23447532.051                   125120513.571 7        42.500    23447533.996
  23447534.841    97315977.346 6        37.250


  20200885.559                   108099059.780 8        49.000    20200888.376
  20200887.696    84077050.926 5        33.250


  24534298.834    24534298.727   128928696.470 6        37.000    24534295.767
  24534297.126   100463967.85042        14.750


  22432548.073                   119957068.779 6        38.500    22432549.254
  22432549.079    93299868.228 5        32.000


  22821637.501                   121994723.102 7        42.000    22821641.217
  22821642.094    94884813.654 5        33.250


  20938503.539                   111771235.972 8        49.250    20938506.718
  20938506.678    86933205.165 7        46.000


  20571312.611    20571312.531   108103000.653 8        50.250
  20571310.935    84236117.13347        42.250


 16  2 18  0  1 54.0000000  0 18G26G21G27G10G16R14G31G18G20G08R15R02
                                R17G29R24R01R18G04
  20249831.710    20249831.474   106413616.696 8        51.250    20249833.727
  20249833.780    82919718.627 8        49.000    20249833.387    79464739.470 9
        54.750

  21549350.647    21549349.887   113242724.213 8        48.250
  21549348.196    88241113.69846        39.500


  21810060.073    21810059.698   114612672.719 7        46.750    21810062.014
  21810061.804    89308581.688 7        45.750    21810062.269    85587394.437 8
        50.750

  23801073.238    23801073.212   125075544.469 6        40.250    23801077.272
  23801076.896    97461444.701 6        40.250    23801075.376    93400548.897 7
        43.750

  20445820.568    20445819.951   107443534.144 8        50.500
  20445818.645    83722231.30947        44.000


  21731348.930                   115840335.083 6        39.250    21731354.595
  21731354.394    90098059.485 6        37.750


  23941937.678    23941937.616   125815757.454 5        31.000    23941939.279
  23941938.997    98038241.391 5        35.750


  22720610.146    22720609.485   119397638.716 7        43.750
  22720608.835    93037134.74044        28.000


  23613693.437    23613692.588   124090814.232 6        41.000
  23613691.612    96694140.55543        20.750


  24435214.577    24435214.430   128407928.925 5        35.750    24435217.121
  24435216.249   100058152.357 5        34.000    24435217.456    95889048.305 6
        39.500

  19543365.482                   104433830.879 8        49.750    19543370.245
  19543369.771    81226339.525 8        48.500


  23446878.769                   125117027.923 7        42.250    23446881.081
  23446881.730    97313266.267 6        37.750


  20201267.494                   108101103.909 8        48.750    20201270.494
  20201269.537    84078640.801 5        32.250


  24534837.128    24534837.021   128931527.922 6        36.750
  24534835.925   100466174.18342        15.000


  22433137.822                   119960222.295 6        38.500    22433139.047
  22433138.971    93302320.977 5        31.750


  22821443.737                   121993685.677 7        42.000    22821447.529
  22821447.954    94884006.771 5        33.750


  20938123.214                   111769205.556 8        49.250    20938126.089
  20938126.268    86931625.952 7        46.000


  20571597.244    20571597.164   108104496.436 8        50.000
  20571595.576    84237282.67947        42.250


 16  2 18  0  1 55.0000000  0 18G26G21G27G10G16R14G31G18G20G08R15R02
                                R17G29R24R01R18G04
  20249954.344    20249954.112   106414261.335 8        51.250    20249956.401
  20249956.450    82920220.949 8        48.750    20249956.079    79465220.859 9
        54.750

  21549641.351    21549640.591   113244251.698 8        48.250
  21549638.870    88242303.94946        39.500


  21809678.617    21809678.242   114610667.098 7        46.750    21809680.357
  21809680.142    89307018.868 7        45.500    21809680.603    85585896.735 8
        50.750

  23800455.206    23800455.180   125072297.585 6        40.250    23800459.275
  23800459.052    97458914.662 6        40.000    23800457.514    93398124.290 7
        44.000

  20445596.003    20445595.386   107442354.066 8        50.500
  20445594.081    83721311.76847        44.000


  21732150.741                   115844610.992 6        39.250    21732156.746
  21732156.541    90101385.193 6        38.000


  23942600.475    23942600.422   125819239.528 5        31.000    23942601.535
  23942601.656    98040954.697 5        35.750


  22720299.462    22720298.796   119396006.449 7        43.500
  22720298.214    93035862.84344        28.000


  23613942.475    23613941.621   124092123.778 6        41.000
  23613940.892    96695160.97743        20.750


  24434695.046    24434694.894   128405199.094 5        35.750    24434697.545
  24434696.781   100056025.215 5        34.000    24434698.064    95887009.796 6
        39.750

  19543671.274                   104435465.244 8        50.000    19543675.956
  19543675.612    81227610.700 8        48.500


  23446225.483                   125113542.436 7        42.500    23446227.621
  23446228.443    97310555.364 6        37.500


  20201649.460                   108103148.303 8        48.750    20201652.322
  20201651.646    84080230.874 5        33.250


  24535375.802    24535375.686   128934359.377 6        36.500
  24535374.743   100468380.51042        15.500


  22433727.705                   119963375.847 6        38.250    22433728.931
  22433728.725    93304773.752 5        32.250


  22821249.941                   121992649.024 7        42.000    22821253.210
  22821253.885    94883200.459 5        33.500


  20937742.853                   111767175.511 8        49.250    20937745.755
  20937745.979    86930047.031 7        46.000


  20571881.903    20571881.827   108105992.716 8        50.000
  20571880.315    84238448.61147        42.500


 16  2 18  0  1 56.0000000  0 18G26G21G27G10G16R14G31G18G20G08R15R02
                                R17G29R24R01R18G04
  20250077.148    20250076.912   106414906.533 8        51.250    20250079.156
  20250079.228    82920723.697 8        49.000    20250078.852    79465702.660 9
        54.750

  21549932.123    21549931.368   113245779.565 8        48.250
  21549929.610    88243494.49146        39.500


  21809297.080    21809296.705   114608661.695 7        46.750    21809298.507
  21809298.538    89305456.213 7        45.500    21809298.976    85584399.197 8
        50.750

  23799837.514    23799837.492   125069050.786 6        40.250    23799841.244
  23799841.217    97456384.689 6        40.000    23799839.665    93395699.727 7
        43.750

  20445371.514    20445370.897   107441174.438 8        50.500
  20445369.601    83720392.57547        44.000


  21732952.704                   115848887.242 6        39.250    21732958.580
  21732958.826    90104711.154 6        37.500


  23943263.125    23943263.076   125822721.612 5        30.250    23943264.605
  23943264.314    98043667.996 5        35.750


  22719988.975    22719988.314   119394374.597 7        43.500
  22719987.678    93034591.27244        28.000


  23614191.839    23614190.981   124093433.916 6        41.000
  23614190.207    96696181.87043        20.750


  24434175.604    24434175.452   128402469.339 5        35.750    24434178.591
  24434177.321   100053898.137 5        34.250    24434178.645    95884971.333 6
        39.750

  19543977.303                   104437100.470 8        50.000    19543981.904
  19543981.582    81228882.537 8        48.500


  23445572.228                   125110057.140 7        42.250    23445574.393
  23445575.242    97307844.568 6        37.750


  20202031.520                   108105192.971 8        48.750    20202034.851
  20202033.720    84081821.156 5        33.000


  24535914.490    24535914.365   128937190.831 6        36.500    24535911.699
  24535913.551   100470586.84442        15.250


  22434317.606                   119966529.418 6        38.500    22434318.420
  22434318.787    93307226.537 5        31.750


  22821056.409                   121991613.117 6        41.750    22821059.821
  22821060.188    94882394.763 5        33.500


  20937362.716                   111765145.849 8        49.250    20937365.417
  20937365.743    86928468.401 7        46.000


  20572166.651    20572166.575   108107489.501 8        50.000
  20572165.144    84239614.93847        42.500


