     2.11           OBSERVATION DATA    M (MIXED)           RINEX VERSION / TYPE
teqc  2015Nov6      NGS Web User        20160116 23:23:56UTCPGM / RUN BY / DATE
Solaris x86 5.10|AMD64|cc SC5.8 -xarch=amd64|=+|=+          COMMENT
teqc  2015Nov6      NOAA/NOS/NGS/CORS   20160116 06:49:33UTCCOMMENT
Spider V5.3.1.6235                      2016 01 15 01:59    COMMENT
BIT 2 OF LLI FLAGS DATA COLLECTED UNDER A/S CONDITION       COMMENT
SNR is mapped to RINEX snr flag value [1-9]                 COMMENT
LX:    >= 25dBHz -> 1; 26-27dBHz -> 2; 28-31dBHz -> 3       COMMENT
       32-35dBHz -> 4; 36-38dBHz -> 5; 39-41dBHz -> 6       COMMENT
       42-44dBHz -> 7; 45-48dBHz -> 8; >= 49dBHz -> 9       COMMENT
teqc edited: all SBAS satellites excluded                   COMMENT
teqc edited: all Compass satellites excluded                COMMENT
teqc edited: all QZSS satellites excluded                   COMMENT
CAPO                                                        MARKER NAME
3215                                                        MARKER NUMBER
SmartNet  NA        SMRTNT                                  OBSERVER / AGENCY
353424              LEICA GRX1200GGPRO  9.20/3.823          REC # / TYPE / VERS
200005              LEIAT504GG      LEIS                    ANT # / TYPE
 -2693674.7660 -4273831.4480  3880383.2100                  APPROX POSITION XYZ
        0.0000        0.0000        0.0000                  ANTENNA: DELTA H/E/N
     1     1                                                WAVELENGTH FACT L1/2
     4    C1    L1    P2    L2                              # / TYPES OF OBSERV
     1.0000                                                 INTERVAL
teqc windowed: start @ 2016 Jan 15 00:00:00.000             COMMENT
teqc windowed:  end  @ 2016 Jan 15 01:00:00.000             COMMENT
teqc edited: all GLONASS satellites excluded                COMMENT
  2016     1    15     0     0    0.0000000     GPS         TIME OF FIRST OBS
    17                                                      LEAP SECONDS
                                                            END OF HEADER
 16  1 15  0  0  0.0000000  0  8G03G06G07G09G16G23G26G32
  21131363.900   111046115.899 9  21131365.300    86529469.64349
  24137007.500   126840835.591 7  24137010.880    98837034.34645
  23207194.880   121954655.101 8  23207194.560    95029620.00946
  21926577.480   115224986.128 9  21926578.340    89785732.44148
  21157256.920   111182199.407 9  21157255.100    86635506.67048
  20628791.480   108405113.967 9  20628787.520    84471554.57749
  22563073.140   118569830.579 8  22563075.260    92392116.29047
  23775661.200   124941941.665 8  23775661.280    97357365.81445
 16  1 15  0  0  1.0000000  0  8G03G06G07G09G16G23G26G32
  21131809.220   111048456.187 9  21131810.640    86531293.24249
  24137112.840   126841389.065 7  24137116.200    98837465.63745
  23206698.380   121952045.942 8  23206698.080    95027586.89446
  21926156.800   115222775.419 9  21926157.640    89784009.81348
  21157220.760   111182009.325 9  21157218.920    86635358.55448
  20628645.460   108404346.635 9  20628641.500    84470956.65549
  22563416.820   118571636.640 8  22563418.940    92393523.61347
  23776311.940   124945361.224 8  23776312.000    97360030.40444
 16  1 15  0  0  2.0000000  0  8G03G06G07G09G16G23G26G32
  21132254.680   111050797.064 9  21132256.100    86533117.29949
  24137218.280   126841943.182 7  24137221.640    98837897.41045
  23206201.940   121949437.100 8  23206201.640    95025554.03646
  21925736.160   115220564.957 9  21925737.000    89782287.37548
  21157184.740   111181820.078 9  21157182.900    86635211.08648
  20628499.500   108403579.671 9  20628495.560    84470359.01749
  22563760.620   118573443.369 8  22563762.760    92394931.45347
  23776962.720   124948781.023 8  23776962.760    97362695.17445
 16  1 15  0  0  3.0000000  0  8G03G06G07G09G16G23G26G32
  21132700.240   111053138.534 9  21132701.660    86534941.82049
  24137323.840   126842497.943 7  24137327.180    98838329.68546
  23205705.560   121946828.593 8  23205705.260    95023521.43546
  21925315.580   115218354.733 9  21925316.420    89780565.12348
  21157148.900   111181631.630 9  21157147.040    86635064.24648
  20628353.640   108402813.071 9  20628349.680    84469761.66949
  22564104.560   118575250.744 8  22564106.680    92396339.79747
  23777613.540   124952201.052 8  23777613.580    97365360.13845
 16  1 15  0  0  4.0000000  0  8G03G06G07G09G16G23G26G32
  21133145.920   111055480.664 9  21133147.360    86536766.85649
  24137429.540   126843053.385 7  24137432.880    98838762.49745
  23205209.240   121944220.450 8  23205208.940    95021489.11646
  21924895.040   115216144.786 9  21924895.880    89778843.09048
  21157113.200   111181444.067 9  21157111.340    86634918.09348
  20628207.840   108402046.887 9  20628203.880    84469164.64249
  22564448.620   118577058.833 8  22564450.760    92397748.69847
  23778264.440   124955621.416 8  23778264.460    97368025.35645
 16  1 15  0  0  5.0000000  0  8G03G06G07G09G16G23G26G32
  21133591.700   111057823.241 9  21133593.140    86538592.24049
  24137535.340   126843609.352 7  24137538.680    98839195.72446
  23204712.980   121941612.510 8  23204712.660    95019456.95746
  21924474.500   115213934.920 9  21924475.340    89777121.11448
  21157077.640   111181257.200 9  21157075.780    86634772.48748
  20628062.080   108401280.937 9  20628058.120    84468567.79349
  22564792.780   118578867.435 8  22564794.920    92399157.99447
  23778915.320   124959041.876 8  23778915.360    97370690.64645
 16  1 15  0  0  6.0000000  0  8G03G06G07G09G16G23G26G32
  21134037.560   111060166.235 9  21134038.980    86540417.94849
  24137641.220   126844165.768 7  24137644.600    98839629.29545
  23204216.720   121939004.696 8  23204216.400    95017424.89646
  21924054.000   115211725.138 9  21924054.840    89775399.21148
  21157042.200   111181070.967 9  21157040.340    86634627.36848
  20627916.360   108400515.173 9  20627912.400    84467971.09449
  22565137.040   118580676.518 8  22565139.180    92400567.67347
  23779566.240   124962462.413 8  23779566.260    97373355.99745
 16  1 15  0  0  7.0000000  0  8G03G06G07G09G16G23G26G32
  21134483.480   111062509.605 9  21134484.920    86542243.95149
  24137747.200   126844722.631 7  24137750.540    98840063.21446
  23203720.500   121936397.029 8  23203720.180    95015392.94846
  21923633.500   115209515.380 9  21923634.340    89773677.32548
  21157006.900   111180885.367 9  21157005.020    86634482.74548
  20627770.680   108399749.583 9  20627766.720    84467374.53549
  22565481.400   118582486.076 8  22565483.540    92401977.71447
  23780217.180   124965883.008 8  23780217.200    97376021.39445
 16  1 15  0  0  8.0000000  0  8G03G06G07G09G16G23G26G32
  21134929.500   111064853.522 9  21134930.940    86544070.37749
  24137853.260   126845280.067 7  24137856.620    98840497.58046
  23203224.320   121933789.591 8  23203224.000    95013361.18246
  21923213.040   115207305.790 9  21923213.860    89771955.56948
  21156971.720   111180700.532 9  21156969.840    86634338.71948
  20627625.040   108398984.294 9  20627621.080    84466778.20649
  22565825.860   118584296.207 8  22565828.000    92403388.20447
  23780868.140   124969303.760 8  23780868.160    97378686.91345
 16  1 15  0  0  9.0000000  0  8G03G06G07G09G16G23G26G32
  21135375.600   111067197.877 9  21135377.060    86545897.14849
  24137959.440   126845838.002 7  24137962.840    98840932.34145
  23202728.180   121931182.352 8  23202727.860    95011329.56846
  21922792.580   115205096.292 9  21922793.400    89770233.88248
  21156936.680   111180516.364 9  21156934.800    86634195.21248
  20627479.460   108398219.219 9  20627475.500    84466182.04349
  22566170.420   118586106.848 8  22566172.560    92404799.09147
  23781519.120   124972724.643 8  23781519.140    97381352.53445
 16  1 15  0  0 10.0000000  0  8G03G06G07G09G16G23G26G32
  21135821.800   111069542.619 9  21135823.260    86547724.22149
  24138065.700   126846396.344 7  24138069.080    98841367.41945
  23202232.060   121928575.198 8  23202231.720    95009298.02146
  21922372.120   115202886.799 9  21922372.940    89768512.19948
  21156901.740   111180332.805 9  21156899.860    86634052.17948
  20627333.900   108397454.288 9  20627329.940    84465585.98949
  22566515.040   118587917.912 8  22566517.180    92406210.31047
  23782170.100   124976145.543 8  23782170.100    97384018.16845
 16  1 15  0  0 11.0000000  0  8G03G06G07G09G16G23G26G32
  21136268.020   111071887.555 9  21136269.480    86549551.44249
  24138172.000   126846954.959 7  24138175.340    98841802.69945
  23201735.920   121925967.996 8  23201735.600    95007266.43546
  21921951.640   115200677.170 9  21921952.460    89766790.41448
  21156866.900   111180149.707 9  21156865.020    86633909.50348
  20627188.340   108396689.357 9  20627184.380    84464989.93949
  22566859.740   118589729.283 8  22566861.880    92407621.76847
  23782821.060   124979566.337 8  23782821.060    97386683.72446
 16  1 15  0  0 12.0000000  0  8G03G06G07G09G16G23G26G32
  21136714.360   111074233.069 9  21136715.840    86551379.11649
  24138278.420   126847514.190 7  24138281.760    98842238.45346
  23201239.840   121923361.086 8  23201239.520    95005235.07746
  21921531.220   115198467.756 9  21921532.020    89765068.79348
  21156832.220   111179967.391 9  21156830.340    86633767.44148
  20627042.840   108395924.760 9  20627038.880    84464394.14749
  22567204.540   118591541.262 8  22567206.680    92409033.69747
  23783472.060   124982987.320 8  23783472.040    97389349.42645
 16  1 15  0  0 13.0000000  0  8G03G06G07G09G16G23G26G32
  21137160.800   111076579.206 9  21137162.280    86553207.27249
  24138384.960   126848074.082 7  24138388.300    98842674.73346
  23200743.840   121920754.552 8  23200743.500    95003204.01546
  21921110.820   115196258.605 9  21921111.620    89763347.37448
  21156797.700   111179785.959 9  21156795.800    86633626.06348
  20626897.420   108395160.576 9  20626893.460    84463798.68149
  22567549.480   118593353.947 8  22567551.620    92410446.17947
  23784123.120   124986408.616 8  23784123.120    97392015.36645
 16  1 15  0  0 14.0000000  0  8G03G06G07G09G16G23G26G32
  21137607.360   111078925.900 9  21137608.840    86555035.86749
  24138491.600   126848634.603 7  24138494.980    98843111.50645
  23200247.880   121918148.285 8  23200247.560    95001173.16047
  21920690.480   115194049.648 9  21920691.280    89761626.11348
  21156763.320   111179605.298 9  21156761.420    86633485.29348
  20626752.060   108394396.714 9  20626748.100    84463203.46249
  22567894.540   118595167.249 8  22567896.680    92411859.14047
  23784774.220   124989830.104 8  23784774.200    97394681.45545
 16  1 15  0  0 15.0000000  0  8G03G06G07G09G16G23G26G32
  21138054.020   111081273.156 9  21138055.520    86556864.89849
  24138598.380   126849195.704 7  24138601.740    98843548.72845
  23199751.980   121915542.319 8  23199751.660    94999142.53747
  21920270.160   115191840.891 9  21920270.960    89759905.00648
  21156729.100   111179425.447 9  21156727.180    86633345.14948
  20626606.760   108393633.192 9  20626602.820    84462608.50749
  22568239.720   118596981.164 8  22568241.860    92413272.58247
  23785425.360   124993251.823 8  23785425.340    97397347.71945
 16  1 15  0  0 16.0000000  0  8G03G06G07G09G16G23G26G32
  21138500.780   111083620.933 9  21138502.280    86558694.33249
  24138705.260   126849757.373 7  24138708.640    98843986.39245
  23199256.140   121912936.620 8  23199255.800    94997112.12646
  21919849.880   115189632.297 9  21919850.680    89758184.02448
  21156695.020   111179246.335 9  21156693.100    86633205.58148
  20626461.520   108392869.961 9  20626457.580    84462013.78649
  22568585.000   118598795.662 8  22568587.160    92414686.47947
  23786076.540   124996673.724 8  23786076.500    97400014.12945
 16  1 15  0  0 17.0000000  0  8G03G06G07G09G16G23G26G32
  21138947.660   111085969.300 9  21138949.160    86560524.22749
  24138812.260   126850319.698 7  24138815.620    98844424.56845
  23198760.340   121910331.226 8  23198760.020    94995081.95146
  21919429.640   115187423.944 9  21919430.440    89756463.22948
  21156661.080   111179068.050 9  21156659.160    86633066.65948
  20626316.360   108392107.095 9  20626312.400    84461419.34349
  22568930.420   118600610.833 8  22568932.580    92416100.89747
  23786727.760   125000095.863 8  23786727.720    97402680.73945
 16  1 15  0  0 18.0000000  0  8G03G06G07G09G16G23G26G32
  21139394.660   111088318.369 9  21139396.180    86562354.66649
  24138919.420   126850882.778 7  24138922.780    98844863.33146
  23198264.640   121907726.281 8  23198264.320    94993052.12647
  21919009.460   115185215.944 9  21919010.280    89754742.71248
  21156627.340   111178890.713 9  21156625.420    86632928.47348
  20626171.280   108391344.721 9  20626167.320    84460825.28649
  22569275.980   118602426.758 8  22569278.140    92417515.90447
  23787379.040   125003518.358 8  23787379.020    97405347.60845
 16  1 15  0  0 19.0000000  0  8G03G06G07G09G16G23G26G32
  21139841.800   111090668.009 9  21139843.300    86564185.55449
  24139026.700   126851446.462 7  24139030.080    98845302.56545
  23197769.000   121905121.628 8  23197768.660    94991022.52646
  21918589.340   115183008.146 9  21918590.140    89753022.35248
  21156593.740   111178714.170 9  21156591.820    86632790.90548
  20626026.280   108390582.680 9  20626022.320    84460231.48849
  22569621.660   118604243.324 8  22569623.800    92418931.40847
  23788030.380   125006941.094 8  23788030.360    97408014.67545
 16  1 15  0  0 20.0000000  0  8G03G06G07G09G16G23G26G32
  21140288.980   111093017.979 9  21140290.480    86566016.69749
  24139134.040   126852010.540 7  24139137.460    98845742.11545
  23197273.360   121902517.033 8  23197273.020    94988992.96946
  21918169.200   115180800.334 9  21918170.000    89751301.98348
  21156560.260   111178538.203 9  21156558.340    86632653.78848
  20625881.280   108389820.763 9  20625877.320    84459637.78649
  22569967.420   118606060.294 8  22569969.560    92420347.23147
  23788681.720   125010363.840 8  23788681.700    97410681.75445
 16  1 15  0  0 21.0000000  0  8G03G06G07G09G16G23G26G32
  21140736.280   111095368.567 9  21140737.780    86567848.32649
  24139241.500   126852575.275 7  24139244.940    98846182.16445
  23196777.780   121899912.818 8  23196777.480    94986963.71547
  21917749.120   115178592.773 9  21917749.900    89749581.80648
  21156526.940   111178363.087 9  21156525.020    86632517.33148
  20625736.380   108389059.227 9  20625732.400    84459044.38149
  22570313.320   118607877.935 8  22570315.460    92421763.57047
  23789333.080   125013786.834 8  23789333.060    97413349.02446
 16  1 15  0  0 22.0000000  0  8G03G06G07G09G16G23G26G32
  21141183.700   111097719.796 9  21141185.220    86569680.45349
  24139349.100   126853140.706 7  24139352.520    98846622.76646
  23196282.280   121897308.948 8  23196281.960    94984934.73046
  21917329.100   115176385.506 9  21917329.860    89747861.86148
  21156493.780   111178188.843 9  21156491.860    86632381.55948
  20625591.540   108388298.122 9  20625587.580    84458451.31249
  22570659.340   118609696.295 8  22570661.480    92423180.47447
  23789984.520   125017210.148 8  23789984.500    97416016.53545
 16  1 15  0  0 23.0000000  0  8G03G06G07G09G16G23G26G32
  21141631.200   111100071.493 9  21141632.720    86571512.94449
  24139456.800   126853706.637 7  24139460.200    98847063.74946
  23195786.820   121894705.275 8  23195786.480    94982905.89046
  21916909.080   115174178.328 9  21916909.860    89746141.98248
  21156460.760   111178015.282 9  21156458.840    86632246.31948
  20625446.740   108387537.251 9  20625442.780    84457858.42449
  22571005.460   118611515.155 8  22571007.600    92424597.77047
  23790636.000   125020633.546 8  23790635.960    97418684.11445
 16  1 15  0  0 24.0000000  0  8G03G06G07G09G16G23G26G32
  21142078.780   111102423.599 9  21142080.320    86573345.75249
  24139564.580   126854273.056 7  24139568.000    98847505.11045
  23195291.380   121892101.768 8  23195291.040    94980877.18746
  21916489.080   115171971.226 9  21916489.860    89744422.16748
  21156427.860   111177842.394 9  21156425.920    86632111.60148
  20625302.000   108386776.579 9  20625298.040    84457265.68849
  22571351.680   118613334.503 8  22571353.820    92426015.44447
  23791287.460   125024057.049 8  23791287.440    97421351.77945
 16  1 15  0  0 25.0000000  0  8G03G06G07G09G16G23G26G32
  21142526.500   111104776.339 9  21142528.020    86575179.05449
  24139672.480   126854840.103 7  24139675.900    98847946.95946
  23194796.020   121889498.594 8  23194795.680    94978848.74046
  21916069.120   115169764.387 9  21916069.920    89742702.55048
  21156395.120   111177670.331 9  21156393.180    86631977.52848
  20625157.320   108386016.296 9  20625153.360    84456673.26249
  22571698.020   118615154.551 8  22571700.180    92427433.66047
  23791938.980   125027480.807 8  23791938.980    97424019.63645
 16  1 15  0  0 26.0000000  0  8G03G06G07G09G16G23G26G32
  21142974.320   111107129.568 9  21142975.840    86577012.74049
  24139780.520   126855407.729 7  24139783.940    98848389.26946
  23194300.700   121886895.665 8  23194300.340    94976820.48346
  21915649.200   115167557.690 9  21915649.980    89740983.04848
  21156362.520   111177499.012 9  21156360.580    86631844.03248
  20625012.700   108385256.289 9  20625008.740    84456081.04749
  22572044.460   118616975.150 8  22572046.620    92428852.31347
  23792590.540   125030904.731 8  23792590.540    97426687.63346
 16  1 15  0  0 27.0000000  0  8G03G06G07G09G16G23G26G32
  21143422.160   111109483.067 9  21143423.680    86578846.63649
  24139888.580   126855975.664 7  24139892.020    98848831.81445
  23193805.360   121884292.735 8  23193805.040    94974792.23046
  21915229.260   115165350.898 9  21915230.040    89739263.47048
  21156330.020   111177328.197 9  21156328.080    86631710.93048
  20624868.080   108384496.327 9  20624864.120    84455488.87149
  22572390.980   118618796.091 8  22572393.140    92430271.23047
  23793242.080   125034328.581 8  23793242.080    97429355.56245
 16  1 15  0  0 28.0000000  0  8G03G06G07G09G16G23G26G32
  21143870.080   111111836.910 9  21143871.600    86580680.79749
  24139996.740   126856543.980 7  24140000.160    98849274.66245
  23193310.060   121881689.882 8  23193309.740    94972764.03346
  21914809.320   115163144.098 9  21914810.100    89737543.88848
  21156297.620   111177157.957 9  21156295.680    86631578.27448
  20624723.480   108383736.488 9  20624719.520    84454896.78549
  22572737.580   118620617.446 8  22572739.740    92431690.46847
  23793893.620   125037752.433 8  23793893.640    97432023.49545
 16  1 15  0  0 29.0000000  0  8G03G06G07G09G16G23G26G32
  21144318.080   111114191.158 9  21144319.600    86582515.27449
  24140104.960   126857112.762 7  24140108.400    98849717.86845
  23192814.780   121879087.192 8  23192814.460    94970735.96546
  21914389.400   115160937.344 9  21914390.180    89735824.34048
  21156265.340   111176988.356 9  21156263.400    86631446.11748
  20624578.940   108382976.836 9  20624574.960    84454304.85049
  22573084.260   118622439.257 8  22573086.440    92433110.05347
  23794545.180   125041176.354 8  23794545.200    97434691.47945
 16  1 15  0  0 30.0000000  0  8G03G06G07G09G16G23G26G32
  21144766.160   111116545.813 9  21144767.680    86584350.06949
  24140213.280   126857682.003 7  24140216.720    98850161.43545
  23192319.520   121876484.620 8  23192319.200    94968707.99046
  21913969.480   115158730.649 9  21913970.260    89734104.83848
  21156233.200   111176819.396 9  21156231.240    86631314.46048
  20624434.400   108382217.363 9  20624430.440    84453713.05049
  22573431.040   118624261.532 8  22573433.200    92434530.00847
  23795196.740   125044600.336 8  23795196.780    97437359.51846
 16  1 15  0  0 31.0000000  0  8G03G06G07G09G16G23G26G32
  21145214.320   111118900.850 9  21145215.840    86586185.16249
  24140321.660   126858251.664 7  24140325.160    98850605.32345
  23191824.280   121873882.184 8  23191823.980    94966680.12346
  21913549.540   115156523.986 9  21913550.340    89732385.36348
  21156201.160   111176651.046 9  21156199.220    86631183.28048
  20624289.920   108381458.050 9  20624285.940    84453121.38049
  22573777.900   118626084.270 8  22573780.080    92435950.31947
  23795848.280   125048024.357 8  23795848.360    97440027.58445
 16  1 15  0  0 32.0000000  0  8G03G06G07G09G16G23G26G32
  21145662.600   111121256.637 9  21145664.120    86588020.84149
  24140430.200   126858822.122 7  24140433.700    98851049.83545
  23191329.140   121871280.211 8  23191328.860    94964652.61146
  21913129.700   115154317.704 9  21913130.500    89730666.18448
  21156169.320   111176483.707 9  21156167.380    86631052.88648
  20624145.520   108380699.259 9  20624141.560    84452530.11449
  22574124.900   118627907.807 8  22574127.080    92437371.25747
  23796499.940   125051448.793 8  23796500.020    97442695.98245
 16  1 15  0  0 33.0000000  0  8G03G06G07G09G16G23G26G32
  21146111.000   111123613.001 9  21146112.520    86589856.96649
  24140538.880   126859393.208 7  24140542.380    98851494.83545
  23190834.060   121868678.535 8  23190833.780    94962625.33547
  21912709.920   115152111.635 9  21912710.700    89728947.17148
  21156137.640   111176317.175 9  21156135.680    86630923.12148
  20624001.200   108379940.821 9  20623997.240    84451939.12449
  22574472.040   118629731.977 8  22574474.220    92438792.68847
  23797151.620   125054873.441 8  23797151.720    97445364.53445
 16  1 15  0  0 34.0000000  0  8G03G06G07G09G16G23G26G32
  21146559.500   111125969.855 9  21146561.000    86591693.47649
  24140647.680   126859964.835 7  24140651.140    98851940.26346
  23190339.040   121866077.119 8  23190338.740    94960598.25846
  21912290.140   115149905.716 9  21912290.920    89727228.27148
  21156106.080   111176151.392 9  21156104.140    86630793.93748
  20623856.920   108379182.664 9  20623852.940    84451348.35249
  22574819.280   118631556.715 8  22574821.440    92440214.56147
  23797803.340   125058298.261 8  23797803.480    97448033.22445
 16  1 15  0  0 35.0000000  0  8G03G06G07G09G16G23G26G32
  21147008.120   111128327.301 9  21147009.620    86593530.44849
  24140756.580   126860537.108 7  24140760.040    98852386.19446
  23189844.040   121863476.005 8  23189843.760    94958571.42047
  21911870.420   115147700.033 9  21911871.200    89725509.55748
  21156074.680   111175986.426 9  21156072.740    86630665.39448
  20623712.720   108378424.875 9  20623708.760    84450757.86349
  22575166.640   118633382.109 8  22575168.800    92441636.94847
  23798455.100   125061723.320 8  23798455.240    97450702.09945
 16  1 15  0  0 36.0000000  0  8G03G06G07G09G16G23G26G32
  21147456.800   111130685.206 9  21147458.320    86595367.77549
  24140865.560   126861109.902 7  24140869.060    98852832.52746
  23189349.120   121860875.104 8  23189348.840    94956544.74846
  21911450.720   115145494.473 9  21911451.500    89723790.94348
  21156043.440   111175822.151 9  21156041.480    86630537.38648
  20623568.560   108377667.325 9  20623564.600    84450167.56249
  22575514.120   118635208.039 8  22575516.280    92443059.74947
  23799106.880   125065148.520 8  23799107.040    97453371.08245
 16  1 15  0  0 37.0000000  0  8G03G06G07G09G16G23G26G32
  21147905.600   111133043.645 9  21147907.100    86597205.51849
  24140974.660   126861683.231 7  24140978.160    98853279.27745
  23188854.220   121858274.445 8  23188853.960    94954518.26047
  21911031.040   115143289.066 9  21911031.820    89722072.44648
  21156012.320   111175658.630 9  21156010.360    86630409.96948
  20623424.460   108376910.069 9  20623420.500    84449577.49249
  22575861.700   118637034.556 8  22575863.860    92444483.01347
  23799758.700   125068573.868 8  23799758.860    97456040.17445
 16  1 15  0  0 38.0000000  0  8G03G06G07G09G16G23G26G32
  21148354.500   111135402.675 9  21148356.000    86599043.72349
  24141083.880   126862257.252 7  24141087.400    98853726.55845
  23188359.400   121855674.130 8  23188359.140    94952492.03746
  21910611.400   115141083.909 9  21910612.200    89720354.14448
  21155981.360   111175495.966 9  21155979.400    86630283.21348
  20623280.440   108376153.199 9  20623276.460    84448987.72449
  22576209.400   118638861.710 8  22576211.560    92445906.76847
  23800410.560   125071999.492 8  23800410.760    97458709.48745
 16  1 15  0  0 39.0000000  0  8G03G06G07G09G16G23G26G32
  21148803.500   111137762.118 9  21148805.000    86600882.25249
  24141193.200   126862831.714 7  24141196.700    98854174.18945
  23187864.600   121853073.946 8  23187864.340    94950465.92646
  21910191.800   115138878.801 9  21910192.580    89718635.88048
  21155950.520   111175333.932 9  21155948.560    86630156.95548
  20623136.440   108375396.516 9  20623132.460    84448398.09949
  22576557.220   118640689.378 8  22576559.360    92447330.92847
  23801062.460   125075425.191 8  23801062.620    97461378.86645
 16  1 15  0  0 40.0000000  0  8G03G06G07G09G16G23G26G32
  21149252.580   111140122.115 9  21149254.080    86602721.21149
  24141302.620   126863406.757 7  24141306.160    98854622.27446
  23187369.860   121850474.065 8  23187369.600    94948440.04446
  21909772.200   115136673.886 9  21909773.000    89716917.76648
  21155919.840   111175172.673 9  21155917.880    86630031.30348
  20622992.520   108374640.153 9  20622988.540    84447808.72549
  22576905.120   118642517.631 8  22576907.280    92448755.54347
  23801714.380   125078851.065 8  23801714.560    97464048.37545
 16  1 15  0  0 41.0000000  0  8G03G06G07G09G16G23G26G32
  21149701.720   111142482.288 9  21149703.220    86604560.30449
  24141412.100   126863982.049 7  24141415.640    98855070.55845
  23186875.100   121847874.083 8  23186874.820    94946414.08546
  21909352.600   115134468.812 9  21909353.380    89715199.52948
  21155889.220   111175011.825 9  21155887.280    86629905.96648
  20622848.580   108373883.757 9  20622844.600    84447219.32749
  22577253.080   118644346.141 8  22577255.220    92450180.34847
  23802366.260   125082276.807 8  23802366.440    97466717.78545
 16  1 15  0  0 42.0000000  0  8G03G06G07G09G16G23G26G32
  21150150.820   111144842.303 9  21150152.300    86606399.27849
  24141521.560   126864557.213 7  24141525.100    98855518.73545
  23186380.260   121845273.655 8  23186379.980    94944387.77546
  21908932.880   115132263.221 9  21908933.660    89713480.88948
  21155858.640   111174851.049 9  21155856.680    86629780.68548
  20622704.580   108373126.974 9  20622700.580    84446629.62449
  22577601.020   118646174.539 8  22577603.160    92451605.07447
  23803018.040   125085702.031 8  23803018.260    97469386.78445
 16  1 15  0  0 43.0000000  0  8G03G06G07G09G16G23G26G32
  21150599.940   111147202.505 9  21150601.440    86608238.39449
  24141631.060   126865132.637 7  24141634.620    98855967.10946
  23185885.400   121842673.159 8  23185885.120    94942361.41446
  21908513.120   115130057.460 9  21908513.920    89711762.11248
  21155828.120   111174690.716 9  21155826.160    86629655.74848
  20622560.560   108372370.170 9  20622556.580    84446039.90749
  22577949.000   118648003.210 8  22577951.160    92453030.01447
  23803669.820   125089127.105 8  23803670.000    97472055.67645
 16  1 15  0  0 44.0000000  0  8G03G06G07G09G16G23G26G32
  21151049.220   111149563.409 9  21151050.700    86610078.05949
  24141740.700   126865708.796 7  24141744.280    98856416.06945
  23185390.620   121840073.109 8  23185390.340    94940335.40146
  21908093.440   115127852.040 9  21908094.240    89710043.60348
  21155797.780   111174531.309 9  21155795.840    86629531.53748
  20622416.640   108371613.834 9  20622412.660    84445450.55449
  22578297.140   118649832.630 8  22578299.280    92454455.53447
  23804321.640   125092552.508 8  23804321.840    97474724.82345
 16  1 15  0  0 45.0000000  0  8G03G06G07G09G16G23G26G32
  21151498.620   111151925.030 9  21151500.100    86611918.28349
  24141850.460   126866285.733 7  24141854.080    98856865.62845
  23184895.920   121837473.509 8  23184895.620    94938309.74346
  21907673.840   115125647.000 9  21907674.640    89708325.39248
  21155767.640   111174372.860 9  21155765.680    86629408.07448
  20622272.800   108370858.007 9  20622268.820    84444861.60049
  22578645.420   118651662.845 8  22578647.560    92455881.67647
  23804973.540   125095978.331 8  23804973.740    97477394.29445
 16  1 15  0  0 46.0000000  0  8G03G06G07G09G16G23G26G32
  21151948.180   111154287.407 9  21151949.640    86613759.09549
  24141960.420   126866863.472 7  24141964.020    98857315.80845
  23184401.340   121834874.418 8  23184401.040    94936284.48246
  21907254.300   115123442.371 9  21907255.120    89706607.50148
  21155737.680   111174215.416 9  21155735.720    86629285.39048
  20622129.080   108370102.727 9  20622125.100    84444273.06849
  22578993.860   118653493.876 8  22578996.020    92457308.45547
  23805625.540   125099404.567 8  23805625.740    97480064.08245
 16  1 15  0  0 47.0000000  0  8G03G06G07G09G16G23G26G32
  21152397.900   111156650.673 9  21152399.360    86615600.60249
  24142070.540   126867442.141 7  24142074.120    98857766.72545
  23183906.860   121832275.919 8  23183906.580    94934259.67946
  21906834.880   115121238.239 9  21906835.680    89704889.99748
  21155707.940   111174059.079 9  21155705.980    86629163.56748
  20621985.480   108369348.078 9  20621981.500    84443685.02849
  22579342.480   118655325.850 8  22579344.620    92458735.96347
  23806277.620   125102831.318 8  23806277.840    97482734.27745
 16  1 15  0  0 48.0000000  0  8G03G06G07G09G16G23G26G32
  21152847.760   111159014.771 9  21152849.240    86617442.75749
  24142180.820   126868021.711 7  24142184.420    98858218.34445
  23183412.480   121829678.000 8  23183412.200    94932235.32946
  21906415.540   115119034.613 9  21906416.360    89703172.88748
  21155678.380   111173903.819 9  21155676.420    86629042.58748
  20621842.000   108368594.056 9  20621838.000    84443097.47749
  22579691.280   118657158.735 8  22579693.420    92460164.18547
  23806929.820   125106258.594 8  23806930.040    97485404.87245
 16  1 15  0  0 49.0000000  0  8G03G06G07G09G16G23G26G32
  21153297.780   111161379.511 9  21153299.220    86619285.40749
  24142291.240   126868601.940 7  24142294.840    98858670.46745
  23182918.180   121827080.465 8  23182917.900    94930211.27147
  21905996.260   115116831.271 9  21905997.060    89701455.99748
  21155649.000   111173749.421 9  21155647.040    86628922.27948
  20621698.580   108367840.448 9  20621694.600    84442510.24749
  22580040.200   118658992.309 8  22580042.340    92461592.94847
  23807582.040   125109686.134 8  23807582.280    97488075.67545
 16  1 15  0  0 50.0000000  0  8G03G06G07G09G16G23G26G32
  21153747.880   111163744.860 9  21153749.340    86621128.53949
  24142401.780   126869182.829 7  24142405.380    98859123.10745
  23182423.940   121824483.266 8  23182423.680    94928187.48446
  21905577.020   115114628.190 9  21905577.840    89699739.31048
  21155619.780   111173595.882 9  21155617.820    86628802.63648
  20621555.260   108367087.235 9  20621551.280    84441923.32649
  22580389.260   118660826.568 8  22580391.400    92463022.24247
  23808234.340   125113113.956 8  23808234.540    97490746.70045
 16  1 15  0  0 51.0000000  0  8G03G06G07G09G16G23G26G32
  21154198.120   111166110.759 9  21154199.560    86622972.09849
  24142512.420   126869764.317 7  24142516.040    98859576.21745
  23181929.760   121821886.354 8  23181929.520    94926163.91647
  21905157.820   115112425.292 9  21905158.640    89698022.77048
  21155590.720   111173443.118 9  21155588.760    86628683.59748
  20621412.000   108366334.339 9  20621408.000    84441336.65649
  22580738.440   118662661.438 8  22580740.580    92464452.01047
  23808886.660   125116541.979 8  23808886.900    97493417.88845
 16  1 15  0  0 52.0000000  0  8G03G06G07G09G16G23G26G32
  21154648.400   111168476.994 9  21154649.840    86624815.91549
  24142623.160   126870346.213 7  24142626.780    98860029.65245
  23181435.580   121819289.510 8  23181435.360    94924140.40546
  21904738.620   115110222.378 9  21904739.440    89696306.21648
  21155561.760   111173290.937 9  21155559.800    86628565.01548
  20621268.740   108365581.581 9  20621264.760    84440750.09349
  22581087.680   118664496.704 8  22581089.820    92465882.08547
  23809539.020   125119970.001 8  23809539.180    97496089.07145
 16  1 15  0  0 53.0000000  0  8G03G06G07G09G16G23G26G32
  21155098.740   111170843.525 9  21155100.160    86626659.96449
  24142733.940   126870928.423 7  24142737.520    98860483.31945
  23180941.420   121816692.679 8  23180941.200    94922116.90747
  21904319.420   115108019.402 9  21904320.220    89694589.61148
  21155532.900   111173139.269 9  21155530.940    86628446.83448
  20621125.520   108364828.876 9  20621121.520    84440163.56849
  22581437.000   118666332.335 8  22581439.140    92467312.44547
  23810191.320   125123397.961 8  23810191.500    97498760.21245
 16  1 15  0  0 54.0000000  0  8G03G06G07G09G16G23G26G32
  21155549.160   111173210.469 9  21155550.580    86628504.33649
  24142844.820   126871511.107 7  24142848.400    98860937.36445
  23180447.280   121814096.027 8  23180447.060    94920093.54146
  21903900.220   115105816.496 9  21903901.020    89692873.06348
  21155504.160   111172988.265 9  21155502.200    86628329.16948
  20620982.320   108364076.373 9  20620978.340    84439577.20249
  22581786.400   118668168.431 8  22581788.540    92468743.17147
  23810843.660   125126826.015 8  23810843.860    97501431.41945
 16  1 15  0  0 55.0000000  0  8G03G06G07G09G16G23G26G32
  21155999.660   111175577.800 9  21156001.060    86630349.00549
  24142955.780   126872094.237 7  24142959.400    98861391.74345
  23179953.160   121811499.500 8  23179952.960    94918070.27246
  21903481.020   115103613.619 9  21903481.840    89691156.53448
  21155475.540   111172837.877 9  21155473.580    86628211.98548
  20620839.160   108363324.047 9  20620835.160    84438990.97649
  22582135.900   118670004.998 8  22582138.020    92470174.26647
  23811495.980   125130254.098 8  23811496.220    97504102.65045
 16  1 15  0  0 56.0000000  0  8G03G06G07G09G16G23G26G32
  21156450.260   111177945.703 9  21156451.660    86632194.12649
  24143066.880   126872677.974 7  24143070.460    98861846.59945
  23179459.100   121808903.250 8  23179458.920    94916047.22646
  21903061.860   115101410.961 9  21903062.680    89689440.17948
  21155447.080   111172688.295 9  21155445.120    86628095.42648
  20620696.060   108362572.062 9  20620692.060    84438405.00949
  22582485.500   118671842.182 8  22582487.620    92471605.83847
  23812148.360   125133682.399 8  23812148.600    97506774.05044
 16  1 15  0  0 57.0000000  0  8G03G06G07G09G16G23G26G32
  21156900.980   111180314.150 9  21156902.360    86634039.66949
  24143178.080   126873262.305 7  24143181.660    98862301.92245
  23178965.100   121806307.291 8  23178964.920    94914024.40346
  21902642.740   115099208.483 9  21902643.580    89687723.96948
  21155418.760   111172539.491 9  21155416.820    86627979.47448
  20620553.020   108361820.405 9  20620549.040    84437819.30349
  22582835.240   118673679.991 8  22582837.340    92473037.89647
  23812800.780   125137110.923 8  23812801.040    97509445.62545
 16  1 15  0  0 58.0000000  0  8G03G06G07G09G16G23G26G32
  21157351.800   111182683.212 9  21157353.180    86635885.68849
  24143289.400   126873847.293 7  24143293.020    98862757.75345
  23178471.180   121803711.695 8  23178471.000    94912001.85746
  21902223.680   115097006.277 9  21902224.500    89686007.96648
  21155390.620   111172391.554 9  21155388.660    86627864.19948
  20620410.060   108361069.150 9  20620406.080    84437233.90549
  22583185.080   118675518.465 8  22583187.200    92474470.47147
  23813453.240   125140539.708 8  23813453.500    97512117.41545
 16  1 15  0  0 59.0000000  0  8G03G06G07G09G16G23G26G32
  21157802.740   111185052.844 9  21157804.100    86637732.15649
  24143400.820   126874432.896 7  24143404.420    98863214.06646
  23177977.300   121801116.391 8  23177977.120    94909979.53846
  21901804.660   115094804.301 9  21901805.480    89684292.13948
  21155362.620   111172244.426 9  21155360.660    86627749.55848
  20620267.180   108360318.248 9  20620263.180    84436648.78949
  22583535.060   118677357.583 8  22583537.180    92475903.54847
  23814105.760   125143968.726 8  23814106.020    97514789.37845
 16  1 15  0  1  0.0000000  0  8G03G06G07G09G16G23G26G32
  21158253.740   111187422.863 9  21158255.100    86639578.92249
  24143512.360   126875018.948 7  24143515.940    98863670.73745
  23177483.460   121798521.213 8  23177483.280    94907957.32746
  21901385.620   115092602.344 9  21901386.460    89682576.33048
  21155334.740   111172097.907 9  21155332.780    86627635.38848
  20620124.320   108359567.493 9  20620120.320    84436063.78449
  22583885.100   118679197.135 8  22583887.240    92477336.96447
  23814758.280   125147397.766 8  23814758.520    97517461.35445
 16  1 15  0  1  1.0000000  0  8G03G06G07G09G16G23G26G32
  21158704.860   111189793.391 9  21158706.200    86641426.08949
  24143623.980   126875605.570 7  24143627.560    98864127.83945
  23176989.660   121795926.282 8  23176989.500    94905935.29846
  21900966.640   115090400.558 9  21900967.480    89680860.65048
  21155307.000   111171952.138 9  21155305.040    86627521.80148
  20619981.500   108358817.031 9  20619977.520    84435479.00949
  22584235.280   118681037.288 8  22584237.420    92478770.85047
  23815410.820   125150826.979 8  23815411.100    97520133.45845
 16  1 15  0  1  2.0000000  0  8G03G06G07G09G16G23G26G32
  21159156.060   111192164.436 9  21159157.400    86643273.65749
  24143735.720   126876192.744 7  24143739.280    98864585.37546
  23176495.900   121793331.600 8  23176495.740    94903913.47547
  21900547.700   115088198.929 9  21900548.540    89679145.09848
  21155279.400   111171807.125 9  21155277.440    86627408.80448
  20619838.760   108358066.873 9  20619834.780    84434894.47049
  22584585.580   118682877.998 8  22584587.680    92480205.17247
  23816063.400   125154256.394 8  23816063.680    97522805.72645
 16  1 15  0  1  3.0000000  0  8G03G06G07G09G16G23G26G32
  21159607.380   111194536.094 9  21159608.700    86645121.70049
  24143847.600   126876780.599 7  24143851.180    98865043.44746
  23176002.220   121790737.294 8  23176002.060    94901891.94246
  21900128.780   115085997.569 9  21900129.620    89677429.75648
  21155251.980   111171662.980 9  21155250.020    86627296.48348
  20619696.080   108357317.123 9  20619692.100    84434310.25049
  22584935.980   118684719.396 8  22584938.100    92481640.02847
  23816716.040   125157686.077 8  23816716.320    97525478.20445
 16  1 15  0  1  4.0000000  0  8G03G06G07G09G16G23G26G32
  21160058.800   111196908.223 9  21160060.100    86646970.11149
  24143959.560   126877368.932 7  24143963.120    98865501.88845
  23175508.580   121788143.164 8  23175508.420    94899870.54246
  21899709.900   115083796.316 9  21899710.740    89675714.49648
  21155224.680   111171519.522 9  21155222.720    86627184.69648
  20619553.460   108356567.606 9  20619549.480    84433726.21249
  22585286.500   118686561.321 8  22585288.600    92483075.29547
  23817368.700   125161115.870 8  23817368.980    97528150.76245
 16  1 15  0  1  5.0000000  0  8G03G06G07G09G16G23G26G32
  21160510.300   111199280.808 9  21160511.600    86648818.87949
  24144071.620   126877957.795 7  24144075.160    98865960.74946
  23175014.960   121785549.231 8  23175014.800    94897849.29846
  21899291.040   115081595.173 9  21899291.880    89673999.32048
  21155197.500   111171376.759 9  21155195.560    86627073.45248
  20619410.880   108355818.335 9  20619406.880    84433142.35949
  22585637.100   118688403.768 8  22585639.220    92484510.96847
  23818021.360   125164545.777 8  23818021.660    97530823.41245
 16  1 15  0  1  6.0000000  0  8G03G06G07G09G16G23G26G32
  21160961.840   111201653.709 9  21160963.140    86650667.89749
  24144183.740   126878547.027 7  24144187.300    98866419.88946
  23174521.360   121782955.364 8  23174521.180    94895828.10047
  21898872.160   115079394.002 9  21898873.020    89672284.11748
  21155170.460   111171234.558 9  21155168.500    86626962.64848
  20619268.320   108355069.159 9  20619264.320    84432558.58749
  22585987.780   118690246.611 8  22585989.900    92485946.94647
  23818674.040   125167975.665 8  23818674.340    97533496.05045
 16  1 15  0  1  7.0000000  0  8G03G06G07G09G16G23G26G32
  21161413.480   111204027.046 9  21161414.780    86652517.24649
  24144295.960   126879136.731 7  24144299.520    98866879.39846
  23174027.800   121780361.647 8  23174027.620    94893807.02247
  21898453.300   115077192.899 9  21898454.160    89670568.97248
  21155143.520   111171093.016 9  21155141.560    86626852.35348
  20619125.800   108354320.198 9  20619121.800    84431974.98149
  22586338.560   118692089.944 8  22586340.680    92487383.30947
  23819326.760   125171405.634 8  23819327.040    97536168.75645
 16  1 15  0  1  8.0000000  0  8G03G06G07G09G16G23G26G32
  21161865.200   111206400.782 9  21161866.480    86654366.90749
  24144408.280   126879726.898 7  24144411.800    98867339.26046
  23173534.260   121777768.082 8  23173534.080    94891786.06646
  21898034.460   115074991.848 9  21898035.320    89668853.86748
  21155116.700   111170952.113 9  21155114.760    86626742.55948
  20618983.320   108353571.408 9  20618979.320    84431391.50849
  22586689.420   118693933.725 8  22586691.540    92488820.02047
  23819979.480   125174835.680 8  23819979.720    97538841.52545
 16  1 15  0  1  9.0000000  0  8G03G06G07G09G16G23G26G32
  21162317.000   111208774.920 9  21162318.280    86656216.88949
  24144520.680   126880317.503 7  24144524.180    98867799.47345
  23173040.740   121775174.651 8  23173040.560    94889765.21346
  21897615.640   115072790.847 9  21897616.480    89667138.80848
  21155090.020   111170811.843 9  21155088.060    86626633.25748
  20618840.860   108352822.812 9  20618836.860    84430808.18549
  22587040.380   118695778.001 8  22587042.500    92490257.11847
  23820632.200   125178265.763 8  23820632.460    97541514.31045
 16  1 15  0  1 10.0000000  0  8G03G06G07G09G16G23G26G32
  21162768.900   111211149.613 9  21162770.160    86658067.29949
  24144633.160   126880908.705 7  24144636.720    98868260.15345
  23172547.280   121772581.512 8  23172547.100    94887744.58746
  21897196.840   115070590.054 9  21897197.680    89665423.90648
  21155063.480   111170672.377 9  21155061.520    86626524.58248
  20618698.460   108352074.550 9  20618694.480    84430225.12249
  22587391.460   118697622.876 8  22587393.580    92491694.68547
  23821284.960   125181696.079 8  23821285.260    97544187.27445
 16  1 15  0  1 11.0000000  0  8G03G06G07G09G16G23G26G32
  21163220.860   111213524.729 9  21163222.120    86659918.03849
  24144745.760   126881500.391 7  24144749.320    98868721.21145
  23172053.860   121769988.538 8  23172053.660    94885724.08846
  21896778.040   115068389.329 9  21896778.900    89663709.06048
  21155037.060   111170533.554 9  21155035.100    86626416.41148
  20618556.120   108351326.496 9  20618552.120    84429642.22449
  22587742.620   118699468.247 8  22587744.720    92493132.63547
  23821937.740   125185126.458 8  23821938.020    97546860.29745
 16  1 15  0  1 12.0000000  0  8G03G06G07G09G16G23G26G32
  21163672.940   111215900.352 9  21163674.200    86661769.17349
  24144858.460   126882092.630 7  24144862.040    98869182.69945
  23171560.480   121767395.798 8  23171560.300    94883703.77146
  21896359.280   115066188.757 9  21896360.160    89661994.32848
  21155010.780   111170395.483 9  21155008.840    86626308.82648
  20618413.820   108350578.731 9  20618409.820    84429059.55049
  22588093.880   118701314.181 8  22588096.000    92494571.02447
  23822590.560   125188556.998 8  23822590.840    97549533.44945
 16  1 15  0  1 13.0000000  0  8G03G06G07G09G16G23G26G32
  21164125.120   111218276.513 9  21164126.360    86663620.72549
  24144971.260   126882685.456 7  24144974.840    98869644.63946
  23171067.140   121764803.339 8  23171066.960    94881683.67646
  21895940.560   115063988.371 9  21895941.440    89660279.74448
  21154984.640   111170258.190 9  21154982.720    86626201.84448
  20618271.580   108349831.281 9  20618267.600    84428477.12249
  22588445.280   118703160.709 8  22588447.380    92496009.87547
  23823243.420   125191987.756 8  23823243.700    97552206.77145
 16  1 15  0  1 14.0000000  0  8G03G06G07G09G16G23G26G32
  21164577.420   111220653.271 9  21164578.640    86665472.74549
  24145084.180   126883278.928 7  24145087.740    98870107.09345
  23170573.880   121762211.212 8  23170573.700    94879663.83446
  21895521.900   115061788.248 9  21895522.760    89658565.36448
  21154958.680   111170121.733 9  21154956.760    86626095.51148
  20618129.420   108349084.220 9  20618125.440    84427894.99249
  22588796.800   118705007.893 8  22588798.900    92497449.24447
  23823896.320   125195418.745 8  23823896.620    97554880.26245
 16  1 15  0  1 15.0000000  0  8G03G06G07G09G16G23G26G32
  21165029.820   111223030.610 9  21165031.040    86667325.21249
  24145197.240   126883873.031 7  24145200.800    98870570.02845
  23170080.680   121759619.394 8  23170080.500    94877644.23846
  21895103.260   115059588.341 9  21895104.140    89656851.14948
  21154932.860   111169986.090 9  21154930.940    86625989.81848
  20617987.340   108348337.516 9  20617983.340    84427313.14549
  22589148.420   118706855.739 8  22589150.520    92498889.12247
  23824549.260   125198849.970 8  23824549.560    97557553.94545
 16  1 15  0  1 16.0000000  0  8G03G06G07G09G16G23G26G32
  21165482.340   111225408.511 9  21165483.540    86669178.12249
  24145310.420   126884467.749 7  24145313.940    98871033.44545
  23169587.540   121757027.897 8  23169587.340    94875624.89146
  21894684.680   115057388.659 9  21894685.560    89655137.10948
  21154907.200   111169851.254 9  21154905.280    86625884.75248
  20617845.300   108347591.156 9  20617841.320    84426731.56649
  22589500.160   118708704.201 8  22589502.280    92500329.47547
  23825202.260   125202281.438 8  23825202.560    97560227.81145
 16  1 15  0  1 17.0000000  0  8G03G06G07G09G16G23G26G32
  21165934.920   111227786.787 9  21165936.100    86671031.32549
  24145423.660   126885062.876 7  24145427.200    98871497.18445
  23169094.420   121754436.497 8  23169094.200    94873605.61946
  21894266.100   115055188.988 9  21894266.980    89653423.08248
  21154881.660   111169717.030 9  21154879.740    86625780.16048
  20617703.300   108346844.952 9  20617699.320    84426150.11049
  22589852.000   118710553.119 8  22589854.120    92501770.19547
  23825855.260   125205712.907 8  23825855.560    97562901.67845
 16  1 15  0  1 18.0000000  0  8G03G06G07G09G16G23G26G32
  21166387.580   111230165.511 9  21166388.760    86672884.87549
  24145537.020   126885658.501 7  24145540.540    98871961.29746
  23168601.320   121751845.276 8  23168601.100    94871586.48746
  21893847.540   115052989.417 9  21893848.420    89651709.13248
  21154856.240   111169583.489 9  21154854.340    86625676.10448
  20617561.360   108346098.979 9  20617557.360    84425568.83049
  22590203.940   118712402.532 8  22590206.060    92503211.29647
  23826508.260   125209144.482 8  23826508.560    97565575.63045
 16  1 15  0  1 19.0000000  0  8G03G06G07G09G16G23G26G32
  21166840.320   111232544.681 9  21166841.500    86674738.77249
  24145650.480   126886254.634 7  24145653.960    98872425.81145
  23168108.280   121749254.273 8  23168108.020    94869567.52246
  21893429.000   115050789.950 9  21893429.880    89649995.26448
  21154830.960   111169450.644 9  21154829.060    86625572.58948
  20617419.440   108345353.247 9  20617415.460    84424987.74149
  22590555.960   118714252.483 8  22590558.100    92504652.82047
  23827161.300   125212576.199 8  23827161.600    97568249.68545
 16  1 15  0  1 20.0000000  0  8G03G06G07G09G16G23G26G32
  21167293.180   111234924.376 9  21167294.340    86676593.08249
  24145764.040   126886851.323 7  24145767.520    98872890.76446
  23167615.280   121746663.514 8  23167615.020    94867548.74746
  21893010.480   115048590.655 9  21893011.380    89648281.52648
  21154805.820   111169318.553 9  21154803.920    86625469.66148
  20617277.580   108344607.810 9  20617273.600    84424406.88049
  22590908.100   118716103.004 8  22590910.240    92506094.78147
  23827814.380   125216008.061 8  23827814.640    97570923.86545
 16  1 15  0  1 21.0000000  0  8G03G06G07G09G16G23G26G32
  21167746.120   111237304.600 9  21167747.280    86678447.80249
  24145877.700   126887448.618 7  24145881.200    98873356.18945
  23167122.320   121744073.018 8  23167122.060    94865530.17446
  21892592.000   115046391.520 9  21892592.900    89646567.91648
  21154780.840   111169187.233 9  21154778.940    86625367.33448
  20617135.800   108343862.682 9  20617131.820    84423826.26249
  22591260.360   118717954.122 8  22591262.480    92507537.21247
  23828467.480   125219440.132 8  23828467.760    97573598.21245
 16  1 15  0  1 22.0000000  0  8G03G06G07G09G16G23G26G32
  21168199.180   111239685.310 9  21168200.320    86680302.90049
  24145991.460   126888046.433 7  24145994.960    98873822.02445
  23166629.400   121741482.750 8  23166629.140    94863511.78246
  21892173.560   115044192.534 9  21892174.440    89644854.42348
  21154755.980   111169056.632 9  21154754.100    86625265.56548
  20616994.060   108343117.831 9  20616990.080    84423245.85649
  22591612.740   118719805.784 8  22591614.860    92508980.06647
  23829120.620   125222872.314 8  23829120.880    97576272.64045
 16  1 15  0  1 23.0000000  0  8G03G06G07G09G16G23G26G32
  21168652.300   111242066.500 9  21168653.460    86682158.37149
  24146105.340   126888644.777 7  24146108.840    98874288.26345
  23166136.540   121738892.698 8  23166136.280    94861493.56846
  21891755.120   115041993.673 9  21891756.020    89643141.02648
  21154731.260   111168926.746 9  21154729.380    86625164.35548
  20616852.360   108342373.232 9  20616848.380    84422665.64749
  22591965.180   118721657.987 8  22591967.300    92510423.33947
  23829773.780   125226304.661 8  23829774.040    97578947.20045
 16  1 15  0  1 24.0000000  0  8G03G06G07G09G16G23G26G32
  21169105.520   111244448.143 9  21169106.660    86684014.19749
  24146219.300   126889243.599 7  24146222.800    98874754.88246
  23165643.720   121736302.841 8  23165643.440    94859475.49946
  21891336.720   115039794.932 9  21891337.620    89641427.72348
  21154706.660   111168797.556 9  21154704.800    86625063.68948
  20616710.720   108341628.877 9  20616706.740    84422085.63049
  22592317.760   118723510.720 8  22592319.880    92511867.02747
  23830426.960   125229737.122 8  23830427.240    97581621.84945
 16  1 15  0  1 25.0000000  0  8G03G06G07G09G16G23G26G32
  21169558.860   111246830.395 9  21169560.000    86685870.49949
  24146333.380   126889843.109 7  24146336.860    98875222.03345
  23165150.960   121733713.338 8  23165150.680    94857457.70946
  21890918.360   115037596.424 9  21890919.260    89639714.60548
  21154682.240   111168669.210 9  21154680.380    86624963.67748
  20616569.160   108340884.909 9  20616565.160    84421505.91449
  22592670.420   118725364.103 8  22592672.560    92513311.22147
  23831080.220   125233169.858 8  23831080.480    97584296.70045
 16  1 15  0  1 26.0000000  0  8G03G06G07G09G16G23G26G32
  21170012.300   111249213.178 9  21170013.420    86687727.21149
  24146447.560   126890443.179 7  24146451.020    98875689.62045
  23164658.260   121731124.103 8  23164657.960    94855440.11946
  21890500.020   115035398.127 9  21890500.920    89638001.64448
  21154657.960   111168541.630 9  21154656.100    86624864.26348
  20616427.640   108340141.258 9  20616423.660    84420926.44449
  22593023.220   118727218.106 8  22593025.340    92514755.89747
  23831733.480   125236602.763 8  23831733.760    97586971.68845
 16  1 15  0  1 27.0000000  0  8G03G06G07G09G16G23G26G32
  21170465.820   111251596.407 9  21170466.940    86689584.27149
  24146561.860   126891043.769 7  24146565.300    98876157.61046
  23164165.580   121728535.052 8  23164165.280    94853422.67946
  21890081.720   115033199.909 9  21890082.620    89636288.74748
  21154633.820   111168414.748 9  21154631.960    86624765.39748
  20616286.160   108339397.849 9  20616282.180    84420347.16349
  22593376.140   118729072.611 8  22593378.260    92516200.96347
  23832386.780   125240035.785 8  23832387.080    97589646.76545
 16  1 15  0  1 28.0000000  0  8G03G06G07G09G16G23G26G32
  21170919.440   111253980.146 9  21170920.560    86691441.73049
  24146676.240   126891644.916 7  24146679.700    98876626.03245
  23163672.940   121725946.225 8  23163672.640    94851405.41346
  21889663.440   115031001.865 9  21889664.340    89634575.98348
  21154609.820   111168288.611 9  21154607.960    86624667.10748
  20616144.760   108338654.722 9  20616140.780    84419768.10649
  22593729.140   118730927.677 8  22593731.260    92517646.47047
  23833040.100   125243468.971 8  23833040.420    97592321.97745
 16  1 15  0  1 29.0000000  0  8G03G06G07G09G16G23G26G32
  21171373.120   111256364.280 9  21171374.240    86693299.49849
  24146790.720   126892246.510 7  24146794.200    98877094.80745
  23163180.340   121723357.560 8  23163180.020    94849388.27046
  21889245.180   115028803.854 9  21889246.080    89632863.24948
  21154585.940   111168163.110 9  21154584.100    86624569.31448
  20616003.380   108337911.773 9  20615999.400    84419189.18549
  22594082.240   118732783.215 8  22594084.360    92519092.34147
  23833693.440   125246902.230 8  23833693.760    97594997.24345
 16  1 15  0  1 30.0000000  0  8G03G06G07G09G16G23G26G32
  21171826.920   111258748.915 9  21171828.020    86695157.65649
  24146905.300   126892848.640 7  24146908.780    98877563.99746
  23162687.780   121720769.119 8  23162687.460    94847371.30046
  21888826.940   115026606.001 9  21888827.840    89631150.63948
  21154562.180   111168038.335 9  21154560.340    86624472.08648
  20615862.060   108337169.102 9  20615858.080    84418610.48149
  22594435.440   118734639.320 8  22594437.560    92520538.65947
  23834346.800   125250335.608 8  23834347.140    97597672.59045
 16  1 15  0  1 31.0000000  0  8G03G06G07G09G16G23G26G32
  21172280.820   111261134.176 9  21172281.920    86697016.30049
  24147020.000   126893451.434 7  24147023.500    98878033.71145
  23162195.280   121718181.035 8  23162194.960    94845354.61646
  21888408.740   115024408.422 9  21888409.660    89629438.23948
  21154538.600   111167914.431 9  21154536.780    86624375.54048
  20615720.800   108336426.841 9  20615716.840    84418032.09449
  22594788.780   118736496.105 8  22594790.900    92521985.50247
  23835000.200   125253769.269 8  23835000.540    97600348.17045
 16  1 15  0  1 32.0000000  0  8G03G06G07G09G16G23G26G32
  21172734.840   111263520.104 9  21172735.960    86698875.46149
  24147134.820   126894054.959 7  24147138.340    98878503.99045
  23161702.860   121715593.366 8  23161702.560    94843338.25046
  21887990.640   115022211.162 9  21887991.520    89627726.09348
  21154515.200   111167791.435 9  21154513.380    86624279.70348
  20615579.640   108335685.038 9  20615575.680    84417454.06549
  22595142.260   118738353.621 8  22595144.360    92523432.91747
  23835653.680   125257203.279 8  23835654.000    97603024.02745
 16  1 15  0  1 33.0000000  0  8G03G06G07G09G16G23G26G32
  21173188.960   111265906.468 9  21173190.080    86700734.96649
  24147249.780   126894658.971 7  24147253.280    98878974.65446
  23161210.500   121713005.884 8  23161210.160    94841322.03446
  21887572.520   115020013.987 9  21887573.420    89626014.00748
  21154491.920   111167669.121 9  21154490.100    86624184.39248
  20615438.520   108334943.458 9  20615434.560    84416876.20849
  22595495.820   118740211.646 8  22595497.940    92524880.72947
  23836307.160   125260637.361 8  23836307.500    97605699.93146
 16  1 15  0  1 34.0000000  0  8G03G06G07G09G16G23G26G32
  21173643.160   111268293.205 9  21173644.260    86702594.76149
  24147364.800   126895263.399 7  24147368.280    98879445.63646
  23160718.140   121710418.510 8  23160717.800    94839305.89846
  21887154.400   115017816.823 9  21887155.320    89624301.93348
  21154468.760   111167547.420 9  21154466.940    86624089.55948
  20615297.440   108334202.035 9  20615293.460    84416298.47549
  22595849.480   118742070.092 8  22595851.580    92526328.86547
  23836960.680   125264071.506 8  23836961.000    97608375.88745
 16  1 15  0  1 35.0000000  0  8G03G06G07G09G16G23G26G32
  21174097.400   111270680.318 9  21174098.500    86704454.84749
  24147479.900   126895868.262 7  24147483.400    98879916.94946
  23160225.780   121707831.222 8  23160225.460    94837289.83646
  21886736.300   115015619.703 9  21886737.220    89622589.88948
  21154445.720   111167426.318 9  21154443.900    86623995.19248
  20615156.380   108333460.763 9  20615152.400    84415720.86249
  22596203.220   118743928.977 8  22596205.320    92527777.34947
  23837614.180   125267505.656 8  23837614.500    97611051.84845
 16  1 15  0  1 36.0000000  0  8G03G06G07G09G16G23G26G32
  21174551.720   111273067.802 9  21174552.820    86706315.22649
  24147595.080   126896473.550 7  24147598.560    98880388.59846
  23159733.480   121705244.084 8  23159733.140    94835273.88946
  21886318.220   115013422.610 9  21886319.120    89620877.87048
  21154422.800   111167305.848 9  21154420.980    86623901.32248
  20615015.360   108332719.669 9  20615011.380    84415143.38649
  22596557.040   118745788.324 8  22596559.120    92529226.19147
  23838267.700   125270939.855 8  23838268.040    97613727.85045
 16  1 15  0  1 37.0000000  0  8G03G06G07G09G16G23G26G32
  21175006.140   111275455.705 9  21175007.240    86708175.93249
  24147710.360   126897079.280 7  24147713.820    98880860.60345
  23159241.200   121702657.087 8  23159240.840    94833258.04546
  21885900.140   115011225.577 9  21885901.040    89619165.89648
  21154399.980   111167186.026 9  21154398.200    86623807.95448
  20614874.360   108331978.764 9  20614870.400    84414566.05749
  22596910.960   118747648.131 8  22596913.040    92530675.39347
  23838921.220   125274374.113 8  23838921.560    97616403.89145
 16  1 15  0  1 38.0000000  0  8G03G06G07G09G16G23G26G32
  21175460.600   111277843.906 9  21175461.700    86710036.86649
  24147825.680   126897685.390 7  24147829.160    98881332.89345
  23158748.920   121700070.126 8  23158748.580    94831242.22946
  21885482.040   115009028.507 9  21885482.940    89617453.89648
  21154377.280   111167066.747 9  21154375.500    86623715.00748
  20614733.380   108331237.938 9  20614729.420    84413988.79249
  22597264.940   118749508.293 8  22597267.020    92532124.87247
  23839574.740   125277808.326 8  23839575.080    97619079.90545
 16  1 15  0  1 39.0000000  0  8G03G06G07G09G16G23G26G32
  21175915.140   111280232.462 9  21175916.220    86711898.07449
  24147941.120   126898291.882 7  24147944.580    98881805.48446
  23158256.660   121697483.271 8  23158256.300    94829226.49646
  21885063.960   115006831.429 9  21885064.840    89615741.88748
  21154354.700   111166948.051 9  21154352.920    86623622.51748
  20614592.440   108330497.262 9  20614588.480    84413411.63849
  22597619.000   118751368.883 8  22597621.080    92533574.68047
  23840228.260   125281242.531 8  23840228.580    97621755.90546
 16  1 15  0  1 40.0000000  0  8G03G06G07G09G16G23G26G32
  21176369.740   111282621.443 9  21176370.840    86713759.61949
  24148056.620   126898898.844 7  24148060.080    98882278.44145
  23157764.440   121694896.567 8  23157764.040    94827210.88646
  21884645.880   115004634.425 9  21884646.780    89614029.93848
  21154332.240   111166830.026 9  21154330.460    86623530.54948
  20614451.540   108329756.793 9  20614447.580    84412834.64949
  22597973.160   118753229.967 8  22597975.220    92535024.87547
  23840881.780   125284676.847 8  23840882.100    97624431.99145
 16  1 15  0  1 41.0000000  0  8G03G06G07G09G16G23G26G32
  21176824.500   111285011.162 9  21176825.580    86715621.73849
  24148172.260   126899506.612 7  24148175.740    98882752.02545
  23157272.280   121692310.335 8  23157271.900    94825195.64346
  21884227.880   115002437.825 9  21884228.780    89612318.30248
  21154309.980   111166712.988 9  21154308.180    86623439.35348
  20614310.720   108329016.850 9  20614306.780    84412258.07049
  22598327.460   118755091.839 8  22598329.520    92536475.68947
  23841535.380   125288111.533 8  23841535.680    97627108.36645
 16  1 15  0  1 42.0000000  0  8G03G06G07G09G16G23G26G32
  21177279.380   111287401.607 9  21177280.480    86717484.42349
  24148288.080   126900115.145 7  24148291.500    98883226.20445
  23156780.240   121689724.577 8  23156779.860    94823180.76646
  21883809.960   115000241.599 9  21883810.860    89610606.95748
  21154287.880   111166596.899 9  21154286.100    86623348.89648
  20614170.020   108328277.414 9  20614166.060    84411681.88649
  22598681.920   118756954.510 8  22598683.980    92537927.11747
  23842189.060   125291546.618 8  23842189.380    97629785.05345
 16  1 15  0  1 43.0000000  0  8G03G06G07G09G16G23G26G32
  21177734.340   111289792.470 9  21177735.440    86719347.42849
  24148403.960   126900724.125 7  24148407.420    98883700.73645
  23156288.220   121687138.957 8  23156287.800    94821165.99646
  21883392.040   114998045.427 9  21883392.940    89608895.65848
  21154265.920   111166481.475 9  21154264.140    86623258.95148
  20614029.340   108327538.191 9  20614025.400    84411105.86449
  22599036.480   118758817.656 8  22599038.520    92539378.91747
  23842842.760   125294981.761 8  23842843.100    97632461.78845
 16  1 15  0  1 44.0000000  0  8G03G06G07G09G16G23G26G32
  21178189.400   111292183.787 9  21178190.500    86721210.79649
  24148519.940   126901333.643 7  24148523.400    98884175.69445
  23155796.240   121684553.540 8  23155795.820    94819151.38746
  21882974.140   114995849.374 9  21882975.040    89607184.44848
  21154244.080   111166366.747 9  21154242.320    86623169.55548
  20613888.720   108326799.201 9  20613884.760    84410530.03049
  22599391.120   118760681.341 8  22599393.160    92540831.13947
  23843496.480   125298417.025 8  23843496.800    97635138.61745
 16  1 15  0  1 45.0000000  0  8G03G06G07G09G16G23G26G32
  21178644.600   111294575.866 9  21178645.700    86723074.75249
  24148636.080   126901943.945 7  24148639.540    98884651.25146
  23155304.340   121681968.633 8  23155303.940    94817137.17046
  21882556.340   114993653.731 9  21882557.200    89605473.55848
  21154222.440   111166253.018 9  21154220.660    86623080.93948
  20613748.200   108326060.751 9  20613744.240    84409954.61449
  22599745.920   118762545.825 8  22599747.960    92542283.98847
  23844150.280   125301852.712 8  23844150.600    97637815.77445
 16  1 15  0  1 46.0000000  0  8G03G06G07G09G16G23G26G32
  21179099.940   111296968.688 9  21179101.040    86724939.28949
  24148752.360   126902555.066 7  24148755.820    98885127.44145
  23154812.560   121679384.225 8  23154812.140    94815123.34546
  21882138.600   114991458.495 9  21882139.460    89603762.98648
  21154200.980   111166140.287 9  21154199.220    86622993.09648
  20613607.780   108325322.846 9  20613603.820    84409379.62249
  22600100.880   118764411.129 8  22600102.900    92543737.47147
  23844804.140   125305288.806 8  23844804.460    97640493.24445
 16  1 15  0  1 47.0000000  0  8G03G06G07G09G16G23G26G32
  21179555.400   111299362.042 9  21179556.480    86726804.24249
  24148868.760   126903166.749 7  24148872.220    98885604.07646
  23154320.820   121676800.061 8  23154320.380    94813109.71546
  21881720.880   114989263.425 9  21881721.760    89602052.54248
  21154179.680   111166028.313 9  21154177.900    86622905.84648
  20613467.420   108324585.247 9  20613463.460    84408804.87149
  22600455.960   118766277.035 8  22600457.980    92545191.42247
  23845458.040   125308725.079 8  23845458.360    97643170.85945
 16  1 15  0  1 48.0000000  0  8G03G06G07G09G16G23G26G32
  21180010.900   111301755.784 9  21180012.000    86728669.49149
  24148985.240   126903778.864 7  24148988.720    98886081.05045
  23153829.080   121674216.032 8  23153828.660    94811096.18646
  21881303.200   114987068.415 9  21881304.060    89600342.14648
  21154158.480   111165916.982 9  21154156.740    86622819.09248
  20613327.100   108323847.818 9  20613323.140    84408230.25149
  22600811.100   118768143.387 8  22600813.120    92546645.72247
  23846111.960   125312161.405 8  23846112.280    97645848.51345
 16  1 15  0  1 49.0000000  0  8G03G06G07G09G16G23G26G32
  21180466.520   111304150.041 9  21180467.600    86730535.14649
  24149101.820   126904391.556 7  24149105.300    98886558.47946
  23153337.420   121671632.259 8  23153336.980    94809082.85946
  21880885.520   114984873.573 9  21880886.400    89598631.88248
  21154137.440   111165806.395 9  21154135.700    86622732.92148
  20613186.840   108323110.694 9  20613182.880    84407655.86949
  22601166.380   118770010.317 8  22601168.380    92548100.46947
  23846765.880   125315597.898 8  23846766.220    97648526.29945
 16  1 15  0  1 50.0000000  0  8G03G06G07G09G16G23G26G32
  21180922.260   111306545.002 9  21180923.360    86732401.34849
  24149218.560   126905004.992 7  24149222.040    98887036.48145
  23152845.820   121669048.931 8  23152845.380    94807069.87846
  21880467.940   114982679.073 9  21880468.780    89596921.88248
  21154116.580   111165696.749 9  21154114.820    86622647.48448
  20613046.660   108322374.057 9  20613042.700    84407081.86649
  22601521.800   118771878.012 8  22601523.780    92549555.81747
  23847419.900   125319034.744 8  23847420.260    97651204.35445
 16  1 15  0  1 51.0000000  0  8G03G06G07G09G16G23G26G32
  21181378.120   111308940.510 9  21181379.200    86734267.97749
  24149335.420   126905619.041 7  24149338.880    98887514.96446
  23152354.300   121666465.900 8  23152353.840    94805057.12446
  21880050.360   114980484.778 9  21880051.220    89595212.04248
  21154095.860   111165587.904 9  21154094.120    86622562.67048
  20612906.540   108321637.761 9  20612902.580    84406508.12449
  22601877.320   118773746.329 8  22601879.320    92551011.64547
  23848073.960   125322471.826 8  23848074.340    97653882.59845
 16  1 15  0  1 52.0000000  0  8G03G06G07G09G16G23G26G32
  21181834.060   111311336.552 9  21181835.160    86736135.02149
  24149452.380   126906233.667 7  24149455.840    98887993.89046
  23151862.820   121663883.142 8  23151862.360    94803044.58946
  21879632.840   114978290.672 9  21879633.700    89593502.34948
  21154075.300   111165479.834 9  21154073.560    86622478.46248
  20612766.500   108320901.788 9  20612762.540    84405934.63949
  22602232.980   118775615.240 8  22602234.960    92552467.94247
  23848728.040   125325909.074 8  23848728.460    97656560.97745
 16  1 15  0  1 53.0000000  0  8G03G06G07G09G16G23G26G32
  21182290.060   111313732.879 9  21182291.160    86738002.28749
  24149569.400   126906848.632 7  24149572.880    98888473.07846
  23151371.360   121661300.405 8  23151370.860    94801032.06746
  21879215.300   114976096.508 9  21879216.160    89591792.61148
  21154054.840   111165372.282 9  21154053.080    86622394.65548
  20612626.460   108320165.886 9  20612622.500    84405361.20949
  22602588.700   118777484.509 8  22602590.660    92553924.51747
  23849382.120   125329346.275 8  23849382.560    97659239.31145
 16  1 15  0  1 54.0000000  0  8G03G06G07G09G16G23G26G32
  21182746.120   111316129.507 9  21182747.240    86739869.78949
  24149686.500   126907463.947 7  24149689.960    98888952.54845
  23150879.880   121658717.702 8  23150879.400    94799019.57446
  21878797.760   114973902.284 9  21878798.600    89590082.82948
  21154034.480   111165265.268 9  21154032.740    86622311.26848
  20612486.440   108319430.073 9  20612482.480    84404787.84849
  22602944.480   118779354.122 8  22602946.440    92555381.35647
  23850036.200   125332783.422 8  23850036.620    97661917.60245
 16  1 15  0  1 55.0000000  0  8G03G06G07G09G16G23G26G32
  21183202.260   111318526.573 9  21183203.380    86741737.63049
  24149803.660   126908079.719 7  24149807.140    98889432.36646
  23150388.440   121656135.173 8  23150387.940    94797007.21346
  21878380.240   114971708.172 9  21878381.080    89588373.13248
  21154014.240   111165158.933 9  21154012.500    86622228.40748
  20612346.460   108318694.478 9  20612342.500    84404214.65649
  22603300.360   118781224.245 8  22603302.320    92556838.59647
  23850690.280   125336220.662 8  23850690.740    97664595.96445
 16  1 15  0  1 56.0000000  0  8G03G06G07G09G16G23G26G32
  21183658.520   111320924.217 9  21183659.640    86743605.92449
  24149920.980   126908696.153 7  24149924.460    98889912.70445
  23149897.060   121653552.972 8  23149896.560    94794995.10847
  21877962.740   114969514.282 9  21877963.580    89586663.61148
  21153994.160   111165053.419 9  21153992.420    86622146.18748
  20612206.540   108317959.252 9  20612202.580    84403641.75649
  22603656.360   118783095.016 8  22603658.300    92558296.33847
  23851344.420   125339658.183 7  23851344.880    97667274.55245
 16  1 15  0  1 57.0000000  0  8G03G06G07G09G16G23G26G32
  21184114.860   111323322.347 9  21184116.000    86745474.59749
  24150038.380   126909313.105 7  24150041.880    98890393.44245
  23149405.740   121650971.005 8  23149405.240    94792983.19046
  21877545.280   114967320.541 9  21877546.120    89584954.20148
  21153974.220   111164948.639 9  21153972.480    86622064.54248
  20612066.700   108317224.306 9  20612062.740    84403069.06749
  22604012.460   118784966.340 8  22604014.400    92559754.51447
  23851998.560   125343095.815 7  23851999.060    97669953.22845
 16  1 15  0  1 58.0000000  0  8G03G06G07G09G16G23G26G32
  21184571.280   111325720.819 9  21184572.420    86747343.53649
  24150155.860   126909930.458 7  24150159.360    98890874.49846
  23148914.420   121648389.103 8  23148913.900    94790971.31946
  21877127.840   114965126.789 9  21877128.660    89583244.78648
  21153954.400   111164844.435 9  21153952.640    86621983.34748
  20611926.860   108316489.476 9  20611922.900    84402496.47249
  22604368.660   118786838.062 8  22604370.580    92561213.00047
  23852652.720   125346533.449 7  23852653.240    97672631.89846
 16  1 15  0  1 59.0000000  0  8G03G06G07G09G16G23G26G32
  21185027.760   111328119.645 9  21185028.900    86749212.75249
  24150273.420   126910548.235 7  24150276.900    98891355.89545
  23148423.120   121645807.307 8  23148422.620    94788959.53046
  21876710.380   114962933.049 9  21876711.200    89581535.37648
  21153934.700   111164740.834 9  21153932.940    86621902.62048
  20611787.060   108315754.788 9  20611783.100    84401923.98849
  22604724.920   118788710.192 8  22604726.820    92562671.80447
  23853306.880   125349971.088 7  23853307.420    97675310.57445
 16  1 15  0  2  0.0000000  0  8G03G06G07G09G16G23G26G32
  21185484.300   111330518.816 9  21185485.440    86751082.23749
  24150391.040   126911166.382 7  24150394.560    98891837.56246
  23147931.840   121643225.608 8  23147931.360    94786947.81647
  21876292.920   114960739.292 9  21876293.740    89579825.95548
  21153915.080   111164637.814 9  21153913.340    86621822.34748
  20611647.280   108315020.247 9  20611643.320    84401351.62049
  22605081.260   118790582.753 8  22605083.140    92564130.94147
  23853961.020   125353408.719 7  23853961.560    97677989.24345
 16  1 15  0  2  1.0000000  0  8G03G06G07G09G16G23G26G32
  21185940.960   111332918.596 9  21185942.120    86752952.19449
  24150508.780   126911785.192 7  24150512.300    98892319.75146
  23147440.620   121640644.235 8  23147440.120    94784936.35846
  21875875.520   114958545.811 9  21875876.340    89578116.75148
  21153895.640   111164535.651 9  21153893.900    86621742.73948
  20611507.580   108314286.092 9  20611503.600    84400779.54849
  22605437.720   118792455.974 8  22605439.620    92565590.59347
  23854615.240   125356846.624 7  23854615.760    97680668.12845
 16  1 15  0  2  2.0000000  0  8G03G06G07G09G16G23G26G32
  21186397.760   111335319.080 9  21186398.900    86754822.69949
  24150626.700   126912404.760 7  24150630.200    98892802.53446
  23146949.500   121638063.319 8  23146949.000    94782925.25746
  21875458.180   114956352.675 9  21875459.000    89576407.81248
  21153876.380   111164434.442 9  21153874.640    86621663.87548
  20611367.960   108313552.429 9  20611364.000    84400207.86249
  22605794.320   118794329.959 8  22605796.200    92567050.83947
  23855269.500   125360284.891 7  23855270.020    97683347.29145
 16  1 15  0  2  3.0000000  0  8G03G06G07G09G16G23G26G32
  21186854.680   111337720.177 9  21186855.820    86756693.68449
  24150744.720   126913024.973 7  24150748.200    98893285.82546
  23146458.440   121635482.744 8  23146457.920    94780914.41447
  21875040.900   114954159.819 9  21875041.720    89574699.09348
  21153857.300   111164334.097 9  21153855.540    86621585.68448
  20611228.440   108312819.165 9  20611224.460    84399636.49149
  22606151.080   118796204.624 8  22606152.940    92568511.61747
  23855923.840   125363723.434 7  23855924.360    97686026.68045
 16  1 15  0  2  4.0000000  0  8G03G06G07G09G16G23G26G32
  21187311.660   111340121.610 9  21187312.800    86758564.93049
  24150862.820   126913645.592 7  24150866.300    98893769.42245
  23145967.400   121632902.256 8  23145966.860    94778903.64246
  21874623.620   114951966.956 9  21874624.420    89572990.36948
  21153838.320   111164234.338 9  21153836.560    86621507.94948
  20611088.920   108312086.029 9  20611084.940    84399065.21349
  22606507.900   118798079.689 8  22606509.760    92569972.71147
  23856578.160   125367161.951 7  23856578.700    97688706.04745
 16  1 15  0  2  5.0000000  0  8G03G06G07G09G16G23G26G32
  21187768.720   111342523.569 9  21187769.880    86760436.58449
  24150981.020   126914266.780 7  24150984.480    98894253.45846
  23145476.400   121630322.047 8  23145475.860    94776893.09546
  21874206.360   114949774.272 9  21874207.160    89571281.78548
  21153819.480   111164135.333 9  21153817.720    86621430.80548
  20610949.480   108311353.199 9  20610945.500    84398494.17249
  22606864.840   118799955.348 8  22606866.700    92571434.26147
  23857232.520   125370600.660 7  23857233.040    97691385.55245
 16  1 15  0  2  6.0000000  0  8G03G06G07G09G16G23G26G32
  21188225.900   111344926.045 9  21188227.060    86762308.64349
  24151099.360   126914888.534 7  24151102.800    98894737.94046
  23144985.460   121627742.085 8  23144984.900    94774882.73947
  21873789.140   114947581.753 9  21873789.940    89569573.33148
  21153800.780   111164037.088 9  21153799.020    86621354.25048
  20610810.080   108310620.668 9  20610806.100    84397923.36949
  22607221.860   118801831.580 8  22607223.720    92572896.25847
  23857886.900   125374039.560 7  23857887.460    97694065.20745
 16  1 15  0  2  7.0000000  0  8G03G06G07G09G16G23G26G32
  21188683.180   111347329.028 9  21188684.340    86764181.09649
  24151217.780   126915510.838 7  24151221.240    98895222.84446
  23144494.540   121625162.388 8  23144494.020    94772872.58446
  21873371.940   114945389.412 9  21873372.740    89567865.01448
  21153782.220   111163939.591 9  21153780.480    86621278.27448
  20610670.740   108309888.442 9  20610666.760    84397352.80549
  22607579.020   118803708.389 8  22607580.880    92574358.70947
  23858541.300   125377478.603 7  23858541.920    97696744.97645
 16  1 15  0  2  8.0000000  0  8G03G06G07G09G16G23G26G32
  21189140.560   111349732.581 9  21189141.720    86766053.99249
  24151336.340   126916133.775 7  24151339.800    98895708.24646
  23144003.700   121622582.991 8  23144003.180    94770862.66446
  21872954.800   114943197.279 9  21872955.600    89566156.85848
  21153763.820   111163842.917 9  21153762.080    86621202.94648
  20610531.460   108309156.573 9  20610527.500    84396782.51849
  22607936.300   118805585.843 8  22607938.140    92575821.65847
  23859195.780   125380917.895 7  23859196.380    97699424.94645
 16  1 15  0  2  9.0000000  0  8G03G06G07G09G16G23G26G32
  21189598.020   111352136.605 9  21189599.200    86767927.26049
  24151454.960   126916757.225 7  24151458.420    98896194.05945
  23143512.900   121620003.803 8  23143512.380    94768852.91146
  21872537.680   114941005.281 9  21872538.460    89564448.80548
  21153745.560   111163746.949 9  21153743.820    86621128.17048
  20610392.240   108308424.964 9  20610388.280    84396212.43349
  22608293.660   118807463.809 8  22608295.500    92577285.00847
  23859850.280   125384357.307 7  23859850.880    97702105.00245
 16  1 15  0  2 10.0000000  0  8G03G06G07G09G16G23G26G32
  21190055.560   111354541.028 9  21190056.740    86769800.83649
  24151573.680   126917381.113 7  24151577.180    98896680.21246
  23143022.120   121617424.740 8  23143021.600    94766843.25646
  21872120.540   114938813.321 9  21872121.340    89562740.78748
  21153727.420   111163651.615 9  21153725.680    86621053.88448
  20610253.060   108307693.529 9  20610249.100    84395642.48449
  22608651.120   118809342.234 8  22608652.940    92578748.71247
  23860504.780   125387796.783 7  23860505.380    97704785.11545
 16  1 15  0  2 11.0000000  0  8G03G06G07G09G16G23G26G32
  21190513.180   111356945.903 9  21190514.380    86771674.76149
  24151692.500   126918005.496 7  24151696.000    98897166.74345
  23142531.380   121614845.897 8  23142530.860    94764833.77046
  21871703.460   114936621.483 9  21871704.260    89561032.86348
  21153709.420   111163556.985 9  21153707.660    86620980.14848
  20610113.920   108306962.344 9  20610109.960    84395072.72649
  22609008.680   118811221.188 8  22609010.520    92580212.83647
  23861159.280   125391236.333 7  23861159.920    97707465.28545
 16  1 15  0  2 12.0000000  0  8G03G06G07G09G16G23G26G32
  21190970.880   111359351.075 9  21190972.060    86773548.92349
  24151811.360   126918630.243 7  24151814.900    98897653.56245
  23142040.640   121612267.070 8  23142040.120    94762824.29446
  21871286.360   114934429.584 9  21871287.140    89559324.89448
  21153691.520   111163462.875 9  21153689.740    86620906.81648
  20609974.800   108306231.229 9  20609970.820    84394503.02949
  22609366.300   118813100.499 8  22609368.120    92581677.23247
  23861813.800   125394675.853 7  23861814.440    97710145.42945
 16  1 15  0  2 13.0000000  0  8G03G06G07G09G16G23G26G32
  21191428.640   111361756.633 9  21191429.820    86775423.38449
  24151930.340   126919255.432 7  24151933.880    98898140.72646
  23141549.940   121609688.389 8  23141549.400    94760814.93946
  21870869.260   114932237.743 9  21870870.060    89557616.96648
  21153673.720   111163369.414 9  21153671.960    86620833.98748
  20609835.700   108305500.314 9  20609831.740    84393933.48249
  22609724.040   118814980.275 8  22609725.820    92583141.99547
  23862468.320   125398115.419 7  23862468.980    97712825.60845
 16  1 15  0  2 14.0000000  0  8G03G06G07G09G16G23G26G32
  21191886.520   111364162.761 9  21191887.700    86777298.28949
  24152049.420   126919881.220 7  24152052.960    98898628.35146
  23141059.280   121607109.991 8  23141058.780    94758805.80346
  21870452.220   114930046.117 9  21870453.000    89555909.20148
  21153656.080   111163276.742 9  21153654.320    86620761.77948
  20609696.680   108304769.733 9  20609692.720    84393364.19649
  22610081.860   118816860.658 8  22610083.640    92584607.23247
  23863122.880   125401555.197 7  23863123.560    97715505.95445
 16  1 15  0  2 15.0000000  0  8G03G06G07G09G16G23G26G32
  21192344.500   111366569.507 9  21192345.700    86779173.67349
  24152168.640   126920507.694 7  24152172.200    98899116.51045
  23140568.700   121604531.996 8  23140568.200    94756796.97447
  21870035.200   114927854.778 9  21870036.020    89554201.66648
  21153638.620   111163184.960 9  21153636.860    86620690.25648
  20609557.740   108304039.582 9  20609553.760    84392795.25249
  22610439.840   118818741.748 8  22610441.600    92586073.01047
  23863777.500   125404995.269 7  23863778.200    97718186.52445
 16  1 15  0  2 16.0000000  0  8G03G06G07G09G16G23G26G32
  21192802.580   111368976.815 9  21192803.800    86781049.49549
  24152287.960   126921134.780 7  24152291.520    98899605.14146
  23140078.180   121601954.267 8  23140077.660    94754788.35046
  21869618.260   114925663.643 9  21869619.060    89552494.28948
  21153621.300   111163093.969 9  21153619.540    86620619.35648
  20609418.860   108303309.771 9  20609414.900    84392226.56849
  22610797.920   118820623.434 8  22610799.660    92587539.25947
  23864432.140   125408435.552 7  23864432.840    97720867.25645
 16  1 15  0  2 17.0000000  0  8G03G06G07G09G16G23G26G32
  21193260.820   111371384.765 9  21193262.020    86782925.82249
  24152407.420   126921762.549 7  24152410.980    98900094.31645
  23139587.720   121599376.962 8  23139587.220    94752780.05846
  21869201.340   114923472.814 9  21869202.160    89550787.14948
  21153604.140   111163003.864 9  21153602.400    86620549.14448
  20609280.060   108302580.401 9  20609276.100    84391658.22549
  22611156.120   118822505.859 8  22611157.860    92589006.08447
  23865086.860   125411876.155 7  23865087.560    97723548.23946
 16  1 15  0  2 18.0000000  0  8G03G06G07G09G16G23G26G32
  21193719.120   111373793.221 9  21193720.320    86784802.54149
  24152526.980   126922390.896 7  24152530.520    98900583.93945
  23139097.320   121596799.905 8  23139096.820    94750771.96247
  21868784.480   114921282.153 9  21868785.280    89549080.14248
  21153587.140   111162914.517 9  21153585.380    86620479.52648
  20609141.340   108301851.325 9  20609137.360    84391090.11549
  22611514.460   118824388.851 8  22611516.180    92590473.35047
  23865741.600   125415316.908 7  23865742.300    97726229.34545
 16  1 15  0  2 19.0000000  0  8G03G06G07G09G16G23G26G32
  21194177.500   111376202.071 9  21194178.720    86786679.56749
  24152646.620   126923019.664 7  24152650.200    98901073.89445
  23138606.940   121594222.957 8  23138606.440    94748763.95446
  21868367.620   114919091.520 9  21868368.420    89547373.15848
  21153570.260   111162825.802 9  21153568.500    86620410.39948
  20609002.620   108301122.431 9  20608998.640    84390522.14549
  22611872.860   118826272.287 8  22611874.600    92591940.96547
  23866396.360   125418757.710 7  23866397.080    97728910.48446
 16  1 15  0  2 20.0000000  0  8G03G06G07G09G16G23G26G32
  21194635.980   111378611.332 9  21194637.200    86788556.91348
  24152766.360   126923648.899 7  24152769.960    98901564.20545
  23138116.600   121591646.187 8  23138116.100    94746756.08246
  21867950.780   114916900.966 9  21867951.580    89545666.23148
  21153553.480   111162737.738 9  21153551.740    86620341.77648
  20608863.960   108300393.728 9  20608859.980    84389954.32549
  22612231.360   118828156.204 8  22612233.100    92593408.95547
  23867051.140   125422198.584 7  23867051.900    97731591.67645
 16  1 15  0  2 21.0000000  0  8G03G06G07G09G16G23G26G32
  21195094.560   111381021.175 9  21195095.780    86790434.70949
  24152886.220   126924278.763 7  24152889.840    98902055.00545
  23137626.320   121589069.711 8  23137625.820    94744748.43846
  21867533.960   114914710.644 9  21867534.760    89543959.48848
  21153536.880   111162650.483 9  21153535.140    86620273.78348
  20608725.360   108299665.404 9  20608721.380    84389386.79749
  22612589.980   118830040.752 8  22612591.700    92594877.43147
  23867705.960   125425639.671 7  23867706.700    97734273.04845
 16  1 15  0  2 22.0000000  0  8G03G06G07G09G16G23G26G32
  21195553.240   111383431.545 9  21195554.460    86792312.91749
  24153006.200   126924909.220 7  24153009.780    98902546.27746
  23137136.080   121586493.535 8  23137135.600    94742741.03146
  21867117.200   114912520.508 9  21867118.000    89542252.88948
  21153520.420   111162564.004 9  21153518.680    86620206.39948
  20608586.840   108298937.400 9  20608582.860    84388819.52249
  22612948.720   118831925.904 8  22612950.420    92596346.38347
  23868360.800   125429080.957 7  23868361.580    97736954.56445
 16  1 15  0  2 23.0000000  0  8G03G06G07G09G16G23G26G32
  21196011.980   111385842.308 9  21196013.200    86794191.43449
  24153126.260   126925540.087 7  24153129.800    98903037.86246
  23136645.880   121583917.496 8  23136645.380    94740733.72746
  21866700.440   114910330.427 9  21866701.240    89540546.33748
  21153504.080   111162478.171 9  21153502.340    86620139.51848
  20608448.340   108298209.575 9  20608444.340    84388252.38349
  22613307.540   118833811.508 8  22613309.260    92597815.68347
  23869015.660   125432522.288 7  23869016.460    97739636.12245
 16  1 15  0  2 24.0000000  0  8G03G06G07G09G16G23G26G32
  21196470.840   111388253.615 9  21196472.060    86796070.37249
  24153246.420   126926171.545 7  24153249.960    98903529.90745
  23136155.720   121581341.722 8  23136155.240    94738726.63347
  21866283.720   114908140.533 9  21866284.520    89538839.92848
  21153487.880   111162393.115 9  21153486.160    86620073.23948
  20608309.900   108297482.078 9  20608305.900    84387685.50549
  22613666.480   118835697.708 8  22613668.180    92599285.44747
  23869670.560   125435963.832 7  23869671.360    97742317.84945
 16  1 15  0  2 25.0000000  0  8G03G06G07G09G16G23G26G32
  21196929.800   111390665.414 9  21196931.000    86797949.70049
  24153366.720   126926803.597 7  24153370.240    98904022.40545
  23135665.600   121578766.205 8  23135665.140    94736719.73946
  21865867.020   114905950.815 9  21865867.820    89537133.65248
  21153471.840   111162308.804 9  21153470.100    86620007.54348
  20608171.500   108296754.876 9  20608167.520    84387118.85149
  22614025.520   118837584.469 8  22614027.200    92600755.65247
  23870325.480   125439405.520 7  23870326.300    97744999.68445
 16  1 15  0  2 26.0000000  0  8G03G06G07G09G16G23G26G32
  21197388.820   111393077.675 9  21197390.060    86799829.38249
  24153487.100   126927436.122 7  24153490.640    98904515.28346
  23135175.520   121576190.870 8  23135175.060    94734712.98846
  21865450.340   114903761.181 9  21865451.160    89535427.44548
  21153455.920   111162225.178 9  21153454.180    86619942.38048
  20608033.180   108296027.918 9  20608029.200    84386552.39349
  22614384.660   118839471.772 8  22614386.340    92602226.27847
  23870980.420   125442847.311 7  23870981.260    97747681.59745
 16  1 15  0  2 27.0000000  0  8G03G06G07G09G16G23G26G32
  21197847.960   111395490.401 9  21197849.180    86801709.42449
  24153607.540   126928069.138 7  24153611.120    98905008.54545
  23134685.500   121573615.766 8  23134685.040    94732706.41146
  21865033.700   114901571.684 9  21865034.500    89533721.34448
  21153440.140   111162142.264 9  21153438.400    86619877.77448
  20607894.900   108295301.210 9  20607890.900    84385986.12749
  22614743.900   118841359.591 8  22614745.580    92603697.30647
  23871635.400   125446289.233 7  23871636.220    97750363.60845
 16  1 15  0  2 28.0000000  0  8G03G06G07G09G16G23G26G32
  21198307.180   111397903.652 9  21198308.400    86803589.88249
  24153728.120   126928702.788 7  24153731.700    98905502.29645
  23134195.520   121571040.933 8  23134195.060    94730700.05247
  21864617.080   114899382.376 9  21864617.900    89532015.39148
  21153424.500   111162060.141 9  21153422.780    86619813.78048
  20607756.660   108294574.835 9  20607752.680    84385420.11849
  22615103.280   118843248.017 8  22615104.920    92605168.81347
  23872290.420   125449731.362 7  23872291.260    97753045.78745
 16  1 15  0  2 29.0000000  0  8G03G06G07G09G16G23G26G32
  21198766.500   111400317.455 9  21198767.720    86805470.76749
  24153848.800   126929337.005 7  24153852.380    98905996.48746
  23133705.580   121568466.383 8  23133705.120    94728693.91346
  21864200.500   114897193.283 9  21864201.320    89530309.60348
  21153409.020   111161978.790 9  21153407.300    86619750.39248
  20607618.500   108293848.789 9  20607614.520    84384854.36849
  22615462.740   118845137.055 8  22615464.380    92606640.78447
  23872945.460   125453173.671 7  23872946.280    97755728.09945
 16  1 15  0  2 30.0000000  0  8G03G06G07G09G16G23G26G32
  21199225.900   111402731.550 9  21199227.120    86807351.88049
  24153969.560   126929971.584 7  24153973.100    98906490.95845
  23133215.660   121565891.881 8  23133215.220    94726687.81046
  21863783.920   114895004.127 9  21863784.740    89528603.76748
  21153393.620   111161897.986 9  21153391.920    86619687.43048
  20607480.360   108293122.821 9  20607476.360    84384288.67949
  22615822.280   118847026.432 8  22615823.920    92608113.03047
  23873600.520   125456615.950 7  23873601.320    97758410.39345
 16  1 15  0  2 31.0000000  0  8G03G06G07G09G16G23G26G32
  21199685.360   111405145.979 9  21199686.560    86809233.25349
  24154090.380   126930606.521 7  24154093.900    98906985.71245
  23132725.760   121563317.431 8  23132725.320    94724681.73947
  21863367.340   114892814.976 9  21863368.160    89526897.93548
  21153378.360   111161817.763 9  21153376.640    86619624.92048
  20607342.220   108292396.993 9  20607338.240    84383723.09949
  22616181.900   118848916.227 8  22616183.540    92609585.59847
  23874255.540   125460058.222 7  23874256.360    97761092.67445
 16  1 15  0  2 32.0000000  0  8G03G06G07G09G16G23G26G32
  21200144.900   111407560.862 9  21200146.120    86811114.97849
  24154211.320   126931241.992 7  24154214.820    98907480.89245
  23132235.900   121560743.215 8  23132235.460    94722675.86246
  21862950.780   114890625.931 9  21862951.600    89525192.18848
  21153363.220   111161738.230 9  21153361.500    86619562.94948
  20607204.140   108291671.402 9  20607200.160    84383157.70349
  22616541.620   118850806.532 8  22616543.240    92611058.56047
  23874910.600   125463500.627 7  23874911.440    97763775.06045
 16  1 15  0  2 33.0000000  0  8G03G06G07G09G16G23G26G32
  21200604.540   111409976.313 9  21200605.760    86812997.14449
  24154332.360   126931878.072 7  24154335.860    98907976.53346
  23131746.080   121558169.286 8  23131745.660    94720670.20547
  21862534.260   114888437.104 9  21862535.080    89523486.60848
  21153348.220   111161659.499 9  21153346.520    86619501.60048
  20607066.140   108290946.162 9  20607062.160    84382592.57949
  22616901.460   118852697.462 8  22616903.080    92612532.01047
  23875565.680   125466943.209 7  23875566.540    97766457.59145
 16  1 15  0  2 34.0000000  0  8G03G06G07G09G16G23G26G32
  21201064.320   111412392.426 9  21201065.520    86814879.83149
  24154453.520   126932514.867 7  24154457.040    98908472.74346
  23131256.360   121555595.779 8  23131255.940    94718664.87546
  21862117.800   114886248.607 9  21862118.600    89521781.28648
  21153333.400   111161581.706 9  21153331.700    86619440.98048
  20606928.220   108290221.388 9  20606924.240    84382027.82249
  22617261.420   118854589.135 8  22617263.060    92614006.04247
  23876220.840   125470386.140 7  23876221.700    97769140.39245
 16  1 15  0  2 35.0000000  0  8G03G06G07G09G16G23G26G32
  21201524.220   111414809.227 9  21201525.420    86816763.05349
  24154574.860   126933152.376 7  24154578.360    98908969.49946
  23130766.700   121553022.685 8  23130766.320    94716659.86346
  21861701.400   114884060.445 9  21861702.220    89520076.22648
  21153318.780   111161504.833 9  21153317.080    86619381.08148
  20606790.380   108289497.086 9  20606786.400    84381463.42949
  22617621.540   118856481.542 8  22617623.160    92615480.64647
  23876876.080   125473829.389 7  23876876.940    97771823.44145
 16  1 15  0  2 36.0000000  0  8G03G06G07G09G16G23G26G32
  21201984.240   111417226.638 9  21201985.460    86818646.75049
  24154696.300   126933790.555 7  24154699.800    98909466.78046
  23130277.120   121550449.970 8  23130276.720    94714655.15046
  21861285.060   114881872.550 9  21861285.860    89518371.37148
  21153304.300   111161428.811 9  21153302.600    86619321.83948
  20606652.620   108288773.189 9  20606648.660    84380899.35349
  22617981.780   118858374.626 8  22617983.400    92616955.77947
  23877531.360   125477272.938 8  23877532.200    97774506.72245
 16  1 15  0  2 37.0000000  0  8G03G06G07G09G16G23G26G32
  21202444.380   111419644.667 9  21202445.580    86820530.92649
  24154817.860   126934429.405 7  24154821.340    98909964.59145
  23129787.620   121547877.601 8  23129787.220    94712650.70647
  21860868.780   114879684.939 9  21860869.580    89516666.73748
  21153290.000   111161353.651 9  21153288.300    86619263.27348
  20606514.940   108288049.692 9  20606510.980    84380335.58749
  22618342.160   118860268.394 8  22618343.760    92618431.44447
  23878186.700   125480716.733 7  23878187.540    97777190.19945
 16  1 15  0  2 38.0000000  0  8G03G06G07G09G16G23G26G32
  21202904.620   111422063.168 9  21202905.820    86822415.47249
  24154939.540   126935068.788 7  24154943.020    98910462.82145
  23129298.140   121545305.466 8  23129297.760    94710646.44747
  21860452.520   114877497.473 9  21860453.320    89514962.22048
  21153275.820   111161279.216 9  21153274.120    86619205.27348
  20606377.320   108287326.475 9  20606373.340    84379772.04449
  22618702.640   118862162.698 8  22618704.220    92619907.52347
  23878842.060   125484160.678 7  23878842.880    97779873.80145
 16  1 15  0  2 39.0000000  0  8G03G06G07G09G16G23G26G32
  21203364.940   111424482.176 9  21203366.140    86824300.41449
  24155061.280   126935708.701 7  24155064.800    98910961.45545
  23128808.740   121542733.544 8  23128808.320    94708642.35046
  21860036.300   114875310.151 9  21860037.080    89513257.81248
  21153261.800   111161205.514 9  21153260.100    86619147.84548
  20606239.740   108286603.540 9  20606235.780    84379208.72049
  22619063.220   118864057.572 8  22619064.820    92621384.04847
  23879497.440   125487604.781 7  23879498.280    97782557.51346
 16  1 15  0  2 40.0000000  0  8G03G06G07G09G16G23G26G32
  21203825.340   111426901.592 9  21203826.540    86826185.67549
  24155183.140   126936349.093 7  24155186.660    98911460.46045
  23128319.340   121540161.803 8  23128318.940    94706638.40547
  21859620.060   114873122.900 9  21859620.860    89511553.46248
  21153247.880   111161132.482 9  21153246.200    86619090.93548
  20606102.220   108285880.818 9  20606098.240    84378645.55749
  22619423.900   118865952.910 8  22619425.480    92622860.93147
  23880152.840   125491048.926 7  23880153.680    97785241.25446
 16  1 15  0  2 41.0000000  0  8G03G06G07G09G16G23G26G32
  21204285.800   111429321.313 9  21204287.000    86828071.16949
  24155305.080   126936989.842 7  24155308.600    98911959.74345
  23127829.980   121537590.112 8  23127829.580    94704634.49047
  21859203.840   114870935.602 9  21859204.640    89509849.07648
  21153234.100   111161059.984 9  21153232.380    86619034.44348
  20605964.720   108285158.185 9  20605960.740    84378082.46749
  22619784.660   118867848.633 8  22619786.220    92624338.11847
  23880808.240   125494493.048 7  23880809.060    97787924.98946
 16  1 15  0  2 42.0000000  0  8G03G06G07G09G16G23G26G32
  21204746.340   111431741.396 9  21204747.540    86829956.94849
  24155427.100   126937630.985 7  24155430.580    98912459.33946
  23127340.620   121535018.524 8  23127340.220    94702630.65447
  21858787.620   114868748.346 9  21858788.420    89508144.72348
  21153220.400   111160988.106 9  21153218.720    86618978.43448
  20605827.240   108284435.712 9  20605823.260    84377519.50149
  22620145.480   118869744.789 8  22620147.040    92625815.64047
  23881463.640   125497937.195 7  23881464.440    97790608.73945
 16  1 15  0  2 43.0000000  0  8G03G06G07G09G16G23G26G32
  21205206.960   111434161.923 9  21205208.140    86831843.07349
  24155549.180   126938272.659 7  24155552.700    98912959.34745
  23126851.280   121532447.114 8  23126850.920    94700626.95946
  21858371.420   114866561.171 9  21858372.200    89506440.43148
  21153206.860   111160916.902 9  21153205.160    86618922.95348
  20605689.800   108283713.460 9  20605685.820    84376956.70549
  22620506.400   118871641.431 8  22620507.960    92627293.54547
  23882119.060   125501381.435 7  23882119.900    97793292.56045
 16  1 15  0  2 44.0000000  0  8G03G06G07G09G16G23G26G32
  21205667.640   111436582.852 9  21205668.840    86833729.51249
  24155671.360   126938914.751 7  24155674.880    98913459.68045
  23126361.980   121529875.828 8  23126361.600    94698623.35746
  21857955.220   114864374.068 9  21857956.020    89504736.19448
  21153193.420   111160846.346 9  21153191.740    86618867.97248
  20605552.380   108282991.407 9  20605548.400    84376394.06749
  22620867.400   118873538.520 8  22620868.960    92628771.79847
  23882774.500   125504825.727 7  23882775.320    97795976.42045
 16  1 15  0  2 45.0000000  0  8G03G06G07G09G16G23G26G32
  21206128.420   111439004.199 9  21206129.600    86835616.27149
  24155793.640   126939557.313 7  24155797.160    98913960.37845
  23125872.720   121527304.757 8  23125872.360    94696619.92947
  21857539.040   114862187.035 9  21857539.820    89503032.01348
  21153180.120   111160776.462 9  21153178.440    86618813.51948
  20605415.020   108282269.565 9  20605411.040    84375831.59249
  22621228.500   118875436.119 8  22621230.060    92630250.44247
  23883429.940   125508270.098 7  23883430.760    97798660.34745
 16  1 15  0  2 46.0000000  0  8G03G06G07G09G16G23G26G32
  21206589.280   111441426.019 9  21206590.460    86837503.40449
  24155916.020   126940200.411 7  24155919.540    98914461.48945
  23125383.480   121524733.862 8  23125383.120    94694616.63546
  21857122.880   114860000.136 9  21857123.680    89501327.93848
  21153166.960   111160707.290 9  21153165.260    86618759.61848
  20605277.720   108281547.994 9  20605273.720    84375269.33149
  22621589.700   118877334.258 8  22621591.260    92631729.51647
  23884085.420   125511714.621 7  23884086.220    97801344.39745
 16  1 15  0  2 47.0000000  0  8G03G06G07G09G16G23G26G32
  21207050.260   111443848.530 9  21207051.460    86839391.07549
  24156038.520   126940844.245 7  24156042.060    98914963.16746
  23124894.340   121522163.409 8  23124893.980    94692613.68847
  21856706.780   114857813.587 9  21856707.600    89499624.13148
  21153153.960   111160639.058 9  21153152.280    86618706.45148
  20605140.500   108280826.900 9  20605136.500    84374707.43849
  22621951.040   118879233.134 8  22621952.620    92633209.16347
  23884740.960   125515159.484 8  23884741.740    97804028.71045
 16  1 15  0  2 48.0000000  0  8G03G06G07G09G16G23G26G32
  21207511.360   111446271.556 9  21207512.540    86841279.14549
  24156161.140   126941488.628 7  24156164.680    98915465.27845
  23124405.260   121519593.234 8  23124404.900    94690610.95947
  21856290.720   114855627.213 9  21856291.540    89497920.46448
  21153141.100   111160571.581 9  21153139.440    86618653.87448
  20605003.340   108280106.122 9  20604999.340    84374145.79749
  22622312.520   118881132.598 8  22622314.080    92634689.26347
  23885396.540   125518604.514 8  23885397.320    97806713.14345
 16  1 15  0  2 49.0000000  0  8G03G06G07G09G16G23G26G32
  21207972.580   111448695.207 9  21207973.760    86843167.70649
  24156283.900   126942133.718 7  24156287.420    98915967.94545
  23123916.240   121517023.414 8  23123915.860    94688608.50546
  21855874.740   114853441.127 9  21855875.540    89496217.01948
  21153128.420   111160504.979 9  21153126.760    86618601.97648
  20604866.260   108279385.762 9  20604862.260    84373584.47549
  22622674.100   118883032.753 8  22622675.660    92636169.90247
  23886052.160   125522049.815 8  23886052.940    97809397.78745
 16  1 15  0  2 50.0000000  0  8G03G06G07G09G16G23G26G32
  21208433.880   111451119.286 9  21208435.040    86845056.60149
  24156406.740   126942779.267 7  24156410.220    98916470.96545
  23123427.240   121514453.749 8  23123426.860    94686606.17146
  21855458.740   114851255.111 9  21855459.560    89494513.63048
  21153115.880   111160439.036 9  21153114.200    86618550.59048
  20604729.220   108278665.617 9  20604725.220    84373023.32149
  22623035.780   118884933.397 8  22623037.320    92637650.92147
  23886707.820   125525495.179 8  23886708.560    97812082.48845
 16  1 15  0  2 51.0000000  0  8G03G06G07G09G16G23G26G32
  21208895.260   111453543.907 9  21208896.420    86846945.91249
  24156529.680   126943425.387 7  24156533.160    98916974.44145
  23122938.300   121511884.428 8  23122937.940    94684604.10347
  21855042.800   114849069.315 9  21855043.620    89492810.41548
  21153103.480   111160373.900 9  21153101.820    86618499.83448
  20604592.240   108277945.803 9  20604588.240    84372462.42349
  22623397.580   118886834.635 8  22623399.120    92639132.40547
  23887363.500   125528940.796 8  23887364.260    97814767.38445
 16  1 15  0  2 52.0000000  0  8G03G06G07G09G16G23G26G32
  21209356.780   111455969.151 9  21209357.940    86848835.71449
  24156652.760   126944072.227 7  24156656.240    98917478.47645
  23122449.440   121509315.446 8  23122449.080    94682602.29947
  21854626.900   114846883.804 9  21854627.720    89491107.42448
  21153091.240   111160309.628 9  21153089.580    86618449.75248
  20604455.340   108277226.413 9  20604451.360    84371901.86349
  22623759.480   118888736.582 8  22623761.040    92640614.44347
  23888019.240   125532386.662 8  23888020.000    97817452.46945
 16  1 15  0  2 53.0000000  0  8G03G06G07G09G16G23G26G32
  21209818.380   111458394.875 9  21209819.540    86850725.88749
  24156775.980   126944719.592 7  24156779.440    98917982.91445
  23121960.620   121506746.704 8  23121960.260    94680600.67946
  21854211.040   114844698.419 9  21854211.860    89489404.52648
  21153079.140   111160246.071 9  21153077.500    86618400.22948
  20604318.500   108276507.290 9  20604314.500    84371341.50449
  22624121.520   118890639.062 8  22624123.060    92642096.89847
  23888675.000   125535832.664 8  23888675.760    97820137.66545
 16  1 15  0  2 54.0000000  0  8G03G06G07G09G16G23G26G32
  21210280.060   111460820.946 9  21210281.200    86852616.33249
  24156899.240   126945367.333 7  24156902.700    98918487.64945
  23121471.820   121504178.013 8  23121471.440    94678599.10247
  21853795.160   114842513.046 9  21853796.000    89487701.63848
  21153067.160   111160183.108 9  21153065.520    86618351.16948
  20604181.680   108275788.301 9  20604177.680    84370781.25749
  22624483.620   118892541.942 8  22624485.140    92643579.66147
  23889330.760   125539278.678 8  23889331.540    97822822.86445
 16  1 15  0  2 55.0000000  0  8G03G06G07G09G16G23G26G32
  21210741.800   111463247.483 9  21210742.960    86854507.14249
  24157022.600   126946015.576 7  24157026.060    98918992.77246
  23120983.040   121501609.544 8  23120982.700    94676597.70246
  21853379.340   114840327.795 9  21853380.160    89485998.84548
  21153055.320   111160120.857 9  21153053.680    86618302.66048
  20604044.920   108275069.578 9  20604040.920    84370221.21549
  22624845.820   118894445.363 8  22624847.340    92645062.84547
  23889986.540   125542724.814 8  23889987.320    97825508.16645
 16  1 15  0  2 56.0000000  0  8G03G06G07G09G16G23G26G32
  21211203.640   111465674.389 9  21211204.800    86856398.23849
  24157146.040   126946664.239 7  24157149.480    98919498.23045
  23120494.280   121499041.192 8  23120493.960    94674596.39346
  21852963.500   114838142.573 9  21852964.320    89484296.07448
  21153043.600   111160059.218 9  21153041.960    86618254.62948
  20603908.180   108274351.018 9  20603904.180    84369661.29549
  22625208.100   118896349.207 8  22625209.640    92646546.35547
  23890642.320   125546170.961 8  23890643.080    97828193.47345
 16  1 15  0  2 57.0000000  0  8G03G06G07G09G16G23G26G32
  21211665.540   111468101.717 9  21211666.700    86858289.66049
  24157269.560   126947313.409 7  24157273.040    98920004.06845
  23120005.560   121496473.012 8  23120005.240    94672595.21147
  21852547.680   114835957.450 9  21852548.500    89482593.38048
  21153032.000   111159998.254 9  21153030.340    86618207.12348
  20603771.480   108273632.681 9  20603767.500    84369101.55249
  22625570.480   118898253.543 8  22625572.020    92648030.25547
  23891298.120   125549617.211 8  23891298.920    97830878.85845
 16  1 15  0  2 58.0000000  0  8G03G06G07G09G16G23G26G32
  21212127.560   111470529.564 9  21212128.700    86860181.48949
  24157393.200   126947963.121 7  24157396.640    98920510.33345
  23119516.920   121493905.118 8  23119516.600    94670594.25946
  21852131.880   114833772.483 9  21852132.720    89480890.80748
  21153020.540   111159938.057 9  21153018.900    86618160.22148
  20603634.840   108272914.646 9  20603630.860    84368542.04449
  22625932.980   118900158.462 8  22625934.500    92649514.60847
  23891953.940   125553063.605 8  23891954.720    97833564.36245
 16  1 15  0  2 59.0000000  0  8G03G06G07G09G16G23G26G32
  21212589.620   111472957.664 9  21212590.760    86862073.51549
  24157516.900   126948613.153 7  24157520.340    98921016.85645
  23119028.260   121491337.221 8  23119027.940    94668593.30047
  21851716.100   114831587.447 9  21851716.920    89479188.18248
  21153009.180   111159878.358 9  21153007.540    86618113.70248
  20603498.220   108272196.666 9  20603494.240    84367982.58249
  22626295.540   118902063.709 8  22626297.060    92650999.21647
  23892609.780   125556509.957 8  23892610.520    97836249.83645
 16  1 15  0  3  0.0000000  0  8G03G06G07G09G16G23G26G32
  21213051.740   111475386.128 9  21213052.880    86863965.82349
  24157640.660   126949263.597 7  24157644.100    98921523.69646
  23118539.620   121488769.422 8  23118539.320    94666592.41647
  21851300.300   114829402.437 9  21851301.120    89477485.57948
  21152997.940   111159819.273 9  21152996.300    86618067.66148
  20603361.620   108271478.849 9  20603357.640    84367423.24249
  22626658.180   118903969.382 8  22626659.680    92652484.15247
  23893265.600   125559956.283 8  23893266.320    97838935.28045
 16  1 15  0  3  1.0000000  0  8G03G06G07G09G16G23G26G32
  21213513.980   111477815.174 9  21213515.120    86865858.58649
  24157764.560   126949914.675 7  24157767.980    98922031.02746
  23118051.060   121486201.951 8  23118050.740    94664591.78947
  21850884.540   114827217.659 9  21850885.380    89475783.15548
  21152986.840   111159761.010 9  21152985.220    86618022.26448
  20603225.100   108270761.403 9  20603221.120    84366864.19349
  22627020.920   118905875.691 8  22627022.440    92653969.58547
  23893921.440   125563402.856 8  23893922.180    97841620.91945
 16  1 15  0  3  2.0000000  0  8G03G06G07G09G16G23G26G32
  21213976.320   111480244.771 9  21213977.460    86867751.78049
  24157888.580   126950566.350 7  24157892.000    98922538.82145
  23117562.540   121483634.787 8  23117562.240    94662591.40447
  21850468.840   114825033.101 9  21850469.660    89474080.90248
  21152975.900   111159703.544 9  21152974.280    86617977.48348
  20603088.640   108270044.295 9  20603084.640    84366305.41049
  22627383.800   118907782.612 8  22627385.320    92655455.50047
  23894577.360   125566849.657 8  23894578.080    97844306.74145
 16  1 15  0  3  3.0000000  0  8G03G06G07G09G16G23G26G32
  21214438.780   111482675.023 9  21214439.920    86869645.48349
  24158012.740   126951218.739 7  24158016.140    98923047.17646
  23117074.100   121481068.023 8  23117073.800    94660591.32847
  21850053.200   114822848.859 9  21850054.020    89472378.89748
  21152965.140   111159646.978 9  21152963.520    86617933.40648
  20602952.260   108269327.645 9  20602948.280    84365746.97949
  22627746.800   118909690.250 8  22627748.320    92656941.97347
  23895233.320   125570296.750 8  23895234.060    97846992.78745
 16  1 15  0  3  4.0000000  0  8G03G06G07G09G16G23G26G32
  21214901.340   111485105.761 9  21214902.480    86871539.56249
  24158136.980   126951871.661 7  24158140.420    98923555.94545
  23116585.700   121478501.466 8  23116585.400    94658591.41346
  21849637.580   114820664.753 9  21849638.400    89470676.99648
  21152954.520   111159591.146 9  21152952.900    86617889.90348
  20602815.940   108268611.271 9  20602811.960    84365188.76549
  22628109.920   118911598.432 8  22628111.440    92658428.86847
  23895889.320   125573744.001 8  23895890.040    97849678.95045
 16  1 15  0  3  5.0000000  0  8G03G06G07G09G16G23G26G32
  21215364.000   111487537.024 9  21215365.120    86873434.05349
  24158261.340   126952525.169 7  24158264.760    98924065.17445
  23116097.360   121475935.222 8  23116097.060    94656591.74746
  21849222.000   114818480.850 9  21849222.800    89468975.25348
  21152944.040   111159536.095 9  21152942.420    86617847.00548
  20602679.680   108267895.222 9  20602675.700    84364630.80649
  22628473.140   118913507.235 8  22628474.660    92659916.24947
  23896545.340   125577191.438 8  23896546.060    97852365.26545
 16  1 15  0  3  6.0000000  0  8G03G06G07G09G16G23G26G32
  21215826.740   111489968.744 9  21215827.880    86875328.90049
  24158385.800   126953179.153 7  24158389.220    98924574.77245
  23115609.040   121473369.151 8  23115608.760    94654592.21547
  21848806.440   114816297.049 9  21848807.240    89467273.59048
  21152933.700   111159481.736 9  21152932.080    86617804.64648
  20602543.460   108267179.408 9  20602539.480    84364073.02849
  22628836.460   118915416.528 8  22628838.000    92661404.01047
  23897201.400   125580638.973 8  23897202.120    97855051.64745
 16  1 15  0  3  7.0000000  0  8G03G06G07G09G16G23G26G32
  21216289.600   111492401.111 9  21216290.740    86877224.24949
  24158510.380   126953833.857 7  24158513.800    98925084.93545
  23115120.820   121470803.470 8  23115120.540    94652592.98147
  21848390.920   114814113.553 9  21848391.720    89465572.16948
  21152923.520   111159428.272 9  21152921.920    86617762.98748
  20602407.340   108266464.045 9  20602403.340    84363515.60249
  22629199.920   118917326.531 8  22629201.460    92662892.32647
  23897857.520   125584086.830 8  23897858.240    97857738.29445
 16  1 15  0  3  8.0000000  0  8G03G06G07G09G16G23G26G32
  21216752.580   111494834.048 9  21216753.720    86879120.04449
  24158635.080   126954489.184 7  24158638.480    98925595.58145
  23114632.640   121468238.135 8  23114632.340    94650594.01847
  21847975.460   114811930.309 9  21847976.280    89463870.93648
  21152913.500   111159375.637 9  21152911.900    86617721.97648
  20602271.280   108265749.055 9  20602267.300    84362958.47049
  22629563.500   118919237.189 8  22629565.040    92664381.14847
  23898513.680   125587534.930 8  23898514.380    97860425.13545
 16  1 15  0  3  9.0000000  0  8G03G06G07G09G16G23G26G32
  21217215.680   111497267.631 9  21217216.820    86881016.34249
  24158759.920   126955145.193 7  24158763.340    98926106.76245
  23114144.560   121465673.173 8  23114144.240    94648595.34746
  21847560.060   114809747.364 9  21847560.880    89462169.94048
  21152903.660   111159323.883 9  21152902.060    86617681.64848
  20602135.300   108265034.494 9  20602131.320    84362401.66749
  22629927.220   118921148.561 8  22629928.760    92665870.52947
  23899169.900   125590983.303 7  23899170.560    97863112.17645
 16  1 15  0  3 10.0000000  0  8G03G06G07G09G16G23G26G32
  21217678.880   111499701.737 9  21217680.000    86882913.04649
  24158884.860   126955801.797 7  24158888.280    98926618.39945
  23113656.520   121463108.498 8  23113656.220    94646596.90147
  21847144.700   114807564.606 9  21847145.500    89460469.08848
  21152893.960   111159272.899 9  21152892.360    86617641.92248
  20601999.380   108264320.256 9  20601995.400    84361845.12149
  22630291.040   118923060.498 8  22630292.580    92667360.35047
  23899826.140   125594431.854 7  23899826.800    97865799.35345
 16  1 15  0  3 11.0000000  0  8G03G06G07G09G16G23G26G32
  21218142.140   111502136.214 9  21218143.280    86884810.03949
  24159009.880   126956458.800 7  24159013.320    98927130.34745
  23113168.500   121460543.938 8  23113168.200    94644598.54446
  21846729.340   114805381.880 9  21846730.140    89458768.26448
  21152884.380   111159222.534 9  21152882.760    86617602.67548
  20601863.500   108263606.186 9  20601859.520    84361288.70349
  22630654.940   118924972.865 8  22630656.500    92668850.50647
  23900482.400   125597880.442 7  23900483.040    97868486.56745
 16  1 15  0  3 12.0000000  0  8G03G06G07G09G16G23G26G32
  21218605.500   111504571.140 9  21218606.640    86886707.38849
  24159135.000   126957116.320 7  24159138.440    98927642.69445
  23112680.520   121457979.557 8  23112680.220    94642600.32346
  21846314.000   114803199.251 9  21846314.800    89457067.51448
  21152874.920   111159172.864 9  21152873.320    86617563.97248
  20601727.660   108262892.368 9  20601723.700    84360732.48249
  22631018.960   118926885.761 8  22631020.500    92670341.07547
  23901138.680   125601329.156 7  23901139.320    97871173.88546
 16  1 15  0  3 13.0000000  0  9G02G03G06G07G09G16G23G26G32
  25862819.660   135910031.953 5
  21219068.940   111507006.470 9  21219070.060    86888605.04849
  24159260.200   126957774.285 7  24159263.620    98928155.39645
  23112192.560   121455415.346 8  23112192.260    94640602.23947
  21845898.680   114801016.698 9  21845899.480    89455366.82648
  21152865.580   111159123.834 9  21152864.000    86617525.76848
  20601591.860   108262178.747 9  20601587.900    84360176.41249
  22631383.060   118928799.136 8  22631384.600    92671832.02047
  23901794.960   125604777.907 7  23901795.600    97873861.20945
 16  1 15  0  3 14.0000000  0  9G02G03G06G07G09G16G23G26G32
  25862583.660   135908790.937 4  25862583.800   105902956.39754
  21219532.460   111509442.274 9  21219533.600    86890503.07749
  24159385.500   126958432.767 7  24159388.960    98928668.49745
  23111704.640   121452851.357 8  23111704.360    94638604.32146
  21845483.380   114798834.277 9  21845484.180    89453666.23648
  21152856.400   111159075.530 9  21152854.800    86617488.12448
  20601456.120   108261465.395 9  20601452.140    84359620.55049
  22631747.240   118930713.019 8  22631748.800    92673323.35247
  23902451.260   125608226.805 7  23902451.920    97876548.65646
 16  1 15  0  3 15.0000000  0  9G02G03G06G07G09G16G23G26G32
  25862348.540   135907550.336 4  25862344.360   105901989.65044
  21219996.080   111511878.616 9  21219997.220    86892401.52349
  24159510.940   126959091.849 7  24159514.360    98929182.05945
  23111216.800   121450287.638 8  23111216.500    94636606.62047
  21845068.120   114796652.063 9  21845068.900    89451965.81148
  21152847.360   111159028.025 9  21152845.760    86617451.11148
  20601320.440   108260752.365 9  20601316.460    84359064.94549
  22632111.540   118932627.516 8  22632113.120    92674815.16547
  23903107.580   125611675.911 7  23903108.260    97879236.27145
 16  1 15  0  3 16.0000000  0  9G02G03G06G07G09G16G23G26G32
  25862112.320   135906310.093 5  25862106.160   105901023.23944
  21220459.760   111514315.279 9  21220460.900    86894300.22249
  24159636.440   126959751.313 7  24159639.860    98929695.93045
  23110728.940   121447723.984 8  23110728.660    94634608.96647
  21844652.860   114794469.831 9  21844653.640    89450265.36848
  21152838.420   111158981.076 9  21152836.820    86617414.52948
  20601184.780   108260039.457 9  20601180.800    84358509.43049
  22632475.940   118934542.393 8  22632477.500    92676307.27547
  23903763.920   125615124.964 7  23903764.620    97881923.83445
 16  1 15  0  3 17.0000000  0  9G02G03G06G07G09G16G23G26G32
  25861875.740   135905070.162 5  25861872.520   105900057.05944
  21220923.500   111516752.238 9  21220924.640    86896199.15349
  24159761.980   126960411.104 7  24159765.400    98930210.05445
  23110241.120   121445160.386 8  23110240.820    94632611.36147
  21844237.580   114792287.554 9  21844238.380    89448564.89348
  21152829.600   111158934.672 9  21152828.000    86617378.37048
  20601049.140   108259326.635 9  20601045.160    84357953.98649
  22632840.400   118936457.643 8  22632841.960    92677799.68047
  23904420.220   125618573.973 7  23904420.940    97884611.37145
 16  1 15  0  3 18.0000000  0  9G02G03G06G07G09G16G23G26G32
  25861639.840   135903830.683 4  25861639.380   105899091.23343
  21221387.320   111519189.689 9  21221388.480    86898098.46649
  24159887.660   126961071.457 7  24159891.060    98930724.61545
  23109753.340   121442597.046 8  23109753.020    94630613.95547
  21843822.340   114790105.437 9  21843823.120    89446864.54248
  21152820.900   111158889.021 9  21152819.320    86617342.79848
  20600913.540   108258614.118 9  20600909.560    84357398.77649
  22633204.960   118938373.445 8  22633206.520    92679292.51447
  23905076.580   125622023.152 7  23905077.360    97887299.04045
 16  1 15  0  3 19.0000000  0  9G02G03G06G07G09G16G23G26G32
  25861404.160   135902591.808 5  25861406.600   105898125.88944
  21221851.280   111521627.784 9  21221852.420    86899998.28049
  24160013.440   126961732.493 7  24160016.820    98931239.71445
  23109265.620   121440034.076 8  23109265.320    94628616.83847
  21843407.160   114787923.628 9  21843407.940    89445164.43348
  21152812.380   111158844.246 9  21152810.800    86617307.91048
  20600778.040   108257902.026 9  20600774.060    84356843.90149
  22633569.660   118940289.951 8  22633571.220    92680785.89647
  23905732.980   125625472.613 7  23905733.780    97889986.92545
 16  1 15  0  3 20.0000000  0  9G02G03G06G07G09G16G23G26G32
  25861168.720   135901353.485 5  25861168.320   105897160.98044
  21222315.340   111524066.410 9  21222316.480    86901898.50348
  24160139.340   126962394.097 7  24160142.740    98931755.25645
  23108777.960   121437471.347 8  23108777.640    94626619.90846
  21842992.000   114785741.997 9  21842992.780    89443464.46348
  21152804.020   111158800.235 9  21152802.440    86617273.61648
  20600642.600   108257190.253 9  20600638.620    84356289.27549
  22633934.460   118942207.051 8  22633936.040    92682279.73847
  23906389.400   125628922.241 7  23906390.240    97892674.94745
 16  1 15  0  3 21.0000000  0  9G02G03G06G07G09G16G23G26G32
  25860933.620   135900115.596 5  25860932.400   105896196.42844
  21222779.480   111526505.471 9  21222780.620    86903799.07149
  24160265.320   126963056.200 7  24160268.740    98932271.17445
  23108290.340   121434908.884 8  23108290.020    94624623.18646
  21842576.880   114783560.485 9  21842577.660    89441764.58148
  21152795.780   111158756.933 9  21152794.200    86617239.87248
  20600507.200   108256478.737 9  20600503.220    84355734.84749
  22634299.360   118944124.650 8  22634300.960    92683773.97147
  23907045.840   125632371.988 7  23907046.680    97895363.06145
 16  1 15  0  3 22.0000000  0  9G02G03G06G07G09G16G23G26G32
  25860698.040   135898878.085 5  25860697.820   105895232.14645
  21223243.700   111528944.940 9  21223244.840    86905699.95449
  24160391.400   126963718.789 7  24160394.840    98932787.47945
  23107802.740   121432346.545 8  23107802.420    94622626.55647
  21842161.760   114781379.043 9  21842162.540    89440064.75948
  21152787.660   111158714.278 9  21152786.080    86617206.63748
  20600371.840   108255767.428 9  20600367.860    84355180.58049
  22634664.360   118946042.720 8  22634665.940    92685268.57347
  23907702.320   125635821.806 7  23907703.200    97898051.22345
 16  1 15  0  3 23.0000000  0  9G02G03G06G07G09G16G23G26G32
  25860462.780   135897641.066 5  25860461.900   105894268.19644
  21223708.000   111531384.921 9  21223709.160    86907601.24049
  24160517.620   126964381.911 7  24160521.020    98933304.19645
  23107315.200   121429784.468 8  23107314.860    94620630.12647
  21841746.680   114779197.762 9  21841747.460    89438365.05748
  21152779.680   111158672.369 9  21152778.100    86617173.98048
  20600236.540   108255056.406 9  20600232.560    84354626.53749
  22635029.460   118947961.360 8  22635031.040    92686763.61747
  23908358.820   125639271.781 7  23908359.720    97900739.52045
 16  1 15  0  3 24.0000000  0  9G02G03G06G07G09G16G23G26G32
  25860227.320   135896404.705 4  25860227.060   105893304.81745
  21224172.460   111533825.615 9  21224173.600    86909503.08149
  24160643.940   126965045.796 7  24160647.360    98933821.50046
  23106827.740   121427222.838 8  23106827.400    94618634.05347
  21841331.680   114777016.862 9  21841332.440    89436665.65748
  21152771.880   111158631.438 9  21152770.320    86617142.08848
  20600101.340   108254345.902 9  20600097.340    84354072.89749
  22635394.720   118949880.774 8  22635396.320    92688259.25947
  23909015.380   125642722.125 7  23909016.320    97903428.09945
 16  1 15  0  3 25.0000000  0  9G02G03G06G07G09G16G23G26G32
  25859992.360   135895168.855 4  25859989.600   105892341.82944
  21224637.000   111536266.763 9  21224638.140    86911405.27449
  24160770.380   126965710.185 7  24160773.740    98934339.20845
  23106340.320   121424661.410 8  23106339.960    94616638.13547
  21840916.680   114774836.085 9  21840917.460    89434966.34648
  21152764.240   111158591.202 9  21152762.660    86617110.73448
  20599966.180   108253635.644 9  20599962.180    84353519.44849
  22635760.060   118951800.723 8  22635761.660    92689755.32247
  23909671.960   125646172.586 7  23909672.940    97906116.76845
 16  1 15  0  3 26.0000000  0  9G02G03G06G07G09G16G23G26G32
  25859757.340   135893933.420 4  25859754.340   105891379.17444
  21225101.620   111538708.394 9  21225102.760    86913307.84249
  24160896.940   126966375.138 7  24160900.300    98934857.35245
  23105852.940   121422100.232 8  23105852.580    94614642.41847
  21840501.720   114772655.445 9  21840502.500    89433267.14648
  21152756.720   111158551.708 9  21152755.140    86617079.95948
  20599831.080   108252925.676 9  20599827.080    84352966.22849
  22636125.520   118953721.215 8  22636127.140    92691251.81047
  23910328.580   125649623.158 7  23910329.600    97908805.52745
 16  1 15  0  3 27.0000000  0  9G02G03G06G07G09G16G23G26G32
  25859522.120   135892698.626 4  25859519.900   105890417.02441
  21225566.380   111541150.656 9  21225567.520    86915210.90349
  24161023.600   126967040.744 7  24161026.940    98935376.01145
  23105365.640   121419539.416 8  23105365.260    94612646.97947
  21840086.800   114770475.107 9  21840087.600    89431568.18448
  21152749.360   111158513.084 9  21152747.800    86617049.86448
  20599696.060   108252216.120 9  20599692.060    84352413.32549
  22636491.100   118955642.390 8  22636492.720    92692748.82747
  23910985.260   125653074.074 7  23910986.320    97911494.54545
 16  1 15  0  3 28.0000000  0  9G02G03G06G07G09G16G23G26G32
  25859287.080   135891464.263 4  25859284.600   105889455.17243
  21226031.200   111543593.352 9  21226032.360    86917114.30449
  24161150.360   126967706.833 7  24161153.700    98935895.04445
  23104878.380   121416978.779 8  23104877.980    94610651.68046
  21839671.920   114768294.851 9  21839672.720    89429869.28248
  21152742.140   111158475.140 9  21152740.580    86617020.29948
  20599561.080   108251506.803 9  20599557.080    84351860.60949
  22636856.760   118957564.062 8  22636858.420    92694246.23847
  23911641.940   125656525.059 7  23911643.000    97914183.61345
 16  1 15  0  3 29.0000000  0  9G02G03G06G07G09G16G23G26G32
  25859052.040   135890230.288 4  25859050.600   105888493.58943
  21226496.120   111546036.462 9  21226497.260    86919018.02749
  24161277.200   126968373.395 7  24161280.560    98936414.44945
  23104391.140   121414418.311 8  23104390.720    94608656.50746
  21839257.040   114766114.684 9  21839257.840    89428170.45148
  21152735.060   111158437.866 9  21152733.500    86616991.25748
  20599426.140   108250797.712 9  20599422.140    84351308.07249
  22637222.540   118959486.225 8  22637224.200    92695744.02747
  23912298.620   125659976.090 7  23912299.720    97916872.72546
 16  1 15  0  3 30.0000000  0  9G02G03G06G07G09G16G23G26G32
  25858817.220   135888996.782 4  25858815.240   105887532.42943
  21226961.100   111548480.020 9  21226962.260    86920922.09149
  24161404.140   126969040.445 7  24161407.480    98936934.22645
  23103903.960   121411858.052 8  23103903.520    94606661.50546
  21838842.200   114763934.643 9  21838843.000    89426471.72048
  21152728.080   111158401.288 9  21152726.520    86616962.75548
  20599291.260   108250088.858 9  20599287.260    84350755.72049
  22637588.400   118961408.901 8  22637590.080    92697242.21447
  23912955.340   125663427.248 7  23912956.440    97919561.93746
 16  1 15  0  3 31.0000000  0  9G02G03G06G07G09G16G23G26G32
  25858582.700   135887763.869 4  25858578.600   105886571.69744
  21227426.200   111550924.213 9  21227427.360    86922826.66049
  24161531.220   126969708.208 7  24161534.560    98937454.56145
  23103416.820   121409298.167 8  23103416.380    94604666.78947
  21838427.400   114761754.888 9  21838428.200    89424773.21048
  21152721.300   111158365.588 9  21152719.740    86616934.93848
  20599156.440   108249380.440 9  20599152.440    84350203.70849
  22637954.380   118963332.257 8  22637956.080    92698740.93147
  23913612.100   125666878.685 7  23913613.200    97922251.36645
 16  1 15  0  3 32.0000000  0  9G02G03G06G07G09G16G23G26G32
  25858348.260   135886531.519 4  25858344.660   105885611.43444
  21227891.420   111553368.939 9  21227892.580    86924731.63949
  24161658.400   126970376.535 7  24161661.740    98937975.33645
  23102929.740   121406738.557 8  23102929.320    94602672.28646
  21838012.660   114759575.341 9  21838013.460    89423074.85748
  21152714.640   111158330.674 9  21152713.100    86616907.73248
  20599021.700   108248672.345 9  20599017.700    84349651.94649
  22638320.500   118965256.228 8  22638322.200    92700240.12947
  23914268.920   125670330.323 7  23914270.060    97924940.95245
 16  1 15  0  3 33.0000000  0  9G02G03G06G07G09G16G23G26G32
  25858113.760   135885299.478 5  25858110.720   105884651.39544
  21228356.700   111555814.023 9  21228357.860    86926636.89949
  24161785.660   126971045.275 7  24161789.000    98938496.42445
  23102442.700   121404179.061 8  23102442.280    94600677.87346
  21837597.900   114757395.797 9  21837598.720    89421376.51148
  21152708.120   111158296.361 9  21152706.560    86616880.99348
  20598886.980   108247964.405 9  20598883.000    84349100.30049
  22638686.700   118967180.611 8  22638688.400    92701739.64947
  23914925.740   125673781.980 7  23914926.920    97927630.54545
 16  1 15  0  3 34.0000000  0  9G02G03G06G07G09G16G23G26G32
  25857879.340   135884067.803 5  25857876.600   105883691.66245
  21228822.060   111558259.478 9  21228823.220    86928542.44849
  24161913.020   126971714.441 7  24161916.320    98939017.84745
  23101955.660   121401619.687 8  23101955.240    94598683.56147
  21837183.160   114755216.305 9  21837183.980    89419678.20648
  21152701.700   111158262.668 9  21152700.140    86616854.74148
  20598752.300   108247256.638 9  20598748.300    84348548.79649
  22639052.980   118969105.434 8  22639054.700    92703239.51547
  23915582.560   125677233.661 7  23915583.760    97930320.16845
 16  1 15  0  3 35.0000000  0  9G02G03G06G07G09G16G23G26G32
  25857645.040   135882836.616 5  25857643.960   105882732.32942
  21229287.500   111560705.444 9  21229288.680    86930448.39649
  24162040.440   126972384.143 7  24162043.800    98939539.68545
  23101468.700   121399060.567 8  23101468.260    94596689.43847
  21836768.440   114753036.971 9  21836769.260    89417980.02548
  21152695.440   111158229.732 9  21152693.880    86616829.07748
  20598617.680   108246549.176 9  20598613.680    84347997.52749
  22639419.360   118971030.826 8  22639421.080    92704739.81847
  23916239.440   125680685.492 7  23916240.640    97933009.90845
 16  1 15  0  3 36.0000000  0  9G02G03G06G07G09G16G23G26G32
  25857410.940   135881605.916 4  25857409.720   105881773.34245
  21229753.040   111563151.895 9  21229754.220    86932354.72149
  24162167.980   126973054.409 7  24162171.400    98940061.97245
  23100981.760   121396501.680 8  23100981.320    94594695.49847
  21836353.760   114750857.813 9  21836354.580    89416281.97848
  21152689.300   111158197.537 9  21152687.760    86616803.99048
  20598483.100   108245841.993 9  20598479.120    84347446.47749
  22639785.860   118972956.778 8  22639787.580    92706240.56047
  23916896.320   125684137.469 7  23916897.560    97935699.76946
 16  1 15  0  3 37.0000000  0  9G02G03G06G07G09G16G23G26G32
  25857176.860   135880375.654 4  25857175.480   105880814.73943
  21230218.680   111565598.857 9  21230219.860    86934261.44549
  24162295.640   126973725.241 7  24162299.040    98940584.70245
  23100494.860   121393943.034 8  23100494.420    94592701.75346
  21835939.120   114748678.799 9  21835939.920    89414584.04748
  21152683.320   111158166.096 9  21152681.780    86616779.48848
  20598348.580   108245135.109 9  20598344.580    84346895.65749
  22640152.460   118974883.293 8  22640154.180    92707741.73847
  23917553.240   125687589.641 7  23917554.480    97938389.77546
 16  1 15  0  3 38.0000000  0  9G02G03G06G07G09G16G23G26G32
  25856942.920   135879145.939 4  25856941.400   105879856.54245
  21230684.420   111568046.290 9  21230685.580    86936168.53649
  24162423.380   126974396.572 7  24162426.800    98941107.80945
  23100008.020   121391384.652 8  23100007.560    94590708.20646
  21835524.500   114746499.943 9  21835525.300    89412886.23648
  21152677.480   111158135.391 9  21152675.940    86616755.56248
  20598214.120   108244428.509 9  20598210.140    84346345.06149
  22640519.160   118976810.351 8  22640520.900    92709243.34247
  23918210.160   125691041.939 7  23918211.440    97941079.87645
 16  1 15  0  3 39.0000000  0  9G02G03G06G07G09G16G23G26G32
  25856709.080   135877916.440 4  25856705.520   105878898.42943
  21231150.180   111570493.965 9  21231151.360    86938075.81549
  24162551.200   126975068.205 7  24162554.620    98941631.16146
  23099521.160   121388826.246 8  23099520.700    94588714.64946
  21835109.860   114744320.977 9  21835110.660    89411188.34048
  21152671.720   111158105.156 9  21152670.180    86616732.00548
  20598079.680   108243721.941 9  20598075.680    84345794.48649
  22640885.900   118978737.711 8  22640887.660    92710745.18347
  23918867.080   125694494.085 7  23918868.360    97943769.84946
 16  1 15  0  3 40.0000000  0  9G02G03G06G07G09G16G23G26G32
  25856475.260   135876687.269 4  25856471.500   105877940.62944
  21231616.020   111572942.036 9  21231617.220    86939983.40349
  24162679.100   126975740.311 7  24162682.520    98942154.88646
  23099034.340   121386267.976 8  23099033.900    94586721.19447
  21834695.220   114742142.084 9  21834696.040    89409490.50148
  21152666.100   111158075.584 9  21152664.560    86616708.95948
  20597945.260   108243015.570 9  20597941.260    84345244.06549
  22641252.760   118980665.521 8  22641254.540    92712247.36947
  23919524.000   125697946.318 7  23919525.360    97946459.89445
 16  1 15  0  3 41.0000000  0  9G02G03G06G07G09G16G23G26G32
  25856241.420   135875458.720 4  25856238.140   105876983.32543
  21232081.980   111575390.673 9  21232083.180    86941891.43149
  24162807.120   126976412.995 7  24162810.540    98942679.05645
  23098547.580   121383710.025 8  23098547.140    94584727.98146
  21834280.640   114739963.412 9  21834281.460    89407792.83748
  21152660.620   111158046.815 9  21152659.080    86616686.54848
  20597810.900   108242309.556 9  20597806.920    84344693.92649
  22641619.720   118982593.972 8  22641621.520    92713750.05647
  23920180.980   125701398.768 7  23920182.320    97949150.11845
 16  1 15  0  3 42.0000000  0  9G02G03G06G07G09G16G23G26G32
  25856007.760   135874230.589 4  25856005.160   105876026.36645
  21232548.020   111577839.782 9  21232549.220    86943799.82449
  24162935.240   126977086.220 7  24162938.640    98943203.64745
  23098060.880   121381152.294 8  23098060.420    94582734.95046
  21833866.080   114737784.882 9  21833866.880    89406095.28148
  21152655.280   111158018.771 9  21152653.740    86616664.69648
  20597676.600   108241603.820 9  20597672.620    84344144.00349
  22641986.780   118984522.943 8  22641988.600    92715253.14647
  23920837.980   125704851.369 7  23920839.340    97951840.44945
 16  1 15  0  3 43.0000000  0  9G02G03G06G07G09G16G23G26G32
  25855774.100   135873002.976 4  25855771.900   105875069.79543
  21233014.180   111580289.396 9  21233015.380    86945708.61449
  24163063.440   126977759.984 7  24163066.880    98943728.65845
  23097574.220   121378594.842 8  23097573.760    94580742.12646
  21833451.540   114735606.531 9  21833452.380    89404397.86648
  21152650.080   111157991.490 9  21152648.560    86616643.44048
  20597542.360   108240898.397 9  20597538.380    84343594.32749
  22642353.960   118986452.516 8  22642355.800    92716756.70947
  23921495.020   125708304.100 7  23921496.360    97954530.88645
 16  1 15  0  3 44.0000000  0  9G02G03G06G07G09G16G23G26G32
  25855540.700   135871776.015 4  25855538.680   105874113.73844
  21233480.440   111582739.682 9  21233481.640    86947617.92649
  24163191.800   126978434.504 7  24163195.240    98944254.25845
  23097087.620   121376037.791 8  23097087.160    94578749.62246
  21833037.100   114733428.516 9  21833037.900    89402700.71248
  21152645.060   111157965.125 9  21152643.540    86616622.89448
  20597408.220   108240193.445 9  20597404.240    84343045.01149
  22642721.280   118988382.801 8  22642723.140    92718260.82947
  23922152.100   125711757.176 7  23922153.480    97957221.59645
 16  1 15  0  3 45.0000000  0  9G02G03G06G07G09G16G23G26G32
  25855306.800   135870547.077 4  25855304.900   105873156.14044
  21233946.340   111585188.008 9  21233947.540    86949525.71349
  24163319.780   126979107.096 7  24163323.260    98944778.36045
  23096600.620   121373478.536 8  23096600.140    94576755.39746
  21832622.180   114731248.188 9  21832623.000    89401001.75548
  21152639.720   111157937.037 9  21152638.180    86616601.00948
  20597273.660   108239486.317 9  20597269.660    84342494.00049
  22643088.220   118990311.202 8  22643090.120    92719763.48247
  23922808.760   125715207.964 7  23922810.180    97959910.51945
 16  1 15  0  3 46.0000000  0  9G02G03G06G07G09G16G23G26G32
  25855071.540   135869310.618 4  25855069.580   105872192.64743
  21234410.800   111587628.844 9  21234412.040    86951427.66249
  24163446.360   126979772.273 7  24163449.840    98945296.68045
  23096112.140   121370911.541 8  23096111.680    94574755.14546
  21832205.800   114729060.065 9  21832206.620    89399296.72248
  21152633.000   111157901.729 9  21152631.460    86616573.49848
  20597137.620   108238771.511 9  20597133.660    84341937.01149
  22643453.780   118992232.177 8  22643455.660    92721260.34647
  23923463.900   125718650.903 7  23923465.360    97962593.32745
 16  1 15  0  3 47.0000000  0  9G02G03G06G07G09G16G23G26G32
  25854835.860   135868071.927 4  25854834.120   105871227.39444
  21234874.820   111590067.374 9  21234876.060    86953327.81449
  24163572.500   126980435.149 7  24163576.020    98945813.20245
  23095623.180   121368341.997 8  23095622.700    94572752.91147
  21831788.920   114726869.283 9  21831789.720    89397589.61948
  21152625.880   111157864.350 9  21152624.360    86616544.36748
  20597001.140   108238054.188 9  20596997.140    84341378.05849
  22643818.880   118994150.883 8  22643820.800    92722755.44347
  23924118.560   125722091.206 7  23924120.040    97965274.07345
 16  1 15  0  3 48.0000000  0  9G02G03G06G07G09G16G23G26G32
  25854600.380   135866834.011 4  25854598.040   105870262.72544
  21235339.020   111592506.746 9  21235340.260    86955228.62349
  24163698.820   126981098.936 7  24163702.340    98946330.43345
  23095134.320   121365773.023 8  23095133.840    94570751.11346
  21831372.120   114724679.013 9  21831372.940    89395882.91348
  21152618.960   111157828.058 9  21152617.440    86616516.09048
  20596864.760   108237337.506 9  20596860.760    84340819.60449
  22644184.180   118996070.516 8  22644186.100    92724251.25547
  23924773.320   125725531.964 7  23924774.800    97967955.17945
 16  1 15  0  3 49.0000000  0  9G02G03G06G07G09G16G23G26G32
  25854365.240   135865598.555 4  25854363.160   105869300.06542
  21235803.680   111594948.614 9  21235804.920    86957131.37848
  24163825.620   126981765.277 7  24163829.160    98946849.66845
  23094645.880   121363206.321 8  23094645.400    94568751.09046
  21830955.740   114722490.906 9  21830956.540    89394177.89648
  21152612.580   111157794.526 9  21152611.060    86616489.96548
  20596728.820   108236623.129 9  20596724.820    84340262.95149
  22644549.960   118997992.703 8  22644551.880    92725749.06247
  23925428.480   125728974.893 8  23925429.980    97970637.98045
 16  1 15  0  3 50.0000000  0  9G02G03G06G07G09G16G23G26G32
  25854130.740   135864366.234 5  25854129.260   105868339.8964
  21236268.940   111597393.637 9  21236270.200    86959036.59149
  24163953.020   126982434.850 7  24163956.600    98947371.41345
  23094158.000   121360642.497 8  23094157.520    94566753.30346
  21830539.900   114720305.628 9  21830540.700    89392475.08148
  21152606.860   111157764.394 9  21152605.320    86616466.48348
  20596593.420   108235911.710 9  20596589.440    84339708.59449
  22644916.340   118999918.119 8  22644918.300    92727249.38547
  23926084.180   125732420.677 7  23926085.700    97973323.00145
 16  1 15  0  3 51.0000000  0  9G02G03G06G07G09G16G23G26G32
  25853896.800   135863137.044 4  25853895.160   105867382.03743
  21236734.800   111599841.740 9  21236736.060    86960944.20349
  24164081.040   126983107.526 7  24164084.600    98947895.57045
  23093670.660   121358081.522 8  23093670.200    94564757.73546
  21830124.580   114718123.094 9  21830125.380    89390774.40448
  21152601.740   111157737.598 9  21152600.220    86616445.60648
  20596458.600   108235203.163 9  20596454.620    84339156.48249
  22645283.320   119001846.667 8  22645285.300    92728752.15147
  23926740.400   125735869.150 7  23926741.940    97976010.12045
 16  1 15  0  3 52.0000000  0  9G02G03G06G07G09G16G23G26G32
  25853663.340   135861910.432 4  25853661.520   105866426.22944
  21237201.140   111602292.442 9  21237202.420    86962853.83949
  24164209.560   126983782.835 7  24164213.100    98948421.78645
  23093183.780   121355522.900 8  23093183.280    94562764.00647
  21829709.680   114715942.800 9  21829710.480    89389075.48148
  21152597.180   111157713.625 9  21152595.660    86616426.92548
  20596324.220   108234497.010 9  20596320.240    84338606.23349
  22645650.820   119003777.866 8  22645652.800    92730256.98247
  23927397.040   125739319.879 7  23927398.580    97978699.00145
 16  1 15  0  3 53.0000000  0  9G02G03G06G07G09G16G23G26G32
  25853430.240   135860685.775 4  25853427.900   105865471.92944
  21237667.860   111604745.159 9  21237669.140    86964765.04749
  24164338.440   126984460.233 7  24164342.020    98948949.62945
  23092697.240   121352966.057 8  23092696.720    94560771.66346
  21829295.100   114713764.231 9  21829295.920    89387377.89248
  21152593.060   111157691.934 9  21152591.520    86616410.02448
  20596190.200   108233792.691 9  20596186.220    84338057.41449
  22646018.720   119005711.173 8  22646020.680    92731763.45347
  23928054.020   125742772.306 7  23928055.540    97981389.20845
 16  1 15  0  3 54.0000000  0  9G02G03G06G07G09G16G23G26G32
  25853197.440   135859462.602 4  25853194.840   105864518.74843
  21238134.880   111607199.384 9  21238136.180    86966677.42849
  24164467.640   126985139.196 7  24164471.200    98949478.68745
  23092210.940   121350410.449 8  23092210.400    94558780.28146
  21828880.740   114711586.807 9  21828881.560    89385681.20048
  21152589.260   111157672.005 9  21152587.720    86616394.49448
  20596056.420   108233089.659 9  20596052.440    84337509.59749
  22646386.900   119007646.027 8  22646388.900    92733271.13147
  23928711.220   125746225.884 8  23928712.740    97984080.30345
 16  1 15  0  3 55.0000000  0  9G02G03G06G07G09G16G23G26G32
  25852964.980   135858240.796 4  25852961.120   105863566.6954
  21238602.160   111609654.999 9  21238603.460    86968590.89649
  24164597.120   126985819.584 7  24164600.660    98950008.85645
  23091724.840   121347855.990 8  23091724.300    94556789.79346
  21828466.600   114709410.439 9  21828467.420    89383985.32748
  21152585.780   111157653.715 9  21152584.240    86616380.24448
  20595922.860   108232387.828 9  20595918.900    84336962.71649
  22646755.360   119009582.357 8  22646757.380    92734779.95647
  23929368.600   125749680.515 7  23929370.160    97986772.22246
 16  1 15  0  3 56.0000000  0  9G02G03G06G07G09G16G23G26G32
  25852732.640   135857020.096 4  25852729.200   105862615.56643
  21239069.640   111612111.670 9  21239070.940    86970505.18649
  24164726.800   126986501.102 7  24164730.360    98950539.91945
  23091238.900   121345302.353 8  23091238.360    94554799.94846
  21828052.580   114707234.799 9  21828053.400    89382290.02148
  21152582.540   111157636.736 9  21152581.020    86616367.01448
  20595789.460   108231686.853 9  20595785.500    84336416.50249
  22647124.040   119011519.800 8  22647126.080    92736289.64947
  23930026.140   125753135.840 7  23930027.680    97989464.67945
 16  1 15  0  3 57.0000000  0  9G02G03G06G07G09G16G23G26G32
  25852500.560   135855800.284 4  25852497.420   105861665.08544
  21239537.300   111614569.253 9  21239538.620    86972420.18149
  24164856.680   126987183.576 7  24164860.240    98951071.72746
  23090753.080   121342749.354 8  23090752.520    94552810.60246
  21827638.700   114705059.737 9  21827639.500    89380595.17048
  21152579.540   111157620.923 9  21152578.000    86616354.69248
  20595656.220   108230986.588 9  20595652.240    84335870.83749
  22647492.900   119013458.196 8  22647494.940    92737800.09047
  23930683.780   125756591.757 7  23930685.320    97992157.59445
 16  1 15  0  3 58.0000000  0  9G02G03G06G07G09G16G23G26G32
  25852268.400   135854581.118 4  25852264.800   105860715.08243
  21240005.080   111617027.506 9  21240006.400    86974335.70349
  24164986.700   126987866.762 7  24164990.260    98951604.07846
  23090267.360   121340196.794 8  23090266.800    94550821.59846
  21827224.860   114702885.012 9  21827225.680    89378900.57948
  21152576.700   111157606.033 9  21152575.160    86616343.09448
  20595523.060   108230286.794 9  20595519.080    84335325.54149
  22647861.920   119015397.348 8  22647863.960    92739311.11847
  23931341.480   125760048.025 7  23931343.040    97994850.79445
 16  1 15  0  3 59.0000000  0  9G02G03G06G07G09G16G23G26G32
  25852036.500   135853362.502 4  25852033.440   105859765.49544
  21240472.960   111619486.340 9  21240474.300    86976251.67549
  24165116.820   126988550.584 7  24165120.400    98952136.92245
  23089781.680   121337644.570 8  23089781.120    94548832.85147
  21826811.080   114700710.531 9  21826811.880    89377206.17848
  21152574.020   111157591.968 9  21152572.480    86616332.13248
  20595389.960   108229587.380 9  20595385.980    84334780.54549
  22648231.040   119017337.132 8  22648233.120    92740822.63647
  23931999.240   125763504.509 7  23932000.780    97997544.15445
 16  1 15  0  4  0.0000000  0  9G02G03G06G07G09G16G23G26G32
  25851804.660   135852144.416 4  25851801.280   105858816.3554
  21240940.960   111621945.660 9  21240942.300    86978168.02849
  24165247.060   126989234.940 7  24165250.620    98952670.18445
  23089296.060   121335092.557 8  23089295.480    94546844.27146
  21826397.320   114698536.221 9  21826398.120    89375511.91048
  21152571.480   111157578.641 9  21152569.940    86616321.75248
  20595256.920   108228888.253 9  20595252.940    84334235.77249
  22648600.260   119019277.464 8  22648602.360    92742334.58347
  23932657.040   125766961.150 8  23932658.580    98000237.63745
 16  1 15  0  4  1.0000000  0  9G02G03G06G07G09G16G23G26G32
  25851573.040   135850926.696 4  25851569.680   105857867.5604
  21241409.020   111624405.400 9  21241410.360    86980084.70949
  24165377.360   126989919.765 7  24165380.960    98953203.81846
  23088810.460   121332540.725 8  23088809.900    94544855.83846
  21825983.560   114696361.965 9  21825984.380    89373817.68748
  21152569.060   111157565.987 9  21152567.540    86616311.88948
  20595123.940   108228189.349 9  20595119.960    84333691.17249
  22648969.600   119021218.293 8  22648971.680    92743846.91547
  23933314.820   125770417.813 8  23933316.360    98002931.13445
 16  1 15  0  4  2.0000000  0  9G02G03G06G07G09G16G23G26G32
  25851341.440   135849709.632 4  25851337.700   105856919.24644
  21241877.200   111626865.781 9  21241878.560    86982001.88549
  24165507.820   126990605.274 7  24165511.380    98953737.97745
  23088324.940   121329989.287 8  23088324.360    94542867.70146
  21825569.880   114694188.033 9  21825570.700    89372123.71248
  21152566.820   111157554.216 9  21152565.300    86616302.71948
  20594991.020   108227490.876 9  20594987.040    84333146.91149
  22649339.060   119023159.811 8  22649341.160    92745359.78447
  23933972.640   125773874.817 8  23933974.200    98005624.90445
 16  1 15  0  4  3.0000000  0  9G02G03G06G07G09G16G23G26G32
  25851110.000   135848493.047 4  25851106.160   105855971.17545
  21242345.480   111629326.662 9  21242346.840    86983919.45549
  24165638.380   126991291.351 7  24165641.960    98954272.59246
  23087839.460   121327438.114 8  23087838.900    94540879.77647
  21825156.220   114692014.270 9  21825157.040    89370429.87248
  21152564.740   111157543.206 9  21152563.200    86616294.14248
  20594858.160   108226792.718 9  20594854.180    84332602.89249
  22649708.620   119025101.907 8  22649710.720    92746873.10747
  23934630.540   125777332.002 8  23934632.100    98008318.81845
 16  1 15  0  4  4.0000000  0  9G02G03G06G07G09G16G23G26G32
  25850878.580   135847276.714 4  25850874.480   105855023.29144
  21242813.820   111631787.808 9  21242815.180    86985837.23149
  24165768.980   126991977.732 7  24165772.600    98954807.44145
  23087353.980   121324886.937 8  23087353.440    94538891.84746
  21824742.540   114689840.435 9  21824743.360    89368735.97748
  21152562.740   111157532.699 9  21152561.200    86616285.95548
  20594725.320   108226094.613 9  20594721.340    84332058.91449
  22650078.240   119027044.310 8  22650080.360    92748386.67247
  23935288.400   125780789.085 8  23935289.940    98011012.64545
 16  1 15  0  4  5.0000000  0  9G02G03G06G07G09G16G23G26G32
  25850647.240   135846060.522 4  25850644.020   105854075.65945
  21243282.180   111634249.114 9  21243283.560    86987755.13249
  24165899.640   126992664.336 7  24165903.240    98955342.45346
  23086868.500   121322335.706 8  23086867.940    94536903.87446
  21824328.860   114687666.442 9  21824329.680    89367041.95548
  21152560.820   111157522.607 9  21152559.280    86616278.09248
  20594592.460   108225396.476 9  20594588.500    84331514.91249
  22650447.920   119028986.957 8  22650450.040    92749900.41947
  23935946.220   125784245.974 8  23935947.780    98013706.32645
 16  1 15  0  4  6.0000000  0  9G02G03G06G07G09G16G23G26G32
  25850415.900   135844844.749 4  25850412.180   105853128.2154
  21243750.640   111636710.814 9  21243752.000    86989673.34049
  24166030.380   126993351.385 7  24166033.980    98955877.81245
  23086383.040   121319784.586 8  23086382.460    94534915.99046
  21823915.160   114685492.495 9  21823916.000    89365347.97248
  21152559.020   111157513.163 9  21152557.480    86616270.73448
  20594459.640   108224698.534 9  20594455.680    84330971.06149
  22650817.680   119030930.059 8  22650819.820    92751414.52747
  23936604.040   125787702.888 7  23936605.600    98016400.02645
 16  1 15  0  4  7.0000000  0  9G02G03G06G07G09G16G23G26G32
  25850184.560   135843629.267 4  25850181.260   105852181.04342
  21244219.140   111639172.848 9  21244220.520    86991591.80649
  24166161.200   126994038.801 7  24166164.800    98956413.45344
  23085897.600   121317233.561 8  23085897.020    94532928.18246
  21823501.480   114683318.573 9  21823502.320    89363654.00348
  21152557.340   111157504.319 9  21152555.780    86616263.84248
  20594326.860   108224000.726 9  20594322.880    84330427.31649
  22651187.520   119032873.563 8  22651189.660    92752928.94547
  23937261.880   125791159.837 8  23937263.440    98019093.74845
 16  1 15  0  4  8.0000000  0  9G02G03G06G07G09G16G23G26G32
  25849953.460   135842414.303 4
  21244687.740   111641635.418 9  21244689.120    86993510.68948
  24166292.100   126994726.819 7  24166295.700    98956949.56745
  23085412.200   121314682.827 8  23085411.620    94530940.59946
  21823087.840   114681144.841 9  21823088.660    89361960.19048
  21152555.800   111157496.258 9  21152554.240    86616257.56548
  20594194.120   108223303.251 9  20594190.160    84329883.83149
  22651557.460   119034817.663 8  22651559.620    92754443.82947
  23937919.740   125794616.973 7  23937921.340    98021787.62245
 16  1 15  0  4  9.0000000  0  9G02G03G06G07G09G16G23G26G32
  25849722.920   135841202.789 4  25849716.780   105850268.3965
  21245157.000   111644101.386 9  21245158.380    86995432.22049
  24166423.700   126995418.267 7  24166427.260    98957488.35446
  23084927.400   121312135.233 8  23084926.840    94528955.46346
  21822674.780   114678974.167 9  21822675.600    89360268.75648
  21152554.960   111157491.825 9  21152553.400    86616254.11548
  20594062.020   108222608.974 9  20594058.040    84329342.83449
  22651928.060   119036765.206 8  22651930.220    92755961.39247
  23938578.180   125798077.169 8  23938579.800    98024483.87745
 16  1 15  0  4 10.0000000  0  9G02G03G06G07G09G16G23G26G32
  25849493.940   135839999.249 4  25849487.740   105849330.55643
  21245627.780   111646575.459 9  21245629.180    86997360.07249
  24166556.820   126996117.911 7  24166560.360    98958033.53845
  23084444.120   121309595.527 8  23084443.520    94526976.47646
  21822263.180   114676811.271 9  21822264.020    89358583.38648
  21152555.720   111157495.772 9  21152554.140    86616257.18848
  20593931.400   108221922.611 9  20593927.440    84328808.00649
  22652300.220   119038720.941 8  22652302.380    92757485.33847
  23939238.100   125801545.098 8  23939239.740    98027186.15245
 16  1 15  0  4 11.0000000  0  9G02G03G06G07G09G16G23G26G32
  25849265.540   135838799.028 4  25849259.380   105848395.32942
  21246099.200   111649052.759 9  21246100.580    86999290.43148
  24166690.580   126996820.799 7  24166694.120    98958581.24745
  23083961.400   121307058.772 8  23083960.780    94524999.78346
  21821852.160   114674651.267 9  21821852.980    89356900.26448
  21152557.120   111157503.189 9  21152555.560    86616262.97048
  20593801.380   108221239.278 9  20593797.420    84328275.53949
  22652673.000   119040679.955 8  22652675.180    92759011.84447
  23939898.600   125805015.923 8  23939900.220    98029890.69045
 16  1 15  0  4 12.0000000  0  9G02G03G06G07G09G16G23G26G32
  25849037.120   135837598.746 4  25849031.500   105847460.01045
  21246570.600   111651530.012 9  21246572.000    87001220.75849
  24166824.340   126997523.699 7  24166827.880    98959128.95546
  23083478.600   121304521.724 8  23083478.020    94523022.86547
  21821441.040   114672490.885 9  21821441.880    89355216.85048
  21152558.580   111157510.817 9  21152557.020    86616268.91648
  20593671.300   108220555.700 9  20593667.340    84327742.88149
  22653045.800   119042638.995 8  22653048.000    92760538.36547
  23940559.020   125808486.380 8  23940560.640    98032594.94145
 16  1 15  0  4 13.0000000  0  9G02G03G06G07G09G16G23G26G32
  25848808.380   135836396.946 4  25848803.100   105846523.60643
  21247041.720   111654005.780 9  21247043.100    87003149.92649
  24166957.820   126998225.183 7  24166961.360    98959675.56245
  23082995.480   121301982.954 8  23082994.900    94521044.60046
  21821029.600   114670328.701 9  21821030.420    89353532.02948
  21152559.800   111157517.212 9  21152558.220    86616273.89548
  20593540.900   108219870.446 9  20593536.940    84327208.91949
  22653418.320   119044596.614 8  22653420.520    92762063.78247
  23941219.060   125811954.959 8  23941220.680    98035297.72345
 16  1 15  0  4 14.0000000  0  9G02G03G06G07G09G16G23G26G32
  25848579.280   135835193.049 4  25848573.800   105845585.44544
  21247512.440   111656479.433 9  21247513.840    87005077.44849
  24167090.920   126998924.571 7  24167094.440    98960220.54646
  23082511.920   121299441.831 8  23082511.320    94519064.50946
  21820617.680   114668164.060 9  21820618.520    89351845.29648
  21152560.660   111157521.737 9  21152559.080    86616277.42348
  20593410.060   108219182.867 9  20593406.080    84326673.14249
  22653790.440   119046552.157 8  22653792.660    92763587.58847
  23941878.640   125815421.093 7  23941880.280    98037998.61145
 16  1 15  0  4 15.0000000  0  9G02G03G06G07G09G16G23G26G32
  25848349.740   135833987.015 4  25848344.340   105844645.68144
  21247982.740   111658950.929 9  21247984.140    87007003.28849
  24167223.600   126999621.909 7  24167227.140    98960763.92045
  23082027.900   121296898.287 8  23082027.300    94517082.52646
  21820205.280   114665996.925 9  21820206.120    89350156.61948
  21152561.160   111157524.362 9  21152559.580    86616279.46848
  20593278.760   108218492.936 9  20593274.800    84326135.53449
  22654162.180   119048505.630 8  22654164.400    92765109.77147
  23942537.740   125818884.748 7  23942539.400    98040697.56245
 16  1 15  0  4 16.0000000  0  9G02G03G06G07G09G16G23G26G32
  25848119.860   135832779.004 4  25848114.560   105843704.38744
  21248452.680   111661420.501 9  21248454.080    87008927.63149
  24167355.920   127000317.350 7  24167359.520    98961305.81646
  23081543.480   121294352.577 8  23081542.880    94515098.86247
  21819792.460   114663827.557 9  21819793.300    89348466.20148
  21152561.320   111157525.318 9  21152559.760    86616280.21648
  20593147.080   108217800.887 9  20593143.120    84325596.27749
  22654533.560   119050457.242 8  22654535.780    92766630.50847
  23943196.440   125822346.126 7  23943198.080    98043394.74145
 16  1 15  0  4 17.0000000  0  9G02G03G06G07G09G16G23G26G32
  25847889.720   135831569.649 4  25847884.100   105842762.04744
  21248922.360   111663888.710 9  21248923.760    87010850.91049
  24167488.020   127001011.450 7  24167491.580    98961846.68245
  23081058.740   121291805.248 8  23081058.100    94513113.93547
  21819379.320   114661656.484 9  21819380.160    89346774.45548
  21152561.300   111157525.153 9  21152559.720    86616280.08948
  20593015.080   108217107.265 9  20593011.120    84325055.78849
  22654904.700   119052407.546 8  22654906.920    92768150.22347
  23943854.780   125825805.805 7  23943856.440    98046090.59245
 16  1 15  0  4 18.0000000  0  9G02G03G06G07G09G16G23G26G32
  25847659.420   135830359.162 4  25847653.800   105841818.77844
  21249391.840   111666355.912 9  21249393.260    87012773.40349
  24167619.940   127001704.632 7  24167623.500    98962386.82345
  23080573.740   121289256.658 8  23080573.120    94511128.02347
  21818965.920   114659484.071 9  21818966.760    89345081.66448
  21152561.120   111157524.220 9  21152559.540    86616279.36448
  20592882.860   108216412.449 9  20592878.900    84324514.37549
  22655275.640   119054356.918 8  22655277.880    92769669.21447
  23944512.880   125829264.107 7  23944514.560    98048785.37745
 16  1 15  0  4 19.0000000  0  9G02G03G06G07G09G16G23G26G32
  25847428.960   135829148.310 4  25847423.660   105840875.27544
  21249861.260   111668822.704 9  21249862.680    87014695.57949
  24167751.760   127002397.416 7  24167755.360    98962926.65745
  23080088.640   121286707.422 8  23080088.020    94509141.60946
  21818552.380   114657310.898 9  21818553.220    89343388.28448
  21152560.920   111157523.137 9  21152559.320    86616278.52048
  20592750.520   108215717.008 9  20592746.560    84323972.47549
  22655646.520   119056305.910 8  22655648.760    92771187.90547
  23945170.840   125832721.687 7  23945172.520    98051479.58146
 16  1 15  0  4 20.0000000  0  9G02G03G06G07G09G16G23G26G32
  25847198.680   135827937.411 4  25847193.060   105839931.6824
  21250330.640   111671289.373 9  21250332.060    87016617.65748
  24167883.600   127003090.153 7  24167887.180    98963466.45245
  23079603.460   121284157.824 8  23079602.800    94507154.90347
  21818138.760   114655137.295 9  21818139.600    89341694.56748
  21152560.740   111157522.189 9  21152559.140    86616277.78348
  20592618.140   108215021.270 9  20592614.180    84323430.34049
  22656017.400   119058254.877 8  22656019.640    92772706.58147
  23945828.700   125836178.806 7  23945830.380    98054173.43845
 16  1 15  0  4 21.0000000  0  9G02G03G06G07G09G16G23G26G32
  25846968.300   135826726.685 4  25846962.620   105838988.30543
  21250800.080   111673756.310 9  21250801.500    87018539.94849
  24168015.460   127003783.190 7  24168019.040    98964006.48146
  23079118.280   121281608.243 8  23079117.640    94505168.21746
  21817725.120   114652963.620 9  21817725.960    89340000.79948
  21152560.660   111157521.755 9  21152559.060    86616277.44848
  20592485.740   108214325.590 9  20592481.800    84322888.25249
  22656388.340   119060204.154 8  22656390.600    92774225.49947
  23946486.560   125839635.824 7  23946488.240    98056867.21845
 16  1 15  0  4 22.0000000  0  8G03G06G07G09G16G23G26G32
  21251269.600   111676223.652 9  21251271.020    87020462.55149
  24168147.440   127004476.700 7  24168151.000    98964546.87645
  23078633.140   121279058.823 8  23078632.500    94503181.65847
  21817311.500   114650790.019 9  21817312.340    89338307.08448
  21152560.700   111157521.984 9  21152559.100    86616277.62648
  20592353.400   108213630.118 9  20592349.460    84322346.32749
  22656759.380   119062153.908 8  22656761.620    92775744.78947
  23947144.420   125843092.922 7  23947146.100    98059561.06545
 16  1 15  0  4 23.0000000  0  8G03G06G07G09G16G23G26G32
  21251739.180   111678691.285 9  21251740.600    87022385.38349
  24168279.480   127005170.564 7  24168283.020    98965087.55545
  23078148.000   121276509.448 8  23078147.380    94501195.13646
  21816897.860   114648616.382 9  21816898.680    89336613.34248
  21152560.840   111157522.754 9  21152559.240    86616278.22848
  20592221.080   108212934.745 9  20592217.120    84321804.48049
  22657130.460   119064104.013 8  22657132.720    92777264.34947
  23947802.280   125846549.961 7  23947803.960    98062254.86545
 16  1 15  0  4 24.0000000  0  8G03G06G07G09G16G23G26G32
  21252208.840   111681159.420 9  21252210.260    87024308.60349
  24168411.620   127005864.972 7  24168415.160    98965628.65745
  23077662.920   121273960.322 8  23077662.260    94499208.80447
  21816484.280   114646442.933 9  21816485.100    89334919.74448
  21152561.140   111157524.291 9  21152559.540    86616279.42348
  20592088.820   108212239.693 9  20592084.860    84321262.88349
  22657501.680   119066054.692 8  22657503.940    92778784.35547
  23948460.160   125850007.143 7  23948461.820    98064948.77645
 16  1 15  0  4 25.0000000  0  8G03G06G07G09G16G23G26G32
  21252678.660   111683628.344 9  21252680.100    87026232.43949
  24168543.920   127006560.216 7  24168547.460    98966170.39945
  23077177.940   121271411.735 8  23077177.280    94497222.89646
  21816070.760   114644269.926 9  21816071.580    89333226.49248
  21152561.620   111157526.845 9  21152560.020    86616281.41548
  20591956.660   108211545.222 9  20591952.720    84320721.73749
  22657873.040   119068006.218 8  22657875.320    92780305.02647
  23949118.120   125853464.788 7  23949119.780    98067643.04145
 16  1 15  0  4 26.0000000  0  8G03G06G07G09G16G23G26G32
  21253148.620   111686098.032 9  21253150.060    87028156.87149
  24168676.380   127007256.285 7  24168679.940    98966712.78645
  23076693.060   121268863.684 8  23076692.400    94495237.40247
  21815657.340   114642097.350 9  21815658.140    89331533.57548
  21152562.300   111157530.429 9  21152560.700    86616284.20848
  20591824.620   108210851.316 9  20591820.660    84320181.03349
  22658244.560   119069958.571 8  22658246.820    92781826.34047
  23949776.160   125856922.825 7  23949777.840    98070337.60245
 16  1 15  0  4 27.0000000  0  8G03G06G07G09G16G23G26G32
  21253618.700   111688568.340 9  21253620.140    87030081.78349
  24168808.940   127007953.005 7  24168812.520    98967255.67545
  23076208.240   121266316.009 8  23076207.580    94493252.20046
  21815243.960   114639925.071 9  21815244.760    89329840.89048
  21152563.160   111157534.896 9  21152561.540    86616287.69148
  20591692.660   108210157.838 9  20591688.700    84319640.65849
  22658616.220   119071911.618 8  22658618.480    92783348.19347
  23950434.260   125860381.177 7  23950435.920    98073032.41445
 16  1 15  0  4 28.0000000  0  8G03G06G07G09G16G23G26G32
  21254088.920   111691039.371 9  21254090.360    87032007.25949
  24168941.680   127008650.522 7  24168945.240    98967799.19345
  23075723.520   121263768.780 8  23075722.860    94491267.34947
  21814830.660   114637753.178 9  21814831.460    89328148.50648
  21152564.180   111157540.319 9  21152562.560    86616291.91948
  20591560.780   108209464.874 9  20591556.840    84319100.68349
  22658988.020   119073865.433 8  22658990.300    92784870.64647
  23951092.420   125863839.900 7  23951094.080    98075727.51845
 16  1 15  0  4 29.0000000  0  8G03G06G07G09G16G23G26G32
  21254559.260   111693511.066 9  21254560.700    87033933.25549
  24169074.540   127009348.756 7  24169078.140    98968343.27145
  23075238.880   121261221.995 8  23075238.200    94489282.84546
  21814417.420   114635581.626 9  21814418.220    89326456.38848
  21152565.400   111157546.670 9  21152563.760    86616296.86548
  20591429.020   108208772.395 9  20591425.060    84318561.08849
  22659359.960   119075820.004 8  22659362.240    92786393.68847
  23951750.660   125867298.943 7  23951752.300    98078422.87845
 16  1 15  0  4 30.0000000  0  8G03G06G07G09G16G23G26G32
  21255029.700   111695983.190 9  21255031.140    87035859.58849
  24169207.500   127010047.463 7  24169211.080    98968887.73045
  23074754.280   121258675.413 8  23074753.600    94487298.49847
  21814004.200   114633410.172 9  21814005.020    89324764.34648
  21152566.740   111157553.701 9  21152565.100    86616302.34648
  20591297.280   108208080.144 9  20591293.340    84318021.67449
  22659732.000   119077775.050 8  22659734.280    92787917.10347
  23952408.900   125870758.080 7  23952410.580    98081118.30445
 16  1 15  0  4 31.0000000  0  8G03G06G07G09G16G23G26G32
  21255500.260   111698456.015 9  21255501.700    87037786.46249
  24169340.620   127010746.911 7  24169344.160    98969432.75945
  23074269.760   121256129.246 8  23074269.100    94485314.47147
  21813591.080   114631239.088 9  21813591.880    89323072.59248
  21152568.260   111157561.675 9  21152566.620    86616308.56048
  20591165.640   108207388.392 9  20591161.700    84317482.65049
  22660104.180   119079730.864 8  22660106.460    92789441.11447
  23953067.220   125874217.575 7  23953068.900    98083814.02145
 16  1 15  0  4 32.0000000  0  8G03G06G07G09G16G23G26G32
  21255970.940   111700929.534 9  21255972.400    87039713.87848
  24169473.860   127011447.113 7  24169477.420    98969978.35645
  23073785.340   121253583.554 8  23073784.660    94483330.81146
  21813178.000   114629068.380 9  21813178.800    89321381.13648
  21152569.960   111157570.609 9  21152568.320    86616315.52348
  20591034.100   108206697.147 9  20591030.160    84316944.01849
  22660476.500   119081687.437 8  22660478.780    92790965.71447
  23953725.600   125877677.427 7  23953727.320    98086510.00745
 16  1 15  0  4 33.0000000  0  8G03G06G07G09G16G23G26G32
  21256441.740   111703403.557 9  21256443.180    87041641.68848
  24169607.220   127012147.877 7  24169610.740    98970524.40245
  23073300.960   121251038.110 8  23073300.260    94481347.35447
  21812764.940   114626897.832 9  21812765.760    89319689.79648
  21152571.800   111157580.294 9  21152570.160    86616323.07048
  20590902.620   108206006.202 9  20590898.680    84316405.61949
  22660848.940   119083644.570 8  22660851.220    92792490.75147
  23954384.020   125881137.422 7  23954385.740    98089206.10745
 16  1 15  0  4 34.0000000  0  8G03G06G07G09G16G23G26G32
  21256912.580   111705877.799 9  21256914.020    87043569.67149
  24169740.620   127012848.899 7  24169744.180    98971070.65745
  23072816.560   121248492.641 8  23072815.880    94479363.88147
  21812351.880   114624727.172 9  21812352.680    89317998.37248
  21152573.720   111157590.447 9  21152572.100    86616330.98548
  20590771.140   108205315.283 9  20590767.200    84315867.24349
  22661221.420   119085601.997 8  22661223.700    92794016.01747
  23955042.440   125884597.313 7  23955044.140    98091902.12645
 16  1 15  0  4 35.0000000  0  8G03G06G07G09G16G23G26G32
  21257383.460   111708352.327 9  21257384.920    87045497.87449
  24169874.080   127013550.286 7  24169877.660    98971617.19245
  23072332.180   121245947.223 8  23072331.500    94477380.43646
  21811938.820   114622556.490 9  21811939.620    89316306.93148
  21152575.760   111157601.148 9  21152574.140    86616339.32548
  20590639.680   108204624.461 9  20590635.740    84315328.93649
  22661593.980   119087559.761 8  22661596.260    92795541.54947
  23955700.800   125888057.113 7  23955702.540    98094598.06845
 16  1 15  0  4 36.0000000  0  8G03G06G07G09G16G23G26G32
  21257854.440   111710827.330 9  21257855.900    87047426.45049
  24170007.640   127014252.190 7  24170011.200    98972164.13345
  23071847.840   121243402.020 8  23071847.180    94475397.16347
  21811525.780   114620385.934 9  21811526.560    89314615.58948
  21152577.920   111157612.568 9  21152576.300    86616348.22348
  20590508.280   108203933.913 9  20590504.340    84314790.84949
  22661966.620   119089518.063 8  22661968.920    92797067.49947
  23956359.220   125891517.036 7  23956360.960    98097294.11045
 16  1 15  0  4 37.0000000  0  8G03G06G07G09G16G23G26G32
  21258325.520   111713302.927 9  21258327.000    87049355.48549
  24170141.320   127014954.720 7  24170144.860    98972711.56545
  23071363.560   121240857.169 8  23071362.920    94473414.16247
  21811112.780   114618215.660 9  21811113.580    89312924.46648
  21152580.260   111157624.854 9  21152578.640    86616357.79848
  20590376.940   108203243.764 9  20590373.020    84314253.07249
  22662339.400   119091477.035 8  22662341.700    92798593.97047
  23957017.680   125894977.241 7  23957019.420    98099990.37145
 16  1 15  0  4 38.0000000  0  8G03G06G07G09G16G23G26G32
  21258796.740   111715779.192 9  21258798.220    87051285.04049
  24170275.160   127015657.983 7  24170278.680    98973259.56045
  23070879.380   121238312.760 8  23070878.740    94471431.50847
  21810699.860   114616045.730 9  21810700.660    89311233.61048
  21152582.760   111157638.078 9  21152581.160    86616368.10148
  20590245.700   108202554.109 9  20590241.780    84313715.68149
  22662712.320   119093436.732 8  22662714.620    92800121.00547
  23957676.200   125898437.813 7  23957677.940    98102686.92145
 16  1 15  0  4 39.0000000  0  8G03G06G07G09G16G23G26G32
  21259268.060   111718255.980 9  21259269.540    87053215.00649
  24170409.080   127016361.829 7  24170412.600    98973808.00845
  23070395.220   121235768.611 8  23070394.600    94469449.05446
  21810286.960   114613875.983 9  21810287.760    89309542.89648
  21152585.440   111157652.059 9  21152583.800    86616378.99748
  20590114.540   108201864.761 9  20590110.580    84313178.52949
  22663085.340   119095397.000 8  22663087.660    92801648.48447
  23958334.740   125901898.503 7  23958336.520    98105383.55545
 16  1 15  0  4 40.0000000  0  9G02G03G06G07G09G16G23G26G32
  25842610.540   135803834.61014  25842606.540   105821152.93554
  21259739.500   111720733.393 9  21259740.980    87055145.45849
  24170543.140   127017066.335 7  24170546.680    98974356.97145
  23069911.160   121233224.853 8  23069910.540    94467466.90947
  21809874.140   114611706.529 9  21809874.920    89307852.41648
  21152588.260   111157666.931 9  21152586.640    86616390.59048
  20589983.440   108201175.839 9  20589979.500    84312641.70849
  22663458.500   119097357.966 8  22663460.840    92803176.51047
  23958993.360   125905359.483 7  23958995.140    98108080.42845
 16  1 15  0  4 41.0000000  0  9G02G03G06G07G09G16G23G26G32
  25842381.480   135802630.926 4  25842377.620   105820214.97443
  21260210.300   111723207.453 9  21260211.780    87057073.29549
  24170676.580   127017767.549 7  24170680.100    98974903.36345
  23069426.400   121230677.483 8  23069425.800    94465481.94947
  21809460.600   114609533.385 9  21809461.380    89306159.05748
  21152590.500   111157678.697 9  21152588.860    86616399.75848
  20589851.660   108200483.365 9  20589847.720    84312102.11449
  22663831.040   119099315.633 8  22663833.360    92804701.96647
  23959651.260   125908816.763 7  23959653.020    98110774.41645
 16  1 15  0  4 42.0000000  0  9G02G03G06G07G09G16G23G26G32
  25842150.600   135801417.709 4  25842146.920   105819269.58043
  21260679.280   111725671.980 9  21260680.760    87058993.70648
  24170808.220   127018459.295 7  24170811.700    98975442.38945
  23068939.800   121228120.348 8  23068939.180    94463489.37946
  21809045.200   114607350.406 9  21809045.980    89304458.03548
  21152590.980   111157681.198 9  21152589.340    86616401.70548
  20589718.040   108199781.184 9  20589714.100    84311554.95849
  22664201.760   119101263.856 8  22664204.080    92806220.06247
  23960307.260   125912264.221 7  23960309.040    98113460.75645
 16  1 15  0  4 43.0000000  0  9G02G03G06G07G09G16G23G26G32
  25841919.180   135800201.326 4  25841915.540   105818321.75742
  21261147.680   111728133.413 9  21261149.160    87060911.70149
  24170939.260   127019147.981 7  24170942.740    98975979.02045
  23068452.560   121225559.861 8  23068451.940    94461494.19647
  21808629.120   114605163.980 9  21808629.920    89302754.33148
  21152590.900   111157680.825 9  21152589.280    86616401.41948
  20589583.780   108199075.682 9  20589579.860    84311005.21949
  22664571.920   119103209.012 8  22664574.240    92807735.76547
  23960962.640   125915708.206 7  23960964.380    98116144.37245
 16  1 15  0  4 44.0000000  0  9G02G03G06G07G09G16G23G26G32
  25841687.900   135798985.999 5  25841684.180   105817374.80043
  21261616.280   111730595.833 9  21261617.760    87062830.47248
  24171070.500   127019837.715 7  24171073.960    98976516.47144
  23067965.440   121223000.112 8  23067964.840    94459499.59346
  21808213.180   114602978.230 9  21808213.980    89301051.14848
  21152591.080   111157681.724 9  21152589.440    86616402.12148
  20589449.700   108198371.003 9  20589445.760    84310456.12249
  22664942.280   119105155.249 8  22664944.600    92809252.31247
  23961618.120   125919152.842 7  23961619.840    98118828.50245
 16  1 15  0  4 45.0000000  0  9G02G03G06G07G09G16G23G26G32
  25841457.260   135797773.909 5  25841453.640   105816430.29642
  21262085.460   111733061.498 9  21262086.960    87064751.77449
  24171202.380   127020530.744 7  24171205.840    98977056.50245
  23067478.920   121220443.409 8  23067478.320    94457507.35446
  21807797.820   114600795.393 9  21807798.580    89299350.23748
  21152591.920   111157686.133 9  21152590.280    86616405.55448
  20589316.180   108197669.385 9  20589312.240    84309909.40949
  22665313.240   119107104.814 8  22665315.580    92810771.45247
  23962274.180   125922600.374 7  23962275.820    98121514.88745
 16  1 15  0  4 46.0000000  0  9G02G03G06G07G09G16G23G26G32
  25841227.340   135796565.695 5  25841223.800   105815488.81943
  21262555.420   111735531.063 9  21262556.900    87066676.10648
  24171335.000   127021227.724 7  24171338.480    98977599.61445
  23066993.080   121217890.334 8  23066992.480    94455517.94747
  21807383.120   114598616.138 9  21807383.880    89297652.11448
  21152593.540   111157694.685 9  21152591.900    86616412.21948
  20589183.360   108196971.466 9  20589179.420    84309365.57449
  22665685.000   119109058.329 8  22665687.340    92812293.67047
  23962930.900   125926051.479 7  23962932.580    98124204.06045
 16  1 15  0  4 47.0000000  0  9G02G03G06G07G09G16G23G26G32
  25840998.160   135795361.433 5  25840994.680   105814550.4304
  21263026.120   111738004.616 9  21263027.600    87068603.55248
  24171468.420   127021928.741 7  24171471.900    98978145.85544
  23066507.940   121215340.995 8  23066507.360    94453531.45247
  21806969.100   114596440.532 9  21806969.880    89295956.83948
  21152595.980   111157707.468 9  21152594.340    86616422.17948
  20589051.280   108196277.326 9  20589047.340    84308824.68549
  22666057.500   119111015.885 8  22666059.860    92813819.03647
  23963588.300   125929506.208 7  23963589.980    98126896.05045
 16  1 15  0  4 48.0000000  0  9G02G03G06G07G09G16G23G26G32
  25840769.680   135794160.626 5  25840766.120   105813614.74342
  21263497.480   111740481.577 9  21263498.960    87070533.64748
  24171602.480   127022633.233 7  24171605.940    98978694.80245
  23066023.420   121212794.823 8  23066022.840    94451547.42347
  21806555.680   114594268.006 9  21806556.460    89294263.95748
  21152599.100   111157723.914 9  21152597.460    86616434.99248
  20588919.800   108195586.415 9  20588915.860    84308286.31349
  22666430.680   119112976.922 8  22666433.020    92815347.11547
  23964246.320   125932964.029 7  23964247.960    98129590.45445
 16  1 15  0  4 49.0000000  0  9G02G03G06G07G09G16G23G26G32
  25840541.640   135792962.470 5  25840538.160   105812681.16643
  21263969.340   111742961.265 9  21263970.820    87072465.87448
  24171737.060   127023340.501 7  24171740.560    98979245.92545
  23065539.360   121210251.136 8  23065538.800    94449565.33247
  21806142.720   114592097.892 9  21806143.500    89292572.96148
  21152602.800   111157743.352 9  21152601.160    86616450.14348
  20588788.800   108194898.037 9  20588784.860    84307749.91749
  22666804.380   119114940.750 8  22666806.720    92816877.37447
  23964904.760   125936424.202 7  23964906.400    98132286.68245
 16  1 15  0  4 50.0000000  0  9G02G03G06G07G09G16G23G26G32
  25840314.040   135791766.600 5  25840311.080   105811749.26644
  21264441.640   111745443.176 9  21264443.120    87074399.82949
  24171872.080   127024050.030 7  24171875.560    98979798.81045
  23065055.700   121207709.428 8  23065055.120    94447584.78447
  21805730.140   114589929.662 9  21805730.900    89290883.42948
  21152606.960   111157765.247 9  21152605.320    86616467.20648
  20588658.200   108194211.677 9  20588654.260    84307215.08949
  22667178.520   119116906.848 8  22667180.860    92818409.39547
  23965563.560   125939886.248 7  23965565.180    98134984.37245
 16  1 15  0  4 51.0000000  0  9G02G03G06G07G09G16G23G26G32
  25840086.680   135790572.151 5  25840083.840   105810818.51644
  21264914.200   111747926.559 9  21264915.700    87076334.93249
  24172007.400   127024761.076 7  24172010.880    98980352.86945
  23064572.240   121205168.936 8  23064571.680    94445605.17846
  21805317.740   114587762.569 9  21805318.500    89289194.78548
  21152611.440   111157788.874 9  21152609.820    86616485.61748
  20588527.840   108193526.596 9  20588523.900    84306681.26249
  22667552.940   119118874.494 8  22667555.280    92819942.62747
  23966222.580   125943349.461 7  23966224.200    98137682.98245
 16  1 15  0  4 52.0000000  0  9G02G03G06G07G09G16G23G26G32
  25839859.620   135789378.788 4  25839856.840   105809888.59844
  21265387.000   111750411.027 9  21265388.480    87078270.88149
  24172142.920   127025473.288 7  24172146.380    98980907.84445
  23064088.960   121202629.290 8  23064088.400    94443626.23146
  21804905.520   114585596.252 9  21804906.260    89287506.74648
  21152616.200   111157813.854 9  21152614.580    86616505.08348
  20588397.640   108192842.414 9  20588393.700    84306148.13349
  22667927.580   119120843.287 8  22667929.940    92821476.75047
  23966881.740   125946813.389 7  23966883.400    98140382.13845
 16  1 15  0  4 53.0000000  0  9G02G03G06G07G09G16G23G26G32
  25839632.680   135788186.050 5  25839629.720   105808959.21943
  21265859.900   111752896.193 9  21265861.400    87080207.37549
  24172278.580   127026186.218 7  24172282.060    98981463.38245
  23063605.780   121200090.107 8  23063605.220    94441647.65147
  21804493.340   114583430.291 9  21804494.100    89285818.98548
  21152621.140   111157839.767 9  21152619.500    86616525.27548
  20588267.520   108192158.737 9  20588263.600    84305615.39749
  22668302.380   119122812.838 8  22668304.720    92823011.46147
  23967540.980   125950277.682 7  23967542.620    98143081.58945
 16  1 15  0  4 54.0000000  0  9G02G03G06G07G09G16G23G26G32
  25839405.760   135786993.816 5  25839402.560   105808030.21044
  21266332.900   111755381.783 9  21266334.400    87082144.19849
  24172414.340   127026899.639 7  24172417.860    98982019.28645
  23063122.620   121197551.108 8  23063122.080    94439669.21047
  21804081.180   114581264.442 9  21804081.940    89284131.30948
  21152626.200   111157866.367 9  21152624.560    86616546.00548
  20588137.480   108191475.283 9  20588133.540    84305082.83549
  22668677.260   119124782.885 8  22668679.600    92824546.56247
  23968200.220   125953742.040 7  23968201.860    98145781.08545
 16  1 15  0  4 55.0000000  0  9G02G03G06G07G09G16G23G26G32
  25839178.960   135785802.042 5  25839175.620   105807101.54944
  21266805.980   111757867.841 9  21266807.480    87084081.38549
  24172550.200   127027613.588 7  24172553.720    98982575.60845
  23062639.500   121195012.319 8  23062638.980    94437690.93746
  21803669.060   114579098.726 9  21803669.820    89282443.74348
  21152631.400   111157893.678 9  21152629.760    86616567.28848
  20588007.460   108190792.115 9  20588003.540    84304550.49949
  22669052.260   119126753.455 8  22669054.600    92826082.07147
  23968859.480   125957206.533 7  23968861.120    98148480.68545
 16  1 15  0  4 56.0000000  0  9G02G03G06G07G09G16G23G26G32
  25838952.240   135784610.720 5  25838949.060   105806173.22342
  21267279.140   111760354.337 9  21267280.640    87086018.91348
  24172686.160   127028328.039 7  24172689.680    98983132.31745
  23062156.420   121192473.743 8  23062155.900    94435712.83246
  21803256.960   114576933.142 9  21803257.740    89280756.27248
  21152636.720   111157921.703 9  21152635.080    86616589.12448
  20587877.500   108190109.194 9  20587873.580    84304018.35349
  22669427.340   119128724.548 8  22669429.680    92827617.98847
  23969518.760   125960671.143 7  23969520.420    98151180.39045
 16  1 15  0  4 57.0000000  0  9G02G03G06G07G09G16G23G26G32
  25838725.620   135783419.937 5  25838722.560   105805245.34945
  21267752.440   111762841.456 9  21267753.940    87087956.92849
  24172822.240   127029043.160 7  24172825.720    98983689.54845
  23061673.400   121189935.539 8  23061672.900    94433735.01347
  21802844.920   114574767.825 9  21802845.700    89279069.01548
  21152642.220   111157950.590 9  21152640.560    86616611.63548
  20587747.640   108189426.694 9  20587743.700    84303486.53449
  22669802.540   119130696.303 8  22669804.900    92829154.41847
  23970178.100   125964135.996 7  23970179.760    98153880.28245
 16  1 15  0  4 58.0000000  0  9G02G03G06G07G09G16G23G26G32
  25838499.140   135782229.751 5  25838496.020   105804317.8984
  21268225.820   111765329.098 9  21268227.320    87089895.35048
  24172958.420   127029758.857 7  24172961.880    98984247.22744
  23061190.460   121187397.617 8  23061189.940    94431757.41647
  21802432.920   114572602.719 9  21802433.680    89277381.91948
  21152647.880   111157980.268 9  21152646.220    86616634.76148
  20587617.820   108188744.545 9  20587613.900    84302954.99249
  22670177.860   119132668.654 8  22670180.220    92830691.31847
  23970837.480   125967601.040 7  23970839.100    98156580.31045
 16  1 15  0  4 59.0000000  0  9G02G03G06G07G09G16G23G26G32
  25838272.760   135781039.969 5  25838269.400   105803390.78043
  21268699.280   111767817.155 9  21268700.780    87091834.10048
  24173094.700   127030475.026 7  24173098.140    98984805.27744
  23060707.540   121184859.882 8  23060707.020    94429779.95747
  21802020.920   114570437.700 9  21802021.700    89275694.89148
  21152653.660   111158010.610 9  21152652.000    86616658.40848
  20587488.060   108188062.610 9  20587484.140    84302423.61849
  22670553.280   119134641.479 8  22670555.620    92832228.58347
  23971496.880   125971066.163 7  23971498.520    98159280.40245
 16  1 15  0  5  0.0000000  0  9G02G03G06G07G09G16G23G26G32
  25838046.400   135779850.462 5  25838043.020   105802463.90544
  21269172.800   111770305.545 9  21269174.300    87093773.10349
  24173231.060   127031191.563 7  24173234.540    98985363.62845
  23060224.640   121182322.215 8  23060224.120    94427802.55646
  21801608.940   114568272.675 9  21801609.700    89274007.85748
  21152659.540   111158041.534 9  21152657.860    86616682.50448
  20587358.300   108187380.801 9  20587354.380    84301892.33849
  22670928.760   119136614.702 8  22670931.120    92833766.16047
  23972156.260   125974531.284 7  23972157.900    98161980.49446
 16  1 15  0  5  1.0000000  0  9G02G03G06G07G09G16G23G26G32
  25837820.060   135778661.300 5  25837816.760   105801537.32444
  21269646.380   111772794.249 9  21269647.900    87095712.35348
  24173367.480   127031908.450 7  24173370.960    98985922.24145
  23059741.740   121179784.629 8  23059741.240    94425825.21547
  21801196.960   114566107.648 9  21801197.700    89272320.82548
  21152665.520   111158073.027 9  21152663.860    86616707.04348
  20587228.580   108186699.120 9  20587224.660    84301361.15949
  22671304.320   119138588.299 8  22671306.680    92835304.03247
  23972815.640   125977996.362 7  23972817.260    98164680.54645
 16  1 15  0  5  2.0000000  0  9G02G03G06G07G09G16G23G26G32
  25837593.860   135777472.527 5  25837590.800   105800611.0174
  21270120.040   111775283.362 9  21270121.560    87097651.91948
  24173504.020   127032625.857 7  24173507.480    98986481.26145
  23059258.900   121177247.222 8  23059258.380    94423848.01947
  21800784.980   114563942.710 9  21800785.720    89270633.86048
  21152671.640   111158105.198 9  21152669.980    86616732.11148
  20587098.900   108186017.676 9  20587095.000    84300830.16149
  22671679.980   119140562.388 8  22671682.340    92836842.28147
  23973475.040   125981461.503 7  23973476.680    98167380.65745
 16  1 15  0  5  3.0000000  0  9G02G03G06G07G09G16G23G26G32
  25837367.760   135776284.264 4  25837364.800   105799685.09244
  21270593.800   111777772.943 9  21270595.300    87099591.85348
  24173640.600   127033343.721 7  24173644.060    98987040.63844
  23058776.080   121174710.020 8  23058775.560    94421870.98047
  21800373.040   114561777.908 9  21800373.780    89268947.00048
  21152677.900   111158138.069 9  21152676.240    86616757.72448
  20586969.280   108185336.484 9  20586965.360    84300299.36449
  22672055.720   119142536.975 8  22672058.100    92838380.91847
  23974134.480   125984926.792 7  23974136.100    98170080.88445
 16  1 15  0  5  4.0000000  0  9G02G03G06G07G09G16G23G26G32
  25837141.640   135775096.166 4  25837138.660   105798759.31642
  21271067.600   111780262.779 9  21271069.120    87101531.98249
  24173777.280   127034061.916 7  24173780.660    98987600.27345
  23058293.260   121172172.831 8  23058292.740    94419893.95446
  21799961.080   114559613.044 9  21799961.820    89267260.09448
  21152684.240   111158171.456 9  21152682.580    86616783.74548
  20586839.660   108184655.358 9  20586835.740    84299768.61749
  22672431.540   119144511.875 8  22672433.900    92839919.79947
  23974793.860   125988391.981 7  23974795.540    98172781.02145
 16  1 15  0  5  5.0000000  0  9G02G03G06G07G09G16G23G26G32
  25836915.680   135773908.518 5  25836912.640   105797833.85941
  21271541.460   111782752.932 9  21271542.980    87103472.36248
  24173914.000   127034780.479 7  24173917.380    98988160.18845
  23057810.460   121169635.718 8  23057809.960    94417916.98946
  21799549.120   114557448.169 9  21799549.840    89265573.17748
  21152690.700   111158205.412 9  21152689.040    86616810.20448
  20586710.080   108183974.366 9  20586706.160    84299237.97549
  22672807.420   119146487.175 8  22672809.780    92841458.99447
  23975453.240   125991857.104 7  23975454.960    98175481.10645
 16  1 15  0  5  6.0000000  0  9G02G03G06G07G09G16G23G26G32
  25836689.700   135772721.219 5  25836686.800   105796908.68044
  21272015.400   111785243.517 9  21272016.920    87105413.07748
  24174050.840   127035499.547 7  24174054.220    98988720.50645
  23057327.700   121167098.824 8  23057327.200    94415940.19247
  21799137.180   114555283.410 9  21799137.920    89263886.35148
  21152697.300   111158240.071 9  21152695.640    86616837.21148
  20586580.520   108183293.618 9  20586576.620    84298707.52549
  22673183.400   119148462.968 8  22673185.760    92842998.56947
  23976112.660   125995322.356 7  23976114.380    98178181.30445
 16  1 15  0  5  7.0000000  0  9G02G03G06G07G09G16G23G26G32
  25836463.820   135771534.085 5  25836460.740   105795983.63344
  21272489.380   111787734.307 9  21272490.900    87107353.95048
  24174187.720   127036218.848 7  24174191.080    98989280.99745
  23056844.940   121164561.856 8  23056844.420    94413963.33046
  21798725.220   114553118.524 9  21798725.960    89262199.42848
  21152703.980   111158275.180 9  21152702.320    86616864.57148
  20586450.980   108182612.883 9  20586447.080    84298177.08249
  22673559.440   119150439.040 8  22673561.780    92844538.36747
  23976772.040   125998787.458 7  23976773.780    98180881.38045
 16  1 15  0  5  8.0000000  0  9G02G03G06G07G09G16G23G26G32
  25836237.980   135770347.285 5  25836235.080   105795058.86444
  21272963.420   111790225.372 9  21272964.940    87109295.04248
  24174324.660   127036938.488 7  24174328.000    98989841.75445
  23056362.160   121162024.914 8  23056361.660    94411986.49647
  21798313.240   114550953.576 9  21798313.960    89260512.45748
  21152710.760   111158310.836 9  21152709.100    86616892.35648
  20586321.460   108181932.230 9  20586317.560    84297646.70549
  22673935.520   119152415.446 8  22673937.900    92846078.42247
  23977431.420   126002252.515 7  23977433.160    98183581.42545
 16  1 15  0  5  9.0000000  0  9G02G03G06G07G09G16G23G26G32
  25836012.180   135769160.745 5  25836009.360   105794134.27643
  21273437.520   111792716.713 9  21273439.040    87111236.34748
  24174461.660   127037658.460 7  24174464.960    98990402.77445
  23055879.420   121159488.024 8  23055878.900    94410009.70546
  21797901.260   114548788.588 9  21797901.980    89258825.45348
  21152717.640   111158347.014 9  21152715.980    86616920.54748
  20586191.940   108181251.672 9  20586188.040    84297116.40049
  22674311.680   119154392.191 8  22674314.040    92847618.74247
  23978090.780   126005717.502 7  23978092.560    98186281.42245
 16  1 15  0  5 10.0000000  0  9G02G03G06G07G09G16G23G26G32
  25835786.500   135767974.668 5  25835783.780   105793210.07842
  21273911.700   111795208.596 9  21273913.220    87113178.07448
  24174598.760   127038378.985 7  24174602.040    98990964.22346
  23055396.720   121156951.421 8  23055396.220    94408033.12746
  21797489.320   114546623.810 9  21797490.040    89257138.61448
  21152724.680   111158383.975 9  21152723.020    86616949.34848
  20586062.500   108180571.431 9  20586058.600    84296586.34249
  22674687.960   119156369.534 8  22674690.320    92849159.52747
  23978750.180   126009182.638 7  23978751.960    98188981.51846
 16  1 15  0  5 11.0000000  0  9G02G03G06G07G09G16G23G26G32
  25835560.960   135766789.458 4  25835558.240   105792286.56043
  21274386.040   111797701.230 9  21274387.560    87115120.38649
  24174736.040   127039100.368 7  24174739.300    98991526.33745
  23054914.120   121154415.315 8  23054913.620    94406056.94546
  21797077.460   114544459.453 9  21797078.180    89255452.10348
  21152731.900   111158421.956 9  21152730.240    86616978.94648
  20585933.160   108179891.755 9  20585929.260    84296056.72849
  22675064.400   119158347.706 8  22675066.740    92850700.96047
  23979409.660   126012648.266 7  23979411.420    98191682.00345
 16  1 15  0  5 12.0000000  0  9G02G03G06G07G09G16G23G26G32
  25835335.480   135765604.805 4  25835333.040   105791363.46443
  21274860.500   111800194.500 9  21274862.020    87117063.19448
  24174873.420   127039822.410 7  24174876.680    98992088.96744
  23054431.580   121151879.618 8  23054431.080    94404081.08147
  21796665.660   114542295.411 9  21796666.380    89253765.83748
  21152739.300   111158460.825 9  21152737.640    86617009.23348
  20585803.900   108179212.542 9  20585800.000    84295527.46749
  22675440.960   119160326.550 8  22675443.320    92852242.92247
  23980069.180   126016114.116 7  23980070.960    98194382.65845
 16  1 15  0  5 13.0000000  0  9G02G03G06G07G09G16G23G26G32
  25835110.120   135764420.648 4  25835107.560   105790440.77344
  21275335.040   111802688.246 9  21275336.560    87119006.37048
  24175010.920   127040544.974 7  24175014.160    98992651.99845
  23053949.100   121149344.153 8  23053948.600    94402105.39446
  21796253.880   114540131.513 9  21796254.600    89252079.68148
  21152746.840   111158500.432 9  21152745.180    86617040.09648
  20585674.720   108178533.604 9  20585670.800    84294998.42749
  22675817.620   119162305.956 8  22675819.980    92853785.31747
  23980728.740   126019580.143 7  23980730.540    98197083.45445
 16  1 15  0  5 14.0000000  0  9G02G03G06G07G09G16G23G26G32
  25834884.840   135763236.860 4  25834882.060   105789518.40444
  21275809.660   111805182.385 9  21275811.180    87120949.85648
  24175148.520   127041268.007 7  24175151.760    98993215.39245
  23053466.640   121146808.830 8  23053466.140    94400129.82147
  21795842.120   114537967.687 9  21795842.840    89250393.58048
  21152754.500   111158540.681 9  21152752.840    86617071.45848
  20585545.540   108177854.859 9  20585541.640    84294469.53649
  22676194.380   119164285.817 8  22676196.720    92855328.06147
  23981388.300   126023046.202 7  23981390.100    98199784.27945
 16  1 15  0  5 15.0000000  0  9G02G03G06G07G09G16G23G26G32
  25834659.660   135762053.588 4  25834656.900   105788596.31944
  21276284.380   111807677.030 9  21276285.880    87122893.73248
  24175286.220   127041991.594 7  24175289.460    98993779.23445
  23052984.240   121144273.801 8  23052983.720    94398154.47446
  21795430.400   114535804.071 9  21795431.120    89248707.65048
  21152762.300   111158581.714 9  21152760.640    86617103.43148
  20585416.440   108177176.452 9  20585412.540    84293940.90849
  22676571.260   119166266.251 8  22676573.600    92856871.25547
  23982047.920   126026512.429 7  23982049.720    98202485.23945
 16  1 15  0  5 16.0000000  0  9G02G03G06G07G09G16G23G26G32
  25834434.600   135760870.895 4  25834431.820   105787674.71441
  21276759.200   111810172.233 9  21276760.720    87124838.04748
  24175424.020   127042715.788 7  24175427.260    98994343.54745
  23052501.900   121141739.084 8  23052501.380    94396179.37447
  21795018.720   114533640.672 9  21795019.420    89247021.88948
  21152770.260   111158623.545 9  21152768.600    86617136.02748
  20585287.420   108176498.400 9  20585283.500    84293412.55649
  22676948.220   119168247.297 8  22676950.580    92858414.92747
  23982707.540   126029978.837 7  23982709.360    98205186.33845
 16  1 15  0  5 17.0000000  0  9G02G03G06G07G09G16G23G26G32
  25834209.680   135759688.481 5  25834206.880   105786753.33545
  21277234.080   111812667.745 9  21277235.600    87126782.59948
  24175561.900   127043440.347 7  24175565.120    98994908.13545
  23052019.580   121139204.441 8  23052019.060    94394204.32847
  21794607.040   114531477.258 9  21794607.760    89245336.11248
  21152778.340   111158665.953 9  21152776.660    86617169.07348
  20585158.420   108175820.477 9  20585154.500    84292884.30849
  22677325.300   119170228.731 8  22677327.640    92859958.90247
  23983367.180   126033445.242 7  23983369.020    98207887.42545
 16  1 15  0  5 18.0000000  0  9G02G03G06G07G09G16G23G26G32
  25833984.760   135758506.534 5  25833981.900   105785832.30544
  21277709.040   111815163.671 9  21277710.560    87128727.47948
  24175699.880   127044165.400 7  24175703.100    98995473.11545
  23051537.280   121136669.980 8  23051536.780    94392229.42347
  21794195.380   114529313.968 9  21794196.080    89243650.42948
  21152786.540   111158709.049 9  21152784.860    86617202.65748
  20585029.460   108175142.798 9  20585025.540    84292356.24849
  22677702.440   119172210.655 8  22677704.780    92861503.25847
  23984026.820   126036911.726 7  23984028.660    98210588.58145
 16  1 15  0  5 19.0000000  0  9G02G03G06G07G09G16G23G26G32
  25833759.920   135757325.052 5  25833757.000   105784911.62944
  21278184.080   111817660.107 9  21278185.620    87130672.75448
  24175837.940   127044890.976 7  24175841.180    98996038.49745
  23051055.040   121134135.752 8  23051054.500    94390254.70447
  21793783.760   114527150.819 9  21793784.460    89241964.85448
  21152794.880   111158752.868 9  21152793.200    86617236.80548
  20584900.540   108174465.403 9  20584896.640    84291828.40649
  22678079.680   119174193.122 8  22678082.020    92863048.03547
  23984686.520   126040378.365 7  23984688.340    98213289.85945
 16  1 15  0  5 20.0000000  0  9G02G03G06G07G09G16G23G26G32
  25833535.160   135756144.025 5  25833532.040   105783991.39543
  21278659.220   111820156.995 9  21278660.760    87132618.38348
  24175976.100   127045617.064 7  24175979.360    98996604.28045
  23050572.820   121131601.753 8  23050572.300    94388280.16147
  21793372.160   114524987.823 9  21793372.860    89240279.40348
  21152803.360   111158797.418 9  21152801.660    86617271.52148
  20584771.680   108173788.284 9  20584767.780    84291300.78349
  22678457.040   119176176.126 8  22678459.380    92864593.23347
  23985346.220   126043845.125 7  23985348.040    98215991.23445
 16  1 15  0  5 21.0000000  0  9G02G03G06G07G09G16G23G26G32
  25833310.500   135754963.397 5  25833307.320   105783071.45442
  21279134.440   111822654.285 9  21279135.980    87134564.32148
  24176114.360   127046343.607 7  24176117.620    98997170.40745
  23050090.660   121129067.904 8  23050090.120    94386305.74046
  21792960.560   114522824.884 9  21792961.260    89238593.99648
  21152811.960   111158842.609 9  21152810.260    86617306.73748
  20584642.860   108173111.367 9  20584638.960    84290773.31549
  22678834.480   119178159.573 8  22678836.820    92866138.77647
  23986005.940   126047311.914 7  23986007.740    98218692.62045
 16  1 15  0  5 22.0000000  0  9G02G03G06G07G09G16G23G26G32
  25833085.900   135753783.161 4  25833082.900   105782151.76344
  21279609.740   111825152.006 9  21279611.280    87136510.59548
  24176252.680   127047070.617 7  24176255.920    98997736.90745
  23049608.520   121126534.233 8  23049607.960    94384331.45147
  21792548.980   114520662.054 9  21792549.680    89236908.67648
  21152820.680   111158888.488 9  21152819.000    86617342.48748
  20584514.100   108172434.678 9  20584510.200    84290246.02649
  22679212.020   119180143.522 8  22679214.360    92867684.71147
  23986665.680   126050778.813 7  23986667.440    98221394.09445
 16  1 15  0  5 23.0000000  0  9G02G03G06G07G09G16G23G26G32
  25832861.380   135752603.450 4  25832857.980   105781232.47942
  21280085.120   111827650.208 9  21280086.680    87138457.25048
  24176391.140   127047798.187 7  24176394.360    98998303.85545
  23049126.440   121124000.838 8  23049125.880    94382357.37347
  21792137.440   114518499.399 9  21792138.160    89235223.48848
  21152829.560   111158935.116 9  21152827.880    86617378.81848
  20584385.380   108171758.300 9  20584381.500    84289718.98049
  22679589.660   119182128.018 8  22679591.980    92869231.07347
  23987325.420   126054245.839 7  23987327.200    98224095.67045
 16  1 15  0  5 24.0000000  0  9G02G03G06G07G09G16G23G26G32
  25832636.980   135751424.121 4  25832633.480   105780313.49241
  21280560.580   111830148.822 9  21280562.140    87140404.22048
  24176529.700   127048526.207 7  24176532.920    98998871.15145
  23048644.380   121121467.588 8  23048643.820    94380383.41146
  21791725.940   114516336.821 9  21791726.620    89233538.36248
  21152838.560   111158982.408 9  21152836.860    86617415.67448
  20584256.720   108171082.143 9  20584252.820    84289192.10649
  22679967.400   119184112.990 8  22679969.720    92870777.80047
  23987985.200   126057712.940 7  23987986.980    98226797.30645
 16  1 15  0  5 25.0000000  0  9G02G03G06G07G09G16G23G26G32
  25832412.620   135750245.227 5  25832408.880   105779394.94343
  21281036.120   111832647.826 9  21281037.680    87142351.49548
  24176668.300   127049254.660 7  24176671.540    98999438.77045
  23048162.340   121118934.479 8  23048161.780    94378409.56347
  21791314.420   114514174.303 9  21791315.100    89231853.28548
  21152847.680   111159030.329 9  21152845.980    86617453.01548
  20584128.060   108170406.159 9  20584124.180    84288665.36549
  22680345.220   119186098.397 8  22680347.520    92872324.87147
  23988644.980   126061180.074 7  23988646.760    98229498.97645
 16  1 15  0  5 26.0000000  0  9G02G03G06G07G09G16G23G26G32
  25832188.360   135749066.709 5  25832184.660   105778476.62244
  21281511.760   111835147.270 9  21281513.320    87144299.11548
  24176807.020   127049983.651 7  24176810.240    99000006.81445
  23047680.360   121116401.594 8  23047679.780    94376435.89047
  21790902.920   114512011.918 9  21790903.620    89230168.31048
  21152856.940   111159078.985 9  21152855.240    86617490.92748
  20583999.480   108169730.469 9  20583995.600    84288138.85349
  22680723.120   119188084.328 8  22680725.440    92873872.34947
  23989304.760   126064647.325 7  23989306.560    98232200.72045
 16  1 15  0  5 27.0000000  0  9G02G03G06G07G09G16G23G26G32
  25831964.220   135747888.827 5  25831960.440   105777558.76944
  21281987.500   111837647.296 9  21281989.060    87146247.18648
  24176945.860   127050713.221 7  24176949.060    99000575.31645
  23047198.420   121113869.022 8  23047197.840    94374462.45947
  21790491.480   114509849.763 9  21790492.180    89228483.51848
  21152866.360   111159128.451 9  21152864.640    86617529.47348
  20583870.960   108169055.136 9  20583867.080    84287612.62249
  22681101.160   119190070.902 8  22681103.480    92875420.33147
  23989964.620   126068114.794 7  23989966.420    98234902.64245
 16  1 15  0  5 28.0000000  0  9G02G03G06G07G09G16G23G26G32
  25831740.160   135746711.389 5  25831736.340   105776641.31144
  21282463.300   111840147.796 9  21282464.900    87148195.62849
  24177084.800   127051443.343 7  24177087.960    99001144.23745
  23046716.540   121111336.697 8  23046715.940    94372489.22147
  21790080.080   114507687.778 9  21790080.760    89226798.85148
  21152875.920   111159178.658 9  21152874.200    86617568.59348
  20583742.500   108168380.114 9  20583738.620    84287086.62949
  22681479.300   119192058.015 8  22681481.600    92876968.73147
  23990624.500   126071582.422 7  23990626.300    98237604.68345
 16  1 15  0  5 29.0000000  0  9G02G03G06G07G09G16G23G26G32
  25831516.120   135745534.130 5  25831512.280   105775723.9774
  21282939.160   111842648.460 9  21282940.760    87150144.19648
  24177223.780   127052173.666 7  24177226.960    99001713.32345
  23046234.620   121108804.298 8  23046234.040    94370515.92947
  21789668.640   114505525.628 9  21789669.320    89225114.05848
  21152885.540   111159229.274 9  21152883.840    86617608.03748
  20583614.040   108167705.039 9  20583610.160    84286560.59849
  22681857.480   119194045.340 8  22681859.780    92878517.29447
  23991284.340   126075049.862 7  23991286.120    98240306.58545
 16  1 15  0  5 30.0000000  0  9G02G03G06G07G09G16G23G26G32
  25831292.160   135744357.175 5  25831288.460   105774806.87144
  21283415.100   111845149.479 9  21283416.680    87152093.03948
  24177362.820   127052904.421 7  24177365.980    99002282.74045
  23045752.760   121106272.001 8  23045752.180    94368542.71547
  21789257.200   114503363.499 9  21789257.880    89223429.28248
  21152895.300   111159280.498 9  21152893.580    86617647.95348
  20583485.600   108167030.132 9  20583481.720    84286034.69949
  22682235.740   119196033.078 8  22682238.040    92880066.18147
  23991944.180   126078517.284 7  23991945.920    98243008.46645
 16  1 15  0  5 31.0000000  0  9G02G03G06G07G09G16G23G26G32
  25831068.340   135743180.877 5  25831064.740   105773890.28643
  21283891.120   111847651.102 9  21283892.740    87154042.35449
  24177502.000   127053635.817 7  24177505.180    99002852.67144
  23045270.940   121103740.091 8  23045270.380    94366569.79847
  21788845.820   114501201.675 9  21788846.500    89221744.74848
  21152905.200   111159332.604 9  21152903.480    86617688.55148
  20583357.260   108166355.646 9  20583353.380    84285509.12949
  22682614.120   119198021.479 8  22682616.400    92881615.58447
  23992604.080   126081984.982 7  23992605.820    98245710.56945
 16  1 15  0  5 32.0000000  0  9G02G03G06G07G09G16G23G26G32
  25830844.620   135742005.100 5  25830840.920   105772974.0634
  21284367.260   111850153.224 9  21284368.860    87155992.06148
  24177641.300   127054367.786 7  24177644.420    99003423.02845
  23044789.180   121101208.414 8  23044788.600    94364597.06747
  21788434.460   114499040.005 9  21788435.160    89220060.32848
  21152915.260   111159385.451 9  21152913.540    86617729.73348
  20583228.960   108165681.464 9  20583225.080    84284983.79349
  22682992.620   119200010.476 8  22682994.900    92883165.44647
  23993264.000   126085452.841 7  23993265.720    98248412.80245
 16  1 15  0  5 33.0000000  0  9G02G03G06G07G09G16G23G26G32
  25830620.980   135740829.840 5  25830617.440   105772058.25243
  21284843.500   111852655.937 9  21284845.120    87157942.22948
  24177780.700   127055100.359 7  24177783.820    99003993.85445
  23044307.480   121098677.119 8  23044306.920    94362624.63147
  21788023.160   114496878.628 9  21788023.860    89218376.14048
  21152925.480   111159439.168 9  21152923.760    86617771.59148
  20583100.740   108165007.679 9  20583096.860    84284458.76649
  22683371.240   119202000.103 8  22683373.520    92884715.80547
  23993923.960   126088920.946 7  23993925.700    98251115.21645
 16  1 15  0  5 34.0000000  0  9G02G03G06G07G09G16G23G26G32
  25830397.500   135739655.138 5  25830394.100   105771142.90944
  21285319.860   111855159.215 9  21285321.480    87159892.83448
  24177920.240   127055833.573 7  24177923.340    99004565.18845
  23043825.840   121096146.123 8  23043825.300    94360652.43146
  21787611.920   114494717.489 9  21787612.600    89216692.13448
  21152935.860   111159493.700 9  21152934.140    86617814.08548
  20582972.580   108164334.286 9  20582968.720    84283934.04349
  22683749.980   119203990.377 8  22683752.240    92886266.67147
  23994583.980   126092389.288 7  23994585.700    98253817.81545
 16  1 15  0  5 35.0000000  0  9G02G03G06G07G09G16G23G26G32
  25830174.060   135738480.937 5  25830170.760   105770227.97243
  21285796.280   111857662.930 9  21285797.920    87161843.77648
  24178059.840   127056567.262 7  24178062.980    99005136.89244
  23043344.240   121093615.332 8  23043343.720    94358680.38247
  21787200.680   114492556.461 9  21787201.380    89215008.21848
  21152946.380   111159548.919 9  21152944.640    86617857.11348
  20582844.500   108163661.126 9  20582840.620    84283409.50649
  22684128.800   119205981.139 8  22684131.080    92887817.91347
  23995244.000   126095857.706 7  23995245.740    98256520.47546
 16  1 15  0  5 36.0000000  0  9G02G03G06G07G09G16G23G26G32
  25829950.760   135737307.379 5  25829947.440   105769313.54343
  21286272.840   111860167.285 9  21286274.480    87163795.22449
  24178199.580   127057301.661 7  24178202.720    99005709.16345
  23042862.740   121091084.954 8  23042862.220    94356708.66046
  21786789.520   114490395.737 9  21786790.220    89213324.53748
  21152957.060   111159605.043 9  21152955.320    86617900.84848
  20582716.480   108162988.421 9  20582712.620    84282885.32049
  22684507.780   119207972.608 8  22684510.040    92889369.70747
  23995904.080   126099326.418 7  23995905.840    98259223.36345
 16  1 15  0  5 37.0000000  0  9G02G03G06G07G09G16G23G26G32
  25829727.500   135736134.245 5  25829724.040   105768399.4024
  21286749.480   111862672.071 9  21286751.120    87165747.00549
  24178339.440   127058036.541 7  24178342.580    99006281.79345
  23042381.280   121088554.762 8  23042380.720    94354737.08447
  21786378.360   114488235.140 9  21786379.060    89211640.95548
  21152967.860   111159661.866 9  21152966.140    86617945.12848
  20582588.500   108162315.976 9  20582584.640    84282361.33749
  22684886.840   119209964.582 8  22684889.120    92890921.89447
  23996564.180   126102795.254 7  23996565.960    98261926.35445
 16  1 15  0  5 38.0000000  0  9G02G03G06G07G09G16G23G26G32
  25829504.300   135734961.603 4  25829500.920   105767485.69342
  21287226.200   111865177.344 9  21287227.860    87167699.16249
  24178479.380   127058771.920 7  24178482.540    99006854.80545
  23041899.840   121086024.809 8  23041899.300    94352765.69347
  21785967.240   114486074.703 9  21785967.940    89209957.49748
  21152978.820   111159719.416 9  21152977.100    86617989.97448
  20582460.600   108161643.815 9  20582456.740    84281837.57949
  22685266.000   119211957.074 8  22685268.280    92892474.48747
  23997224.300   126106264.203 7  23997226.080    98264629.42345
 16  1 15  0  5 39.0000000  0  9G02G03G06G07G09G16G23G26G32
  25829281.200   135733789.267 5  25829277.880   105766572.21444
  21287703.000   111867682.984 9  21287704.660    87169651.60748
  24178619.400   127059507.778 7  24178622.520    99007428.20545
  23041418.420   121083494.985 8  23041417.900    94350794.40347
  21785556.120   114483914.308 9  21785556.820    89208274.07148
  21152989.880   111159777.603 9  21152988.180    86618035.31248
  20582332.720   108160971.841 9  20582328.860    84281313.96149
  22685645.240   119213950.017 8  22685647.540    92894027.43247
  23997884.420   126109733.193 7  23997886.240    98267332.53545
 16  1 15  0  5 40.0000000  0  9G02G03G06G07G09G16G23G26G32
  25829058.220   135732617.589 5  25829054.980   105765659.2134
  21288179.920   111870189.203 9  21288181.580    87171604.50648
  24178759.560   127060244.242 7  24178762.660    99008002.07145
  23040937.080   121080965.505 8  23040936.540    94348823.38447
  21785145.060   114481754.168 9  21785145.760    89206590.84448
  21153001.120   111159836.606 9  21152999.400    86618081.29148
  20582204.920   108160300.239 9  20582201.060    84280790.63549
  22686024.620   119215943.596 8  22686026.900    92895580.86847
  23998544.600   126113202.405 7  23998546.400    98270035.81245
 16  1 15  0  5 41.0000000  0  9G02G03G06G07G09G16G23G26G32
  25828835.320   135731446.276 5  25828832.080   105764746.45343
  21288656.900   111872695.826 9  21288658.580    87173557.71748
  24178899.780   127060981.148 7  24178902.900    99008576.27745
  23040455.760   121078436.178 8  23040455.240    94346852.48247
  21784734.020   114479594.114 9  21784734.720    89204907.69048
  21153012.460   111159896.283 9  21153010.760    86618127.79248
  20582077.160   108159628.861 9  20582073.300    84280267.48549
  22686404.060   119217937.659 8  22686406.360    92897134.68147
  23999204.780   126116671.690 7  23999206.580    98272739.15645
 16  1 15  0  5 42.0000000  0  9G02G03G06G07G09G16G23G26G32
  25828612.540   135730275.522 5  25828609.200   105763834.12243
  21289134.020   111875203.037 9  21289135.680    87175511.38648
  24179040.140   127061718.718 7  24179043.240    99009151.01145
  23039974.500   121075907.190 8  23039973.980    94344881.84347
  21784323.020   114477434.318 9  21784323.720    89203224.73048
  21153023.980   111159956.802 9  21153022.280    86618174.95048
  20581949.460   108158957.888 9  20581945.620    84279744.65149
  22686783.640   119219932.336 8  22686785.920    92898688.97347
  23999865.000   126120141.191 7  23999866.820    98275442.65845
 16  1 15  0  5 43.0000000  0  9G02G03G06G07G09G16G23G26G32
  25828389.860   135729105.423 5  25828386.520   105762922.38543
  21289611.220   111877710.858 9  21289612.900    87177465.53748
  24179180.600   127062456.954 7  24179183.720    99009726.26245
  23039493.320   121073378.590 8  23039492.820    94342911.51047
  21783912.080   114475274.822 9  21783912.800    89201542.00848
  21153035.660   111160018.207 9  21153033.940    86618222.80048
  20581821.860   108158287.337 9  20581818.020    84279222.14449
  22687163.360   119221927.728 8  22687165.640    92900243.82647
  24000525.300   126123610.975 7  24000527.120    98278146.38445
 16  1 15  0  5 44.0000000  0  9G02G03G06G07G09G16G23G26G32
  25828167.340   135727936.056 5  25828164.100   105762011.15342
  21290088.580   111880219.394 9  21290090.260    87179420.24248
  24179321.240   127063195.917 7  24179324.340    99010302.08145
  23039012.220   121070850.463 8  23039011.720    94340941.54847
  21783501.220   114473115.715 9  21783501.920    89199859.58648
  21153047.540   111160080.569 9  21153045.820    86618271.39648
  20581694.360   108157617.312 9  20581690.500    84278700.04649
  22687543.220   119223923.880 8  22687545.500    92901799.26947
  24001185.680   126127081.148 7  24001187.480    98280850.42045
 16  1 15  0  5 45.0000000  0  9G02G03G06G07G09G16G23G26G32
  25827944.920   135726767.181 5  25827941.720   105761100.31743
  21290566.040   111882728.482 9  21290567.700    87181375.37148
  24179461.980   127063935.529 7  24179465.100    99010878.39645
  23038531.180   121068322.636 8  23038530.700    94338971.81446
  21783090.400   114470956.836 9  21783091.100    89198177.34348
  21153059.560   111160143.737 9  21153057.840    86618320.61848
  20581566.920   108156947.642 9  20581563.080    84278178.22849
  22687923.200   119225920.641 8  22687925.460    92903355.18747
  24001846.060   126130551.513 7  24001847.860    98283554.59246
 16  1 15  0  5 46.0000000  0  9G02G03G06G07G09G16G23G26G32
  25827722.580   135725598.782 5  25827719.320   105760189.90344
  21291043.560   111885237.987 9  21291045.260    87183330.83049
  24179602.820   127064675.611 7  24179605.940    99011455.07645
  23038050.180   121065795.014 8  23038049.720    94337002.24147
  21782679.600   114468798.072 9  21782680.300    89196495.19048
  21153071.720   111160207.612 9  21153070.000    86618370.38848
  20581439.520   108156278.214 9  20581435.680    84277656.59549
  22688303.260   119227917.898 8  22688305.540    92904911.49147
  24002506.480   126134021.983 8  24002508.260    98286258.85245
 16  1 15  0  5 47.0000000  0  9G02G03G06G07G09G16G23G26G32
  25827500.340   135724430.777 5  25827497.080   105759279.77944
  21291521.180   111887747.900 9  21291522.880    87185286.60448
  24179743.720   127065416.138 7  24179746.840    99012032.11145
  23037569.220   121063267.537 8  23037568.760    94335032.78047
  21782268.800   114466639.383 9  21782269.520    89194813.09648
  21153084.000   111160272.136 9  21153082.280    86618420.66748
  20581312.180   108155609.003 9  20581308.320    84277135.13449
  22688683.420   119229915.613 8  22688685.700    92906468.15647
  24003166.900   126137492.501 7  24003168.700    98288963.15145
 16  1 15  0  5 48.0000000  0  9G02G03G06G07G09G16G23G26G32
  25827278.120   135723263.179 5  25827274.780   105758369.97543
  21291998.880   111890258.238 9  21292000.560    87187242.71048
  24179884.740   127066157.142 7  24179887.840    99012609.52245
  23037088.280   121060740.253 8  23037087.820    94333063.47447
  21781858.040   114464480.816 9  21781858.760    89193131.09448
  21153096.420   111160337.346 9  21153094.680    86618471.47948
  20581184.880   108154940.040 9  20581181.020    84276613.86849
  22689063.660   119231913.817 8  22689065.960    92908025.20047
  24003827.360   126140963.105 7  24003829.140    98291667.51645
 16  1 15  0  5 49.0000000  0  9G02G03G06G07G09G16G23G26G32
  25827056.020   135722095.896 5  25827052.740   105757460.38444
  21292476.640   111892768.921 9  21292478.340    87189199.08848
  24180025.820   127066898.544 7  24180028.920    99013187.24145
  23036607.360   121058213.083 8  23036606.920    94331094.25747
  21781447.280   114462322.253 9  21781448.000    89191449.09948
  21153108.940   111160403.154 9  21153107.220    86618522.76348
  20581057.600   108154271.226 9  20581053.760    84276092.71749
  22689444.000   119233912.430 8  22689446.280    92909582.56147
  24004487.800   126144433.690 8  24004489.560    98294371.86545
 16  1 15  0  5 50.0000000  0  9G02G03G06G07G09G16G23G26G32
  25826833.960   135720928.903 5  25826830.920   105756551.03843
  21292954.440   111895279.806 9  21292956.140    87191155.62548
  24180166.960   127067640.237 7  24180170.040    99013765.18244
  23036126.460   121055685.876 8  23036126.020    94329125.00447
  21781036.500   114460163.576 9  21781037.200    89189767.01348
  21153121.560   111160469.431 9  21153119.820    86618574.40748
  20580930.340   108153602.444 9  20580926.500    84275571.59049
  22689824.380   119235911.338 8  22689826.660    92911140.15247
  24005148.240   126147904.150 7  24005149.980    98297076.11945
 16  1 15  0  5 51.0000000  0  9G02G03G06G07G09G16G23G26G32
  25826611.880   135719761.975 5  25826608.800   105755641.77044
  21293432.280   111897790.882 9  21293433.980    87193112.30848
  24180308.140   127068382.119 7  24180311.240    99014343.27645
  23035645.520   121053158.609 8  23035645.080    94327155.70547
  21780625.680   114458004.763 9  21780626.400    89188084.82148
  21153134.240   111160536.157 9  21153132.520    86618626.40148
  20580803.060   108152933.649 9  20580799.220    84275050.45149
  22690204.820   119237910.459 8  22690207.080    92912697.90847
  24005808.600   126151374.439 7  24005810.360    98299780.24845
 16  1 15  0  5 52.0000000  0  9G02G03G06G07G09G16G23G26G32
  25826389.900   135718595.525 6  25826386.860   105754732.84844
  21293910.180   111900302.295 9  21293911.880    87195069.24748
  24180449.400   127069124.419 7  24180452.500    99014921.68745
  23035164.620   121050631.467 8  23035164.200    94325186.50847
  21780214.880   114455845.965 9  21780215.600    89186402.64548
  21153147.060   111160603.487 9  21153145.340    86618678.86648
  20580675.820   108152265.017 9  20580671.980    84274529.43949
  22690585.320   119239910.008 8  22690587.600    92914255.99647
  24006469.000   126154844.727 7  24006470.740    98302484.36545
 16  1 15  0  5 53.0000000  0  9G02G03G06G07G09G16G23G26G32
  25826168.020   135717429.596 6  25826165.040   105753824.32343
  21294388.200   111902814.315 9  21294389.900    87197026.67048
  24180590.800   127069867.381 7  24180593.880    99015500.62145
  23034683.780   121048104.681 8  23034683.360    94323217.58847
  21779804.120   114453687.470 9  21779804.860    89184720.69948
  21153160.040   111160671.676 9  21153158.320    86618732.00348
  20580548.660   108151596.802 9  20580544.820    84274008.75249
  22690965.940   119241910.227 8  22690968.220    92915814.60447
  24007129.420   126158315.303 7  24007131.180    98305188.71245
 16  1 15  0  5 54.0000000  0  9G02G03G06G07G09G16G23G26G32
  25825946.280   135716264.410 6  25825943.300   105752916.3784
  21294866.360   111905327.058 9  21294868.060    87198984.64948
  24180732.300   127070611.090 7  24180735.420    99016080.13445
  23034203.040   121045578.359 8  23034202.600    94321249.02847
  21779393.440   114451529.358 9  21779394.180    89183039.05348
  21153173.200   111160740.835 9  21153171.480    86618785.89748
  20580421.620   108150929.116 9  20580417.760    84273488.47749
  22691346.740   119243911.207 8  22691348.980    92917373.81047
  24007789.940   126161786.230 7  24007791.680    98307893.33445
 16  1 15  0  5 55.0000000  0 10G02G03G06G07G09G16G23G26G27G32
  25825724.640   135715099.734 5  25825721.760   105752008.86144
  21295344.620   111907840.341 9  21295346.300    87200943.05048
  24180873.940   127071355.423 7  24180877.060    99016660.13845
  23033722.340   121043052.345 8  23033721.920    94319280.70947
  21778982.820   114449371.475 9  21778983.540    89181357.58448
  21153186.520   111160810.801 9  21153184.800    86618840.41048
  20580294.620   108150261.781 9  20580290.780    84272968.47849
  22691727.620   119245912.816 8  22691729.880    92918933.50347
  25627569.400   134673785.125 6  25627573.140   104940627.04345
  24008450.480   126165257.370 7  24008452.240    98310598.10945
 16  1 15  0  5 56.0000000  0 10G02G03G06G07G09G16G23G26G27G32
  25825503.100   135713935.533 6  25825500.140   105751101.67744
  21295822.960   111910354.064 9  21295824.640    87202901.79548
  24181015.680   127072100.254 7  24181018.780    99017240.53045
  23033241.700   121040526.547 8  23033241.260    94317312.55247
  21778572.200   114447213.724 9  21778572.940    89179676.21948
  21153199.960   111160881.465 9  21153198.240    86618895.47748
  20580167.680   108149594.707 9  20580163.840    84272448.68449
  22692108.600   119247914.911 8  22692110.880    92920493.57947
  25627081.840   134671223.833 6  25627086.700   104938631.24444
  24009111.040   126168728.600 7  24009112.800    98313302.96145
 16  1 15  0  5 57.0000000  0 10G02G03G06G07G09G16G23G26G27G32
  25825281.640   135712771.784 6  25825278.860   105750194.84642
  21296301.380   111912868.238 9  21296303.080    87204860.89248
  24181157.520   127072845.562 7  24181160.640    99017821.28445
  23032761.100   121038000.963 8  23032760.680    94315344.56546
  21778161.640   114445056.101 9  21778162.360    89177994.95648
  21153213.540   111160952.842 9  21153211.820    86618951.09748
  20580040.780   108148927.898 9  20580036.940    84271929.09349
  22692489.700   119249917.526 8  22692491.940    92922054.05747
  25626594.480   134668662.411 7  25626599.520   104936635.34244
  24009771.620   126172199.960 7  24009773.360    98316007.90945
 16  1 15  0  5 58.0000000  0 10G02G03G06G07G09G16G23G26G27G32
  25825060.280   135711608.517 6  25825057.480   105749288.39144
  21296779.920   111915382.954 9  21296781.600    87206820.40848
  24181299.480   127073591.478 7  24181302.580    99018402.51645
  23032280.540   121035475.672 8  23032280.120    94313376.80847
  21777751.100   114442898.685 9  21777751.820    89176313.85348
  21153227.280   111161025.014 9  21153225.560    86619007.33348
  20579913.960   108148261.442 9  20579910.120    84271409.77649
  22692870.900   119251920.756 8  22692873.160    92923615.01747
  25626107.180   134666100.986 7  25626111.980   104934639.45745
  24010432.240   126175671.489 7  24010433.960    98318712.99445
 16  1 15  0  5 59.0000000  0 10G02G03G06G07G09G16G23G26G27G32
  25824839.020   135710445.851 5  25824836.200   105748382.41344
  21297258.560   111917898.193 9  21297260.240    87208780.33548
  24181441.520   127074337.969 7  24181444.620    99018984.19244
  23031800.040   121032950.675 8  23031799.620    94311409.27947
  21777340.580   114440741.483 9  21777341.320    89174632.91648
  21153241.180   111161097.975 9  21153239.440    86619064.18848
  20579787.200   108147595.327 9  20579783.360    84270890.72549
  22693252.220   119253924.565 8  22693254.460    92925176.42647
  25625619.780   134663539.550 7  25625624.560   104932643.56846
  24011092.880   126179143.226 7  24011094.640    98321418.24445
 16  1 15  0  6  0.0000000  0 10G02G03G06G07G09G16G23G26G27G32
  25824617.880   135709283.686 5  25824615.080   105747476.82544
  21297737.280   111920413.936 9  21297738.960    87210740.65648
  24181583.680   127075085.025 7  24181586.820    99019566.30144
  23031319.600   121030425.966 8  23031319.180    94309441.97847
  21776930.120   114438584.475 9  21776930.860    89172952.13148
  21153255.200   111161171.709 9  21153253.480    86619121.64548
  20579660.500   108146929.535 9  20579656.660    84270371.92649
  22693633.640   119255928.956 8  22693635.880    92926738.29147
  25625132.340   134660978.075 7  25625137.320   104930647.64446
  24011753.560   126182615.133 7  24011755.320    98324123.62045
 16  1 15  0  6  1.0000000  0 10G02G03G06G07G09G16G23G26G27G32
  25824396.780   135708121.924 5  25824394.040   105746571.57844
  21298216.100   111922930.115 9  21298217.780    87212701.31149
  24181725.940   127075832.569 7  24181729.080    99020148.81145
  23030839.200   121027901.434 8  23030838.760    94307474.81547
  21776519.680   114436427.582 9  21776520.440    89171271.43148
  21153269.380   111161246.123 9  21153267.640    86619179.63048
  20579533.860   108146263.990 9  20579530.000    84269853.32049
  22694015.160   119257933.820 8  22694017.400    92928300.52147
  25624644.900   134658416.468 7  25624649.800   104928651.60646
  24012414.260   126186087.085 7  24012416.020    98326829.03345
 16  1 15  0  6  2.0000000  0 10G02G03G06G07G09G16G23G26G27G32
  25824175.800   135706960.661 5  25824173.140   105745666.73344
  21298695.000   111925446.754 9  21298696.660    87214662.33148
  24181868.280   127076580.602 7  24181871.480    99020731.69645
  23030358.840   121025377.123 8  23030358.400    94305507.82147
  21776109.260   114434270.823 9  21776110.020    89169590.84448
  21153283.680   111161321.267 9  21153281.940    86619238.18648
  20579407.260   108145598.723 9  20579403.420    84269334.93449
  22694396.780   119259939.213 8  22694399.000    92929863.16347
  25624157.440   134655854.775 7  25624162.440   104926655.50046
  24013074.980   126189559.179 7  24013076.760    98329534.56345
 16  1 15  0  6  3.0000000  0 10G02G03G06G07G09G16G23G26G27G32
  25823954.880   135705799.840 6  25823952.300   105744762.18043
  21299173.980   111927963.885 9  21299175.660    87216623.72948
  24182010.740   127077329.185 7  24182013.920    99021315.00345
  23029878.540   121022853.050 8  23029878.100    94303541.01146
  21775698.860   114432114.228 9  21775699.640    89167910.37848
  21153298.120   111161397.144 9  21153296.380    86619297.31148
  20579280.720   108144933.759 9  20579276.860    84268816.78349
  22694778.500   119261945.165 8  22694780.720    92931426.24247
  25623670.080   134653293.022 8  25623675.040   104924659.33846
  24013735.740   126193031.415 7  24013737.500    98332240.19745
 16  1 15  0  6  4.0000000  0 10G02G03G06G07G09G16G23G26G27G32
  25823734.080   135704639.591 6  25823731.580   105743858.09044
  21299653.080   111930481.578 9  21299654.760    87218585.56948
  24182153.300   127078078.401 7  24182156.480    99021898.81245
  23029398.280   121020329.314 8  23029397.840    94301574.46647
  21775288.520   114429957.887 9  21775289.300    89166230.11248
  21153312.720   111161473.847 9  21153310.960    86619357.08148
  20579154.260   108144269.181 9  20579150.400    84268298.92749
  22695160.340   119263951.750 8  22695162.560    92932989.81747
  25623182.600   134650731.266 8  25623187.500   104922663.16746
  24014396.520   126196503.866 7  24014398.280    98334946.00745
 16  1 15  0  6  5.0000000  0 10G02G03G06G07G09G16G23G26G27G32
  25823513.400   135703479.854 6  25823510.960   105742954.38944
  21300132.280   111932999.762 9  21300133.940    87220547.78948
  24182295.980   127078828.171 7  24182299.140    99022483.05046
  23028918.080   121017805.838 8  23028917.640    94299608.12547
  21774878.220   114427801.707 9  21774879.000    89164549.97648
  21153327.480   111161551.306 9  21153325.700    86619417.44148
  20579027.840   108143604.902 9  20579024.000    84267781.31049
  22695542.280   119265958.872 8  22695544.500    92934553.80847
  25622695.080   134648169.459 8  25622699.880   104920666.94846
  24015057.340   126199976.457 7  24015059.100    98337651.92445
 16  1 15  0  6  6.0000000  0 10G02G03G06G07G09G16G23G26G27G32
  25823292.800   135702320.625 5  25823290.360   105742051.10243
  21300611.560   111935518.411 9  21300613.220    87222510.37348
  24182438.740   127079578.445 7  24182441.940    99023067.67345
  23028437.940   121015282.586 8  23028437.480    94297641.95447
  21774467.940   114425645.679 9  21774468.720    89162869.95448
  21153342.360   111161629.501 9  21153340.580    86619478.37248
  20578901.480   108142940.907 9  20578897.640    84267263.91849
  22695924.340   119267966.529 8  22695926.540    92936118.21947
  25622207.600   134645607.548 7  25622212.400   104918670.65146
  24015718.160   126203449.168 7  24015719.940    98340357.93145
 16  1 15  0  6  7.0000000  0 10G02G03G06G07G09G16G23G26G27G32
  25823072.300   135701161.821 5  25823069.880   105741148.14243
  21301090.960   111938037.588 9  21301092.600    87224473.36848
  24182581.620   127080329.300 7  24182584.800    99023652.74945
  23027957.820   121012759.622 8  23027957.380    94295676.01247
  21774057.700   114423489.863 9  21774058.480    89161190.09848
  21153357.400   111161708.497 9  21153355.620    86619539.92648
  20578775.200   108142277.252 9  20578771.340    84266746.77949
  22696306.500   119269974.783 8  22696308.700    92937683.09247
  25621720.140   134643045.600 7  25621724.820   104916674.33046
  24016379.060   126206922.097 7  24016380.760    98343064.10745
 16  1 15  0  6  8.0000000  0 10G02G03G06G07G09G16G23G26G27G32
  25822851.840   135700003.380 5  25822849.400   105740245.45444
  21301570.400   111940557.086 9  21301572.040    87226436.61148
  24182724.580   127081080.508 7  24182727.760    99024238.10845
  23027477.740   121010236.745 8  23027477.280    94293710.13447
  21773647.480   114421334.048 9  21773648.240    89159510.24048
  21153372.540   111161788.085 9  21153370.760    86619601.94448
  20578648.940   108141613.738 9  20578645.080    84266229.75949
  22696688.740   119271983.426 8  22696690.920    92939248.26847
  25621232.680   134640483.439 7  25621237.180   104914677.85445
  24017039.920   126210394.995 7  24017041.640    98345770.24545
 16  1 15  0  6  9.0000000  0 10G02G03G06G07G09G16G23G26G27G32
  25822631.500   135698845.499 5  25822629.060   105739343.19944
  21302049.940   111943077.123 9  21302051.580    87228400.27448
  24182867.660   127081832.333 7  24182870.820    99024823.94745
  23026997.700   121007714.179 8  23026997.260    94291744.49847
  21773237.280   114419178.461 9  21773238.060    89157830.56048
  21153387.840   111161868.469 9  21153386.060    86619664.58148
  20578522.740   108140950.576 9  20578518.880    84265713.01249
  22697071.080   119273992.665 8  22697073.260    92940813.90747
  25620745.120   134637921.260 6  25620749.620   104912681.36945
  24017700.820   126213868.085 7  24017702.540    98348476.55545
 16  1 15  0  6 10.0000000  0 10G02G03G06G07G09G16G23G26G27G32
  25822411.260   135697688.222 5  25822408.900   105738441.43144
  21302529.600   111945597.724 9  21302531.240    87230364.37948
  24183010.840   127082584.788 7  24183014.040    99025410.28245
  23026517.740   121005191.940 8  23026517.300    94289779.12847
  21772827.120   114417023.122 9  21772827.900    89156151.07948
  21153403.300   111161949.677 9  21153401.500    86619727.85848
  20578396.600   108140287.787 9  20578392.760    84265196.55349
  22697453.540   119276002.537 8  22697455.720    92942380.04347
  25620257.640   134635359.065 6  25620261.740   104910684.86544
  24018361.760   126217341.390 7  24018363.500    98351183.01845
 16  1 15  0  6 11.0000000  0 10G02G03G06G07G09G16G23G26G27G32
  25822191.080   135696531.286 5  25822188.860   105737539.94343
  21303009.320   111948118.680 9  21303010.940    87232328.75848
  24183154.100   127083337.651 7  24183157.320    99025996.92645
  23026037.800   121002669.839 8  23026037.360    94287813.85647
  21772416.980   114414867.829 9  21772417.760    89154471.63048
  21153418.880   111162031.509 9  21153417.080    86619791.62548
  20578270.520   108139625.182 9  20578266.660    84264680.23849
  22697836.080   119278012.833 8  22697838.260    92943946.51147
  25619770.060   134632796.686 6  25619773.980   104908688.22745
  24019022.700   126220814.716 7  24019024.440    98353889.50845
 16  1 15  0  6 12.0000000  0 10G02G03G06G07G09G16G23G26G27G32
  25821971.000   135695374.769 5  25821968.680   105736638.75443
  21303489.120   111950640.057 9  21303490.760    87234293.46948
  24183297.460   127084090.955 7  24183300.680    99026583.91745
  23025557.880   121000147.895 8  23025557.440    94285848.70647
  21772006.860   114412712.613 9  21772007.640    89152792.24148
  21153434.560   111162113.992 9  21153432.760    86619855.89948
  20578144.460   108138962.796 9  20578140.620    84264164.09449
  22698218.720   119280023.590 8  22698220.900    92945513.32947
  25619282.500   134630234.152 5  25619286.100   104906691.48444
  24019683.680   126224288.108 7  24019685.400    98356596.04146
 16  1 15  0  6 13.0000000  0 10G02G03G06G07G09G16G23G26G27G32
  25821751.000   135694218.724 5  25821748.660   105735737.96544
  21303969.020   111953161.922 9  21303970.640    87236258.55949
  24183440.920   127084844.826 7  24183444.100    99027171.34345
  23025078.040   120997626.208 8  23025077.580    94283883.76247
  21771596.780   114410557.586 9  21771597.560    89151112.99948
  21153450.400   111162197.250 9  21153448.620    86619920.77648
  20578018.480   108138300.724 9  20578014.640    84263648.19249
  22698601.460   119282034.929 8  22698603.660    92947080.60847
  25618794.980   134627671.566 6  25618798.020   104904694.68845
  24020344.660   126227761.645 7  24020346.400    98359302.68945
 16  1 15  0  6 14.0000000  0 10G02G03G06G07G09G16G23G26G27G32
  25821531.120   135693063.270 5  25821528.660   105734837.60943
  21304449.020   111955684.336 9  21304450.640    87238224.07648
  24183584.480   127085599.279 7  24183587.700    99027759.22445
  23024598.220   120995104.839 8  23024597.800    94281919.05747
  21771186.720   114408402.788 9  21771187.520    89149433.93548
  21153466.400   111162281.301 9  21153464.620    86619986.27348
  20577892.540   108137639.008 9  20577888.720    84263132.57349
  22698984.340   119284046.853 8  22698986.500    92948648.34147
  25618307.380   134625108.997 6  25618310.640   104902697.90444
  24021005.700   126231235.402 7  24021007.420    98362009.51145
 16  1 15  0  6 15.0000000  0 10G02G03G06G07G09G16G23G26G27G32
  25821311.340   135691908.419 5  25821308.900   105733937.75342
  21304929.140   111958207.316 9  21304930.740    87240190.03648
  24183728.180   127086354.393 7  24183731.380    99028347.62345
  23024118.480   120992583.820 8  23024118.060    94279954.62947
  21770776.740   114406248.247 9  21770777.520    89147755.07248
  21153482.560   111162366.191 9  21153480.760    86620052.42148
  20577766.700   108136977.685 9  20577762.860    84262617.25949
  22699367.320   119286059.432 8  22699369.480    92950216.58547
  25617819.780   134622546.456 6  25617822.820   104900701.13744
  24021666.780   126234709.374 7  24021668.500    98364716.49846
 16  1 15  0  6 16.0000000  0 10G02G03G06G07G09G16G23G26G27G32
  25821091.660   135690753.853 5  25821089.180   105733038.03743
  21305409.300   111960730.644 9  21305410.900    87242156.26348
  24183871.940   127087109.870 7  24183875.200    99028936.30845
  23023638.760   120990062.875 8  23023638.360    94277990.25547
  21770366.740   114404093.711 9  21770367.540    89146076.21348
  21153498.820   111162451.664 9  21153497.040    86620119.02348
  20577640.880   108136316.512 9  20577637.040    84262102.06149
  22699750.360   119288072.395 8  22699752.520    92951785.13147
  25617332.200   134619983.706 5  25617335.100   104898704.18345
  24022327.840   126238183.339 7  24022329.600    98367423.47645
 16  1 15  0  6 17.0000000  0 10G02G03G06G07G09G16G23G26G27G32
  25820872.040   135689599.813 5  25820869.640   105732138.76444
  21305889.600   111963254.530 9  21305891.180    87244122.92748
  24184015.820   127087865.980 7  24184019.060    99029525.48945
  23023159.100   120987542.286 8  23023158.700    94276026.16346
  21769956.800   114401939.431 9  21769957.600    89144397.55348
  21153515.240   111162537.973 9  21153513.460    86620186.27948
  20577515.140   108135655.720 9  20577511.300    84261587.16149
  22700133.540   119290085.990 8  22700135.700    92953354.16447
  25616844.620   134617420.930 5  25616847.580   104896707.21944
  24022988.960   126241657.561 7  24022990.700    98370130.66445
 16  1 15  0  6 18.0000000  0 10G02G03G06G07G09G16G23G26G27G32
  25820652.540   135688446.188 5  25820650.000   105731239.84444
  21306369.960   111965778.802 9  21306371.540    87246089.89249
  24184159.760   127088622.521 7  24184163.020    99030114.99845
  23022679.480   120985021.848 8  23022679.060    94274062.18747
  21769546.860   114399785.213 9  21769547.660    89142718.94648
  21153531.800   111162624.923 9  21153530.000    86620254.03448
  20577389.420   108134995.139 9  20577385.600    84261072.42249
  22700516.800   119292100.038 8  22700518.960    92954923.54847
  25616356.820   134614858.016 6  25616359.920   104894710.15144
  24023650.080   126245131.768 7  24023651.820    98372837.83446
 16  1 15  0  6 19.0000000  0 10G02G03G06G07G09G16G23G26G27G32
  25820433.120   135687293.026 5  25820430.520   105730341.27843
  21306850.400   111968303.526 9  21306851.980    87248057.20948
  24184303.820   127089379.554 7  24184307.120    99030704.89944
  23022199.880   120982501.606 8  23022199.460    94272098.36647
  21769136.960   114397631.142 9  21769137.760    89141040.44948
  21153548.480   111162712.582 9  21153546.680    86620322.34248
  20577263.760   108134334.823 9  20577259.940    84260557.89049
  22700900.160   119294114.603 8  22700902.300    92956493.34147
  25615869.160   134612295.009 6  25615872.020   104892713.01344
  24024311.220   126248606.150 7  24024312.960    98375545.14545
 16  1 15  0  6 20.0000000  0 10G02G03G06G07G09G16G23G26G27G32
  25820213.760   135686140.337 5  25820211.200   105729443.07944
  21307330.920   111970828.718 9  21307332.500    87250024.88948
  24184448.000   127090137.120 7  24184451.300    99031295.20645
  23021720.340   120979981.617 8  23021719.940    94270134.74046
  21768727.080   114395477.203 9  21768727.880    89139362.05548
  21153565.300   111162800.982 9  21153563.500    86620391.22748
  20577138.160   108133674.782 9  20577134.340    84260043.57549
  22701283.620   119296129.688 8  22701285.760    92958063.53747
  25615381.380   134609731.928 5  25615384.400   104890715.81344
  24024972.400   126252080.604 7  24024974.120    98378252.51745
 16  1 15  0  6 21.0000000  0 10G02G03G06G07G09G16G23G26G27G32
  25819994.300   135684987.090 5  25819991.640   105728544.41444
  21307811.360   111973353.381 9  21307812.920    87251992.16048
  24184592.060   127090894.195 7  24184595.400    99031885.14545
  23021240.660   120977460.863 8  23021240.260    94268170.52147
  21768317.020   114393322.436 9  21768317.840    89137683.01448
  21153582.080   111162889.112 9  21153580.280    86620459.90048
  20577012.420   108133014.054 9  20577008.600    84259528.71749
  22701667.000   119298144.309 8  22701669.120    92959633.36947
  25614893.340   134607167.757 6  25614896.320   104888717.74042
  24025633.400   126255554.172 7  24025635.080    98380959.18745
 16  1 15  0  6 22.0000000  0 10G02G03G06G07G09G16G23G26G27G32
  25819774.360   135683831.211 5  25819771.620   105727643.77642
  21308291.300   111975875.412 9  21308292.840    87253957.37448
  24184735.660   127091648.710 7  24184738.940    99032473.08345
  23020760.420   120974937.217 8  23020760.020    94266204.04947
  21767906.420   114391164.713 9  21767907.240    89136001.67148
  21153598.400   111162974.856 9  21153596.600    86620526.71348
  20576886.160   108132350.490 9  20576882.340    84259011.65849
  22702049.880   119300156.364 8  22702052.000    92961201.19947
  25614404.780   134604600.394 6  25614407.620   104886717.18444
  24026293.840   126259024.815 7  24026295.480    98383663.58545
 16  1 15  0  6 23.0000000  0 10G02G03G06G07G09G16G23G26G27G32
  25819554.320   135682674.867 5  25819551.600   105726742.71944
  21308771.120   111978396.886 9  21308772.660    87255922.16148
  24184879.140   127092402.723 7  24184882.480    99033060.62046
  23020280.040   120972412.790 8  23020279.640    94264236.96547
  21767495.660   114389006.124 9  21767496.480    89134319.65348
  21153614.660   111163060.321 9  21153612.860    86620593.30948
  20576759.740   108131686.195 9  20576755.920    84258494.02849
  22702432.680   119302167.942 8  22702434.780    92962768.66447
  25613915.940   134602031.935 6  25613919.100   104884715.79444
  24026954.100   126262494.568 7  24026955.760    98386367.28845
 16  1 15  0  6 24.0000000  0 10G02G03G06G07G09G16G23G26G27G32
  25819334.420   135681519.208 5  25819331.740   105725842.22242
  21309251.100   111980919.137 9  21309252.620    87257887.55648
  24185022.780   127093157.559 7  24185026.100    99033648.80346
  23019799.760   120969888.904 8  23019799.340    94262270.30547
  21767084.960   114386847.993 9  21767085.800    89132637.99448
  21153631.120   111163146.814 9  21153629.320    86620660.70448
  20576633.440   108131022.479 9  20576629.620    84257976.84949
  22702815.620   119304180.345 8  22702817.740    92964336.77847
  25613427.180   134599463.686 5  25613430.500   104882714.5494
  24027614.440   126265964.720 7  24027616.120    98389071.28845
 16  1 15  0  6 25.0000000  0 10G02G03G06G07G09G16G23G26G27G32
  25819114.780   135680364.987 5  25819112.200   105724942.84342
  21309731.340   111983442.782 9  21309732.860    87259854.03248
  24185166.700   127093913.838 7  24185170.000    99034238.10145
  23019319.700   120967366.185 8  23019319.300    94260304.55247
  21766674.500   114384690.941 9  21766675.320    89130957.17348
  21153647.900   111163234.954 9  21153646.080    86620729.38748
  20576507.380   108130359.993 9  20576503.560    84257460.62649
  22703198.840   119306194.203 8  22703200.960    92965906.01747
  25612938.620   134596896.291 5  25612941.520   104880714.00044
  24028274.980   126269435.931 7  24028276.660    98391776.12445
 16  1 15  0  6 26.0000000  0 10G02G03G06G07G09G16G23G26G27G32
  25818895.420   135679212.256 5  25818892.800   105724044.58843
  21310211.860   111985967.894 9  21310213.360    87261821.65048
  24185310.900   127094671.635 7  24185314.200    99034828.60345
  23018839.860   120964844.666 8  23018839.460    94258339.73447
  21766264.240   114382535.033 9  21766265.060    89129277.24348
  21153665.000   111163324.818 9  21153663.160    86620799.41048
  20576381.560   108129698.775 9  20576377.740    84256945.39349
  22703582.360   119308209.570 8  22703584.460    92967476.42847
  25612450.120   134594329.792 5  25612453.620   104878714.16143
  24028935.720   126272908.251 7  24028937.400    98394481.83045
 16  1 15  0  6 27.0000000  0 10G02G03G06G07G09G16G23G26G27G32
  25818676.360   135678061.074 5  25818673.700   105723147.54544
  21310692.680   111988494.592 9  21310694.180    87263790.50548
  24185455.420   127095431.074 7  24185458.700    99035420.38045
  23018360.300   120962324.525 8  23018359.900    94256375.98947
  21765854.220   114380380.403 9  21765855.060    89127598.31548
  21153682.440   111163416.520 9  21153680.620    86620870.86948
  20576255.980   108129038.971 9  20576252.180    84256431.26249
  22703966.200   119310226.623 8  22703968.280    92969048.16047
  25611961.920   134591764.400 5  25611965.260   104876715.15844
  24029596.720   126276381.835 7  24029598.460    98397188.51445
 16  1 15  0  6 28.0000000  0 10G02G03G06G07G09G16G23G26G27G32
  25818457.580   135676911.325 5  25818454.860   105722251.6144
  21311173.760   111991022.624 9  21311175.240    87265760.40048
  24185600.180   127096191.914 7  24185603.480    99036013.23045
  23017880.940   120959805.463 8  23017880.520    94254413.08647
  21765444.400   114378226.769 9  21765445.240    89125920.15648
  21153700.200   111163509.821 9  21153698.380    86620943.57148
  20576130.660   108128380.310 9  20576126.840    84255918.02249
  22704350.280   119312245.051 8  22704352.380    92970620.95947
  25611473.860   134589199.764 5  25611477.100   104874716.72644
  24030257.900   126279856.401 7  24030259.680    98399895.96345
 16  1 15  0  6 29.0000000  0 10G02G03G06G07G09G16G23G26G27G32
  25818239.000   135675762.477 5  25818236.320   105721356.44344
  21311655.020   111993551.623 9  21311656.500    87267731.04949
  24185745.160   127096953.760 7  24185748.440    99036606.88045
  23017401.720   120957287.166 8  23017401.300    94252450.78147
  21765034.700   114376073.807 9  21765035.540    89124242.52448
  21153718.180   111163604.367 9  21153716.360    86621017.24348
  20576005.460   108127722.448 9  20576001.660    84255405.40249
  22704734.580   119314264.532 8  22704736.660    92972194.58247
  25610985.840   134586635.490 5  25610989.300   104872718.58544
  24030919.200   126283331.588 7  24030920.980    98402603.89446
 16  1 15  0  6 30.0000000  0 10G02G03G06G07G09G16G23G26G27G32
  25818020.600   135674614.646 5  25818017.880   105720462.03944
  21312136.460   111996081.607 9  21312137.940    87269702.46148
  24185890.320   127097716.623 7  24185893.620    99037201.31945
  23016922.640   120954769.599 8  23016922.220    94250489.04947
  21764625.140   114373921.513 9  21764625.960    89122565.40948
  21153736.420   111163700.140 9  21153734.600    86621091.87448
  20575880.420   108127065.385 9  20575876.620    84254893.40549
  22705119.060   119316285.051 8  22705121.140    92973769.01147
  25610497.880   134584071.737 5  25610501.180   104870720.90643
  24031580.620   126286807.407 7  24031582.380    98405312.32345
 16  1 15  0  6 31.0000000  0 10G02G03G06G07G09G16G23G26G27G32
  25817802.340   135673467.595 6  25817799.600   105719568.24044
  21312618.060   111998612.356 9  21312619.520    87271674.47548
  24186035.660   127098480.356 7  24186038.940    99037796.44545
  23016443.660   120952252.574 8  23016443.240    94248527.73047
  21764215.640   114371769.665 9  21764216.480    89120888.64748
  21153754.840   111163796.951 9  21153753.020    86621167.30948
  20575755.500   108126408.905 9  20575751.700    84254381.86249
  22705503.720   119318306.385 8  22705505.780    92975344.07847
  25610010.040   134581508.205 5  25610013.080   104868723.38944
  24032242.140   126290283.692 7  24032243.900    98408021.12245
 16  1 15  0  6 32.0000000  0 10G02G03G06G07G09G16G23G26G27G32
  25817584.220   135672321.241 6  25817581.360   105718674.98144
  21313099.780   112001143.804 9  21313101.240    87273647.03248
  24186181.100   127099244.816 7  24186184.420    99038392.12745
  23015964.780   120949735.995 8  23015964.360    94246566.76046
  21763806.240   114369618.204 9  21763807.080    89119212.18548
  21153773.440   111163894.726 9  21153771.620    86621243.49748
  20575630.660   108125752.948 9  20575626.860    84253870.72949
  22705888.520   119320328.491 8  22705890.560    92976919.75147
  25609522.180   134578944.772 5  25609525.320   104866725.92644
  24032903.700   126293760.289 7  24032905.460    98410730.14946
 16  1 15  0  6 33.0000000  0 10G02G03G06G07G09G16G23G26G27G32
  25817366.160   135671175.488 6  25817363.240   105717782.18044
  21313581.620   112003675.869 9  21313583.080    87275620.06848
  24186326.700   127100009.939 7  24186330.020    99038988.31845
  23015485.960   120947219.813 8  23015485.540    94244606.09947
  21763396.880   114367467.044 9  21763397.720    89117535.95948
  21153792.220   111163993.371 9  21153790.400    86621320.36748
  20575505.920   108125097.419 9  20575502.120    84253359.92949
  22706273.460   119322351.283 8  22706275.480    92978495.94947
  25609034.300   134576381.384 5  25609037.400   104864728.47144
  24033565.320   126297237.181 7  24033567.060    98413439.42045
 16  1 15  0  6 34.0000000  0 10G02G03G06G07G09G16G23G26G27G32
  25817148.240   135670030.221 5  25817145.320   105716889.75043
  21314063.560   112006208.418 9  21314065.020    87277593.48248
  24186472.380   127100775.603 7  24186475.720    99039584.93545
  23015007.180   120944703.857 8  23015006.760    94242645.61847
  21762987.560   114365316.040 9  21762988.400    89115859.85048
  21153811.140   111164092.757 9  21153809.320    86621397.81148
  20575381.240   108124442.187 9  20575377.440    84252849.36149
  22706658.480   119324374.603 8  22706660.500    92980072.56447
  25608546.420   134573818.004 5  25608549.540   104862731.02544
  24034227.000   126300714.212 7  24034228.680    98416148.79245
 16  1 15  0  6 35.0000000  0 10G02G03G06G07G09G16G23G26G27G32
  25816930.420   135668885.499 5  25816927.540   105715997.78144
  21314545.580   112008741.452 9  21314547.020    87279567.27648
  24186618.180   127101541.824 7  24186621.520    99040181.98245
  23014528.480   120942188.169 8  23014528.040    94240685.34547
  21762578.280   114363165.225 9  21762579.120    89114183.89248
  21153830.180   111164192.894 9  21153828.380    86621475.83848
  20575256.620   108123787.281 9  20575252.820    84252339.04449
  22707043.600   119326398.498 8  22707045.620    92981649.62347
  25608058.480   134571254.506 4  25608061.620   104860733.52543
  24034888.680   126304191.393 7  24034890.380    98418858.28045
 16  1 15  0  6 36.0000000  0 10G02G03G06G07G09G16G23G26G27G32
  25816712.680   135667741.254 5  25816709.860   105715106.16444
  21315027.700   112011275.018 9  21315029.140    87281541.48348
  24186764.120   127102308.607 7  24186767.440    99040779.47445
  23014049.820   120939672.794 8  23014049.400    94238725.31347
  21762169.020   114361014.620 9  21762169.880    89112508.09848
  21153849.380   111164293.838 9  21153847.580    86621554.49748
  20575132.040   108123132.711 9  20575128.260    84251828.99049
  22707428.860   119328422.966 8  22707430.880    92983227.12947
  25607570.700   134568691.050 4  25607573.940   104858736.04544
  24035550.380   126307668.718 7  24035552.100    98421567.88245
 16  1 15  0  6 37.0000000  0 10G02G03G06G07G09G16G23G26G27G32
  25816495.040   135666597.409 5  25816492.220   105714214.84044
  21315509.920   112013808.993 9  21315511.340    87283516.01148
  24186910.140   127103075.874 7  24186913.480    99041377.35245
  23013571.180   120937157.574 8  23013570.760    94236765.40547
  21761759.800   114358864.102 9  21761760.640    89110832.37048
  21153868.720   111164395.444 9  21153866.920    86621633.67348
  20575007.540   108122478.375 9  20575003.740    84251319.12049
  22707814.200   119330447.926 8  22707816.200    92984805.01747
  25607082.740   134566127.367 4  25607085.960   104856738.35844
  24036212.100   126311146.149 7  24036213.860    98424277.56845
 16  1 15  0  6 38.0000000  0 10G02G03G06G07G09G16G23G26G27G32
  25816277.500   135665454.139 5  25816274.760   105713323.96843
  21315992.220   112016343.484 9  21315993.640    87285490.93948
  24187056.260   127103843.698 7  24187059.560    99041975.65844
  23013092.600   120934642.643 8  23013092.180    94234805.72246
  21761350.620   114356713.797 9  21761351.460    89109156.80548
  21153888.200   111164497.831 9  21153886.400    86621713.45148
  20574883.080   108121824.365 9  20574879.300    84250809.50149
  22708199.640   119332473.448 8  22708201.640    92986383.34647
  25606594.920   134563563.725 4  25606598.460   104854740.73143
  24036873.880   126314623.752 7  24036875.620    98426987.38945
 16  1 15  0  6 39.0000000  0 10G02G03G06G07G09G16G23G26G27G32
  25816060.020   135664311.390 5  25816057.220   105712433.54643
  21316474.640   112018878.505 9  21316476.040    87287466.28248
  24187202.480   127104612.099 7  24187205.760    99042574.41345
  23012614.080   120932127.995 8  23012613.660    94232846.25747
  21760941.460   114354563.686 9  21760942.320    89107481.39448
  21153907.840   111164601.000 9  21153906.040    86621793.84948
  20574758.680   108121170.699 9  20574754.900    84250300.15349
  22708585.200   119334499.564 8  22708587.200    92987962.13947
  25606107.020   134561000.056 4  25606110.880   104852743.10644
  24037535.680   126318101.511 7  24037537.420    98429697.32345
 16  1 15  0  6 40.0000000  0 10G02G03G06G07G09G16G23G26G27G32
  25815842.660   135663169.092 5  25815839.980   105711543.45743
  21316957.140   112021413.984 9  21316958.520    87289441.97748
  24187348.800   127105381.032 7  24187352.080    99043173.57545
  23012135.620   120929613.581 8  23012135.160    94230886.97647
  21760532.340   114352413.735 9  21760533.180    89105806.10848
  21153927.600   111164704.884 9  21153925.820    86621874.79748
  20574634.340   108120517.324 9  20574630.580    84249791.03049
  22708970.860   119336526.202 8  22708972.860    92989541.33847
  25605619.200   134558436.284 5  25605622.940   104850745.41545
  24038197.500   126321579.412 7  24038199.220    98432407.36945
 16  1 15  0  6 41.0000000  0 10G02G03G06G07G09G16G23G26G27G32
  25815625.340   135662027.010 5  25815622.740   105710653.51843
  21317439.660   112023949.630 9  21317441.040    87291417.80448
  24187495.160   127106150.162 7  24187498.480    99043772.88945
  23011657.120   120927099.105 8  23011656.680    94228927.64747
  21760123.180   114350263.632 9  21760124.040    89104130.70348
  21153947.460   111164809.207 9  21153945.660    86621956.08648
  20574510.020   108119863.932 9  20574506.240    84249281.89549
  22709356.560   119338553.080 8  22709358.560    92991120.72647
  25605131.320   134555872.155 5  25605135.140   104848747.38644
  24038859.300   126325057.131 7  24038861.000    98435117.27645
 16  1 15  0  6 42.0000000  0 10G02G03G06G07G09G16G23G26G27G32
  25815408.000   135660884.930 5  25815405.460   105709763.58843
  21317922.200   112026485.405 9  21317923.580    87293393.73548
  24187641.560   127106919.496 7  24187644.880    99044372.36645
  23011178.620   120924584.510 8  23011178.160    94226968.22747
  21759714.000   114348113.342 9  21759714.840    89102455.15548
  21153967.380   111164913.917 9  21153965.580    86622037.67548
  20574385.660   108119210.497 9  20574381.900    84248772.72549
  22709742.320   119340580.152 8  22709744.300    92992700.26247
  25604643.260   134553307.572 5  25604646.980   104846748.99144
  24039521.060   126328534.654 7  24039522.740    98437827.02845
 16  1 15  0  6 43.0000000  0 10G02G03G06G07G09G16G23G26G27G32
  25815190.760   135659743.387 4  25815188.200   105708874.07042
  21318404.840   112029021.614 9  21318406.200    87295370.00148
  24187788.060   127107689.322 7  24187791.360    99044972.24145
  23010700.160   120922070.141 8  23010699.700    94225008.97847
  21759304.840   114345963.187 9  21759305.680    89100779.71148
  21153987.440   111165019.325 9  21153985.640    86622119.81448
  20574261.380   108118557.320 9  20574257.600    84248263.75849
  22710128.160   119342607.723 8  22710130.140    92994280.19047
  25604155.220   134550742.881 5  25604159.160   104844750.5414
  24040182.840   126332012.263 7  24040184.500    98440536.84545
 16  1 15  0  6 44.0000000  0 10G02G03G06G07G09G16G23G26G27G32
  25814973.600   135658602.290 4
  21318887.560   112031558.296 9  21318888.920    87297346.63748
  24187934.660   127108459.658 7  24187937.920    99045572.51044
  23010221.740   120919555.980 8  23010221.280    94223049.89846
  21758895.700   114343813.171 9  21758896.560    89099104.37448
  21154007.640   111165125.458 9  21154005.860    86622202.51348
  20574137.120   108117904.416 9  20574133.360    84247755.00249
  22710514.100   119344635.823 8  22710516.060    92995860.52947
  25603667.140   134548178.179 5  25603671.240   104842752.05844
  24040844.640   126335489.985 7  24040846.280    98443246.76244
 16  1 15  0  6 45.0000000  0 10G02G03G06G07G09G16G23G26G27G32
  25814756.540   135657461.648 4  25814755.140   105707105.96853
  21319370.360   112034095.369 9  21319371.720    87299323.57748
  24188081.340   127109230.443 7  24188084.620    99046173.12045
  23009743.340   120917041.986 8  23009742.860    94221090.94247
  21758486.580   114341663.241 9  21758487.440    89097429.10848
  21154027.960   111165232.261 9  21154026.180    86622285.73848
  20574012.920   108117251.724 9  20574009.140    84247246.41349
  22710900.120   119346664.369 8  22710902.080    92997441.21547
  25603179.020   134545613.283 5  25603182.900   104840753.42943
  24041506.460   126338967.778 7  24041508.100    98445956.73345
 16  1 15  0  6 46.0000000  0 10G02G03G06G07G09G16G23G26G27G32
  25814540.060   135656323.888 4  25814538.580   105706219.59043
  21319853.700   112036635.288 9  21319855.040    87301302.73248
  24188228.580   127110004.105 7  24188231.820    99046775.97345
  23009265.440   120914530.610 8  23009264.980    94219134.02746
  21758077.940   114339515.831 9  21758078.800    89095755.80448
  21154048.880   111165342.152 9  21154047.080    86622371.37248
  20573889.220   108116601.700 9  20573885.460    84246739.90149
  22711286.700   119348695.821 8  22711288.660    92999024.16547
  25602691.360   134543050.644 4  25602695.700   104838756.58442
  24042168.740   126342448.064 7  24042170.420    98448668.64845
 16  1 15  0  6 47.0000000  0 10G02G03G06G07G09G16G23G26G27G32
  25814324.680   135655191.898 5  25814323.020   105705337.47844
  21320338.160   112039181.072 9  21320339.500    87303286.46048
  24188376.920   127110783.702 7  24188380.160    99047383.45245
  23008788.620   120912024.867 8  23008788.160    94217181.50346
  21757670.360   114337373.976 9  21757671.220    89094086.82348
  21154070.960   111165458.183 9  21154069.160    86622461.78648
  20573766.620   108115957.364 9  20573762.840    84246237.82349
  22711674.400   119350733.214 8  22711676.340    93000611.74647
  25602204.600   134540493.312 4  25602209.240   104836763.86644
  24042832.080   126345933.871 7  24042833.740    98451384.85845
 16  1 15  0  6 48.0000000  0 10G02G03G06G07G09G16G23G26G27G32
  25814109.780   135654062.473 5  25814107.800   105704457.38943
  21320823.080   112041729.323 9  21320824.420    87305272.10848
  24188525.780   127111565.836 7  24188529.000    99047992.90745
  23008312.220   120909521.350 8  23008311.740    94215230.71847
  21757263.200   114335234.270 9  21757264.040    89092419.51848
  21154093.560   111165576.955 9  21154091.780    86622554.33548
  20573644.420   108115315.315 9  20573640.680    84245737.52749
  22712062.600   119352773.148 8  22712064.520    93002201.30647
  25601718.300   134537937.965 5  25601722.760   104834772.68445
  24043495.820   126349421.780 7  24043497.440    98454102.69645
 16  1 15  0  6 49.0000000  0 10G02G03G06G07G09G16G23G26G27G32
  25813894.780   135652932.806 5  25813892.820   105703577.0394
  21321307.980   112044277.405 9  21321309.300    87307257.62548
  24188674.620   127112347.835 7  24188677.840    99048602.25545
  23007835.740   120907017.428 8  23007835.280    94213279.61047
  21756855.920   114333094.096 9  21756856.780    89090751.85448
  21154116.160   111165695.811 9  21154114.400    86622646.95048
  20573522.180   108114672.918 9  20573518.420    84245236.96049
  22712450.760   119354812.964 8  22712452.700    93003790.76947
  25601231.860   134535381.871 5  25601236.280   104832780.94944
  24044159.480   126352909.203 7  24044161.080    98456820.16745
 16  1 15  0  6 50.0000000  0 10G02G03G06G07G09G16G23G26G27G32
  25813679.640   135651802.224 4  25813677.700   105702696.06544
  21321792.680   112046824.524 9  21321794.000    87309242.39248
  24188823.260   127113128.938 7  24188826.440    99049210.90644
  23007359.020   120904512.334 8  23007358.580    94211327.59147
  21756448.420   114330952.643 9  21756449.280    89089083.18548
  21154138.640   111165813.975 9  21154136.880    86622739.02648
  20573399.720   108114029.387 9  20573395.960    84244735.50749
  22712838.760   119356851.878 8  22712840.680    93005379.53647
  25600745.160   134532824.250 5  25600749.760   104830788.00044
  24044822.900   126356395.325 8  24044824.460    98459536.62645
 16  1 15  0  6 51.0000000  0 10G02G03G06G07G09G16G23G26G27G32
  25813464.300   135650670.513 5  25813462.600   105701814.20843
  21322277.180   112049370.541 9  21322278.500    87311226.30248
  24188971.720   127113908.995 7  24188974.860    99049818.74845
  23006882.080   120902005.893 8  23006881.600    94209374.52447
  21756040.640   114328809.771 9  21756041.500    89087413.41548
  21154160.960   111165931.289 9  21154159.200    86622830.43948
  20573277.020   108113384.560 9  20573273.260    84244233.04849
  22713226.580   119358889.768 8  22713228.480    93006967.49947
  25600258.120   134530265.016 5  25600262.800   104828793.83544
  24045486.020   126359879.971 8  24045487.540    98462251.94045
 16  1 15  0  6 52.0000000  0 10G02G03G06G07G09G16G23G26G27G32
  25813248.740   135649537.690 5  25813247.040   105700931.4914
  21322761.440   112051915.368 9  21322762.760    87313209.28248
  24189119.940   127114687.907 7  24189123.080    99050425.68644
  23006404.840   120899498.022 8  23006404.380    94207420.33847
  21755632.580   114326665.388 9  21755633.440    89085742.46948
  21154183.120   111166047.683 9  21154181.360    86622921.13848
  20573154.040   108112738.366 9  20573150.280    84243729.51949
  22713614.160   119360926.506 8  22713616.040    93008554.57147
  25599770.780   134527704.062 5  25599775.600   104826798.30044
  24046148.860   126363363.119 8  24046150.360    98464966.08345
 16  1 15  0  6 53.0000000  0 10G02G03G06G07G09G16G23G26G27G32
  25813033.000   135648403.901 4  25813031.180   105700048.03044
  21323245.540   112054459.234 9  21323246.860    87315191.51748
  24189267.980   127115465.923 7  24189271.120    99051031.93045
  23005927.380   120896988.979 8  23005926.920    94205465.24047
  21755224.280   114324519.765 9  21755225.140    89084070.55748
  21154205.120   111166163.388 9  21154203.380    86623011.29648
  20573030.860   108112091.051 9  20573027.100    84243225.11949
  22714001.580   119362962.375 8  22714003.440    93010140.96647
  25599283.100   134525141.593 5  25599288.180   104824801.5514
  24046811.460   126366844.929 8  24046812.960    98467679.18645
 16  1 15  0  6 54.0000000  0 10G02G03G06G07G09G16G23G26G27G32
  25812817.140   135647269.628 5  25812815.800   105699164.1694
  21323729.520   112057002.568 9  21323730.840    87317173.33448
  24189415.940   127116243.456 7  24189419.080    99051637.79745
  23005449.780   120894479.132 8  23005449.320    94203509.51747
  21754815.820   114322373.262 9  21754816.680    89082397.95948
  21154227.080   111166278.807 9  21154225.340    86623101.23548
  20572907.540   108111443.000 9  20572903.780    84242720.14749
  22714388.900   119364997.740 8  22714390.760    93011726.96747
  25598795.320   134522578.082 5  25598800.340   104822804.02044
  24047473.860   126370325.851 8  24047475.340    98470391.58945
 16  1 15  0  6 55.0000000  0 10G02G03G06G07G09G16G23G26G27G32
  25812601.200   135646134.776 5  25812599.780   105698279.8904
  21324213.400   112059545.378 9  21324214.720    87319154.74648
  24189563.820   127117020.518 7  24189566.900    99052243.30245
  23004972.040   120891968.552 8  23004971.580    94201553.22546
  21754407.180   114320225.931 9  21754408.060    89080724.71248
  21154249.000   111166393.982 9  21154247.260    86623190.97748
  20572784.080   108110794.266 9  20572780.340    84242214.63849
  22714776.140   119367032.671 8  22714777.980    93013312.62547
  25598307.340   134520013.493 5  25598312.300   104820805.63343
  24048136.140   126373805.944 8  24048137.580    98473103.34345
 16  1 15  0  6 56.0000000  0 10G02G03G06G07G09G16G23G26G27G32
  25812385.120   135644999.423 5  25812383.740   105697395.24444
  21324697.200   112062087.727 9  21324698.520    87321135.79748
  24189711.580   127117797.152 7  24189714.660    99052848.46945
  23004494.160   120889457.265 8  23004493.680    94199596.38447
  21753998.420   114318077.825 9  21753999.300    89079050.86348
  21154270.880   111166508.951 9  21154269.140    86623280.56648
  20572660.500   108110144.883 9  20572656.780    84241708.62749
  22715163.300   119369067.210 8  22715165.140    93014897.98347
  25597819.100   134517447.861 5  25597823.860   104818806.42144
  24048798.240   126377285.218 8  24048799.660    98475814.46045
 16  1 15  0  6 57.0000000  0 10G02G03G06G07G09G16G23G26G27G32
  25812169.040   135643863.936 5  25812167.720   105696510.48044
  21325180.980   112064629.874 9  21325182.280    87323116.68948
  24189859.360   127118573.672 7  24189862.460    99053453.54045
  23004016.200   120886945.539 8  23004015.700    94197639.19347
  21753589.540   114315929.193 9  21753590.420    89077376.60748
  21154292.760   111166623.973 9  21154291.040    86623370.18948
  20572536.860   108109495.098 9  20572533.120    84241202.30349
  22715550.440   119371101.579 8  22715552.260    93016483.20147
  25597330.740   134514881.560 5  25597335.440   104816806.67744
  24049460.240   126380763.921 7  24049461.640    98478525.13745
 16  1 15  0  6 58.0000000  0 10G02G03G06G07G09G16G23G26G27G32
  25811952.940   135642728.352 5  25811951.800   105695625.61744
  21325664.700   112067171.921 9  21325666.020    87325097.50548
  24190007.120   127119350.125 7  24190010.180    99054058.57045
  23003538.160   120884433.488 8  23003537.660    94195681.75547
  21753180.600   114313780.165 9  21753181.460    89075702.03948
  21154314.680   111166739.153 9  21154312.960    86623459.94648
  20572413.140   108108845.058 9  20572409.420    84240695.78049
  22715937.560   119373135.927 8  22715939.360    93018068.40947
  25596842.240   134512314.533 5  25596846.640   104814806.39043
  24050122.140   126384242.221 8  24050123.540    98481235.49945
 16  1 15  0  6 59.0000000  0 10G02G03G06G07G09G16G23G26G27G32
  25811736.880   135641593.141 5  25811735.820   105694741.04344
  21326148.520   112069714.373 9  21326149.840    87327078.63648
  24190154.960   127120127.042 7  24190158.040    99054663.96945
  23003060.160   120881921.625 8  23003059.660    94193724.46647
  21752771.660   114311631.226 9  21752772.540    89074027.54448
  21154336.720   111166855.014 9  21154335.000    86623550.22748
  20572289.500   108108195.236 9  20572285.760    84240189.42549
  22716324.780   119375170.745 8  22716326.580    93019653.98447
  25596353.720   134509747.361 4  25596358.120   104812806.02344
  24050784.080   126387720.576 7  24050785.440    98483945.90445
 16  1 15  0  7  0.0000000  0 10G02G03G06G07G09G16G23G26G27G32
  25811520.900   135640458.269 5  25811519.860   105693856.74144
  21326632.380   112072257.090 9  21326633.700    87329059.97448
  24190302.880   127120904.294 7  24190305.920    99055269.62345
  23002582.180   120879409.774 8  23002581.680    94191767.18347
  21752362.720   114309482.242 9  21752363.600    89072353.01548
  21154358.860   111166971.394 9  21154357.160    86623640.91348
  20572165.860   108107545.503 9  20572162.120    84239683.14249
  22716712.060   119377205.897 8  22716713.860    93021239.81447
  25595865.140   134507179.898 4  25595869.460   104810805.35145
  24051446.000   126391198.858 8  24051447.340    98486656.25345
 16  1 15  0  7  1.0000000  0 10G02G03G06G07G09G16G23G26G27G32
  25811304.800   135639322.566 5  25811303.700   105692971.77444
  21327116.100   112074799.027 9  21327117.420    87331040.70248
  24190450.640   127121680.780 7  24190453.680    99055874.68045
  23002103.980   120876896.910 8  23002103.500    94189809.10547
  21751953.560   114307332.160 9  21751954.440    89070677.62648
  21154380.920   111167087.265 9  21154379.220    86623731.20248
  20572042.020   108106894.804 9  20572038.300    84239176.10449
  22717099.200   119379240.305 8  22717101.000    93022825.06147
  25595376.300   134504611.144 4  25595380.460   104808803.76644
  24052107.680   126394676.002 7  24052109.020    98489365.71645
 16  1 15  0  7  2.0000000  0 10G02G03G06G07G09G16G23G26G27G32
  25811088.020   135638183.427 5  25811086.800   105692084.1314
  21327599.140   112077337.406 9  21327600.460    87333018.66448
  24190597.740   127122453.788 7  24190600.800    99056477.01944
  23001625.100   120874380.276 8  23001624.600    94187848.09647
  21751543.680   114305178.223 9  21751544.560    89068999.23248
  21154402.360   111167199.857 9  21154400.640    86623818.93448
  20571917.480   108106240.386 9  20571913.780    84238666.17249
  22717485.660   119381271.255 8  22717487.460    93024407.62447
  25594886.680   134502038.305 4  25594890.880   104806799.04241
  24052768.640   126398149.280 7  24052769.980    98492072.16945
 16  1 15  0  7  3.0000000  0 10G02G03G06G07G09G16G23G26G27G32
  25810871.020   135637043.258 5  25810869.920   105691195.66343
  21328082.000   112079874.845 9  21328083.320    87334995.88548
  24190744.680   127123225.892 7  24190747.800    99057078.64745
  23001145.960   120871862.447 8  23001145.480    94185886.15347
  21751133.560   114303023.010 9  21751134.440    89067319.84748
  21154423.640   111167311.752 9  21154421.920    86623906.12748
  20571792.740   108105584.839 9  20571789.020    84238155.35449
  22717871.980   119383301.310 8  22717873.760    93025989.48447
  25594396.780   134499463.948 4  25594401.220   104804793.08643
  24053429.340   126401621.232 7  24053430.680    98494777.58446
 16  1 15  0  7  4.0000000  0 10G02G03G06G07G09G16G23G26G27G32
  25810654.220   135635903.858 4  25810653.100   105690307.78944
  21328565.000   112082412.988 9  21328566.320    87336973.65948
  24190891.740   127123998.795 7  24190894.900    99057680.91145
  23000666.940   120869345.111 8  23000666.440    94183924.59147
  21750723.520   114300868.211 9  21750724.400    89065640.78548
  21154445.120   111167424.636 9  21154443.420    86623994.08848
  20571668.080   108104929.828 9  20571664.380    84237644.96049
  22718258.440   119385332.126 8  22718260.220    93027571.93947
  25593906.940   134496889.824 4  25593911.680   104802787.28845
  24054090.140   126405093.592 7  24054091.420    98497483.32145
 16  1 15  0  7  5.0000000  0 10G02G03G06G07G09G16G23G26G27G32
  25810437.680   135634766.025 5  25810436.560   105689421.15343
  21329048.320   112084952.775 9  21329049.620    87338952.71448
  24191039.140   127124773.335 7  24191042.280    99058284.45045
  23000188.180   120866829.177 8  23000187.680    94181964.12847
  21750313.720   114298714.735 9  21750314.600    89063962.75048
  21154466.960   111167539.432 9  21154465.260    86624083.54048
  20571543.720   108104276.269 9  20571540.000    84237135.69649
  22718645.220   119387364.655 8  22718646.980    93029155.72847
  25593417.300   134494316.738 5  25593422.220   104800782.27344
  24054751.180   126408567.252 7  24054752.420    98500190.06445
 16  1 15  0  7  6.0000000  0 10G02G03G06G07G09G16G23G26G27G32
  25810221.560   135633630.409 5  25810220.620   105688536.2784
  21329532.020   112087494.670 9  21329533.340    87340933.40948
  24191186.940   127125550.110 7  24191190.140    99058889.72445
  22999709.780   120864315.118 8  22999709.260    94180005.12547
  21749904.260   114296563.045 9  21749905.140    89062286.11048
  21154489.260   111167656.593 9  21154487.560    86624174.83648
  20571419.720   108103624.642 9  20571416.000    84236627.93449
  22719032.420   119389399.342 8  22719034.180    93030741.20447
  25592927.940   134491745.283 5  25592932.940   104798778.52244
  24055412.520   126412042.648 7  24055413.760    98502898.16045
 16  1 15  0  7  7.0000000  0 10G02G03G06G07G09G16G23G26G27G32
  25810005.840   135632496.787 5  25810004.840   105687652.87741
  21330016.140   112090038.627 9  21330017.440    87342915.71548
  24191335.160   127126328.946 7  24191338.360    99059496.60245
  22999231.700   120861802.906 8  22999231.200    94178047.55847
  21749495.140   114294413.131 9  21749496.040    89060610.85248
  21154512.000   111167776.087 9  21154510.280    86624267.94748
  20571296.080   108102974.912 9  20571292.360    84236121.65149
  22719420.040   119391436.181 8  22719421.780    93032328.35147
  25592438.920   134489175.321 5  25592443.840   104796775.86444
  24056074.220   126415519.800 7  24056075.460    98505607.62745
 16  1 15  0  7  8.0000000  0 10G02G03G06G07G09G16G23G26G27G32
  25809790.460   135631365.087 5  25809789.500   105686771.04944
  21330500.580   112092584.450 9  21330501.880    87344899.47248
  24191483.720   127127109.723 7  24191486.940    99060104.99045
  22998753.960   120859292.318 8  22998753.460    94176091.26047
  21749086.320   114292264.751 9  21749087.200    89058936.78948
  21154535.140   111167897.715 9  21154533.440    86624362.72448
  20571172.740   108102326.859 9  20571169.040    84235616.67249
  22719808.000   119393474.937 8  22719809.740    93033916.99347
  25591950.080   134486606.668 5  25591954.920   104794774.28543
  24056736.200   126418998.452 8  24056737.420    98508318.26145
 16  1 15  0  7  9.0000000  0 10G02G03G06G07G09G16G23G26G27G32
  25809575.380   135630234.876 5  25809574.280   105685890.42642
  21330985.340   112095131.821 9  21330986.640    87346884.43448
  24191632.600   127127892.088 7  24191635.840    99060714.62545
  22998276.460   120856783.036 8  22998275.960    94174135.97947
  21748677.740   114290117.618 9  21748678.620    89057263.69748
  21154558.620   111168021.138 9  21154556.920    86624458.89948
  20571049.680   108101680.177 9  20571045.980    84235112.76649
  22720196.260   119395515.305 8  22720198.000    93035506.88947
  25591461.480   134484039.034 5  25591466.280   104792773.54044
  24057398.420   126422478.303 7  24057399.620    98511029.82646
 16  1 15  0  7 10.0000000  0 10G02G03G06G07G09G16G23G26G27G32
  25809360.520   135629105.892 5  25809359.420   105685010.67845
  21331470.300   112097680.355 9  21331471.620    87348870.30348
  24191781.700   127128675.682 7  24191784.940    99061325.22645
  22997799.120   120854274.692 8  22997798.640    94172181.42547
  21748269.300   114287971.322 9  21748270.180    89055591.26348
  21154582.380   111168145.997 9  21154580.680    86624556.19248
  20570926.820   108101034.483 9  20570923.120    84234609.63049
  22720584.760   119397556.883 8  22720586.500    93037097.73247
  25590973.040   134481471.975 5  25590977.700   104790773.2634
  24058060.780   126425958.970 8  24058061.960    98513742.03245
 16  1 15  0  7 11.0000000  0 10G02G03G06G07G09G16G23G26G27G32
  25809145.840   135627977.841 5  25809144.500   105684131.68843
  21331955.460   112100229.852 9  21331956.760    87350856.92148
  24191931.020   127129460.301 7  24191934.300    99061936.62145
  22997321.940   120851767.091 8  22997321.460    94170227.45347
  21747861.000   114285825.696 9  21747861.900    89053919.34748
  21154606.380   111168272.076 9  21154604.680    86624654.43548
  20570804.080   108100389.574 9  20570800.400    84234107.10649
  22720973.460   119399599.505 8  22720975.160    93038689.38747
  25590484.620   134478905.416 6  25590489.360   104788773.41043
  24058723.260   126429440.229 7  24058724.420    98516454.69545
 16  1 15  0  7 12.0000000  0 10G02G03G06G07G09G16G23G26G27G32
  25808931.340   135626850.706 5  25808929.960   105683253.38543
  21332440.780   112102780.202 9  21332442.100    87352844.20948
  24192080.480   127130245.813 6  24192083.820    99062548.70945
  22996844.880   120849260.090 8  22996844.380    94168273.95347
  21747452.800   114283680.609 9  21747453.680    89052247.85048
  21154630.580   111168399.282 9  21154628.880    86624753.55748
  20570681.500   108099745.341 9  20570677.800    84233605.10849
  22721362.320   119401643.036 8  22721364.040    93040281.75347
  25589996.320   134476339.130 5  25590000.940   104786773.75444
  24059385.840   126432922.034 7  24059387.000    98519167.79745
 16  1 15  0  7 13.0000000  0 10G02G03G06G07G09G16G23G26G27G32
  25808716.940   135625724.079 4  25808715.540   105682375.52243
  21332926.200   112105331.070 9  21332927.500    87354831.89648
  24192230.060   127131031.922 7  24192233.380    99063161.26545
  22996367.860   120846753.391 8  22996367.380    94166320.68147
  21747044.640   114281535.724 9  21747045.520    89050576.51048
  21154654.940   111168527.258 9  21154653.240    86624853.27648
  20570558.960   108099101.447 9  20570555.280    84233103.37249
  22721751.300   119403687.153 8  22721753.020    93041874.57147
  25589507.960   134473772.820 5  25589512.680   104784774.04842
  24060048.440   126436404.007 7  24060049.620    98521881.02545
 16  1 15  0  7 14.0000000  0 10G02G03G06G07G09G16G23G26G27G32
  25808502.640   135624597.941 5  25808501.520   105681497.98743
  21333411.700   112107882.421 9  21333413.020    87356819.96448
  24192379.760   127131818.514 7  24192383.100    99063774.18645
  22995890.900   120844246.944 8  22995890.420    94164367.61247
  21746636.520   114279391.013 9  21746637.400    89048905.30848
  21154679.440   111168655.988 9  21154677.740    86624953.58548
  20570436.500   108098457.855 9  20570432.820    84232601.87449
  22722140.380   119405731.822 8  22722142.100    93043467.82447
  25589019.580   134471206.458 5  25589024.060   104782774.29642
  24060711.080   126439886.086 7  24060712.240    98524594.32645
 16  1 15  0  7 15.0000000  0 10G02G03G06G07G09G16G23G26G27G32
  25808288.480   135623472.305 5  25808286.980   105680620.84541
  21333897.300   112110434.266 9  21333898.620    87358808.41348
  24192529.540   127132605.697 7  24192532.920    99064387.57545
  22995414.000   120841740.757 8  22995413.500    94162414.74347
  21746228.440   114277246.496 9  21746229.300    89047234.25648
  21154704.080   111168785.485 9  21154702.380    86625054.49448
  20570314.080   108097814.586 9  20570310.400    84232100.62849
  22722529.580   119407777.047 8  22722531.300    93045061.50247
  25588531.220   134468640.059 5  25588535.660   104780774.5214
  24061373.740   126443368.356 7  24061374.880    98527307.78445
 16  1 15  0  7 16.0000000  0 10G02G03G06G07G09G16G23G26G27G32
  25808074.420   135622347.299 5  25808072.880   105679744.2074
  21334383.020   112112986.737 9  21334384.340    87360797.35148
  24192679.480   127133393.537 7  24192682.840    99065001.47745
  22994937.160   120839234.964 8  22994936.660    94160462.17747
  21745820.400   114275102.281 9  21745821.280    89045563.43748
  21154728.900   111168915.863 9  21154727.200    86625156.08948
  20570191.760   108097171.753 9  20570188.060    84231599.71949
  22722918.900   119409822.967 8  22722920.620    93046655.72547
  25588042.880   134466073.707 5  25588047.080   104778774.81543
  24062036.460   126446850.884 7  24062037.580    98530021.44245
 16  1 15  0  7 17.0000000  0 10G02G03G06G07G09G16G23G26G27G32
  25807860.360   135621222.605 5  25807858.820   105678867.82144
  21334868.800   112115539.501 9  21334870.120    87362786.51448
  24192829.460   127134181.758 7  24192832.820    99065615.67745
  22994460.320   120836729.232 8  22994459.840    94158509.66347
  21745412.360   114272958.043 9  21745413.240    89043892.60248
  21154753.820   111169046.805 9  21154752.120    86625258.12048
  20570069.440   108096529.036 9  20570065.760    84231098.90149
  22723308.280   119411869.209 8  22723310.000    93048250.19947
  25587554.460   134463507.156 5  25587558.580   104776774.89341
  24062699.140   126450333.343 7  24062700.260    98532735.04645
 16  1 15  0  7 18.0000000  0 10G02G03G06G07G09G16G23G26G27G32
  25807646.420   135620098.193 5  25807644.860   105677991.68242
  21335354.620   112118092.521 9  21335355.960    87364775.88448
  24192979.500   127134970.263 6  24192982.880    99066230.09445
  22993983.520   120834223.550 8  22993983.020    94156557.18547
  21745004.320   114270813.773 9  21745005.200    89042221.74448
  21154778.840   111169178.278 9  21154777.140    86625360.56948
  20569947.160   108095886.406 9  20569943.480    84230598.15249
  22723697.740   119413915.811 8  22723699.460    93049844.95547
  25587066.040   134460940.307 5  25587069.960   104774774.75543
  24063361.860   126453815.782 7  24063362.920    98535448.63145
 16  1 15  0  7 19.0000000  0 10G02G03G06G07G09G16G23G26G27G32
  25807432.500   135618974.223 5  25807430.980   105677115.87343
  21335840.540   112120646.022 9  21335841.860    87366765.62548
  24193129.640   127135759.317 6  24193133.040    99066844.94446
  22993506.740   120831718.088 8  22993506.260    94154604.87947
  21744596.320   114268669.645 9  21744597.180    89040550.99748
  21154804.000   111169310.479 9  21154802.300    86625463.58348
  20569824.920   108095244.067 9  20569821.240    84230097.62849
  22724087.280   119415962.934 8  22724089.000    93051440.11347
  25586577.620   134458373.427 5  25586581.300   104772774.5794
  24064024.580   126457298.318 7  24064025.620    98538162.29545
 16  1 15  0  7 20.0000000  0 10G02G03G06G07G09G16G23G26G27G32
  25807218.760   135617850.754 4  25807217.080   105676240.43344
  21336326.540   112123200.000 9  21336327.880    87368755.73048
  24193279.880   127136548.871 6  24193283.300    99067460.17644
  22993030.020   120829212.868 8  22993029.540    94152652.76047
  21744188.340   114266525.701 9  21744189.200    89038880.39448
  21154829.300   111169443.426 9  21154827.600    86625567.17648
  20569702.760   108094602.030 9  20569699.060    84229597.34049
  22724476.940   119418010.596 8  22724478.660    93053035.69847
  25586089.140   134455806.458 5  25586092.660   104770774.33743
  24064687.320   126460780.995 7  24064688.380    98540876.06845
 16  1 15  0  7 21.0000000  0 10G02G03G06G07G09G16G23G26G27G32
  25807005.100   135616727.913 5  25807003.120   105675365.5104
  21336812.680   112125754.560 9  21336814.000    87370746.29848
  24193430.240   127137339.070 6  24193433.660    99068075.92245
  22992553.360   120826708.013 8  22992552.860    94150700.92547
  21743780.400   114264382.022 9  21743781.280    89037209.99548
  21154854.760   111169577.222 9  21154853.060    86625671.43448
  20569580.640   108093960.409 9  20569576.960    84229097.37549
  22724866.720   119420058.903 8  22724868.440    93054631.78147
  25585600.640   134453239.555 4  25585603.920   104768774.18943
  24065350.100   126464263.896 7  24065351.160    98543590.01845
 16  1 15  0  7 22.0000000  0 10G02G03G06G07G09G16G23G26G27G32
  25806791.480   135615605.472 5  25806789.700   105674490.87043
  21337298.860   112128309.548 9  21337300.200    87372737.19548
  24193580.680   127138129.772 6  24193584.140    99068692.05145
  22992076.740   120824203.335 8  22992076.240    94148749.23447
  21743372.500   114262238.464 9  21743373.380    89035539.69048
  21154880.360   111169711.722 9  21154878.660    86625776.24148
  20569458.600   108093319.040 9  20569454.920    84228597.60949
  22725256.580   119422107.708 8  22725258.320    93056228.25047
  25585112.140   134450672.470 4  25585115.400   104766773.90643
  24066012.900   126467746.897 7  24066013.960    98546304.04345
 16  1 15  0  7 23.0000000  0 10G02G03G06G07G09G16G23G26G27G32
  25806578.000   135614483.598 5  25806576.160   105673616.6384
  21337785.180   112130865.085 9  21337786.500    87374728.52549
  24193731.260   127138921.062 6  24193734.720    99069308.64745
  22991600.180   120821698.995 8  22991599.680    94146797.80247
  21742964.620   114260095.140 9  21742965.520    89033869.56748
  21154906.120   111169847.023 9  21154904.400    86625881.67148
  20569336.620   108092678.049 9  20569332.940    84228098.13749
  22725646.580   119424157.122 8  22725648.300    93057825.19447
  25584623.620   134448105.411 4  25584626.940   104764773.5744
  24066675.740   126471230.100 7  24066676.800    98549018.22545
 16  1 15  0  7 24.0000000  0 10G02G03G06G07G09G16G23G26G27G32
  25806364.560   135613362.110 4  25806362.720   105672742.73744
  21338271.540   112133420.966 9  21338272.860    87376720.12148
  24193881.900   127139712.754 6  24193885.360    99069925.54645
  22991123.640   120819194.795 8  22991123.140    94144846.48147
  21742556.780   114257951.877 9  21742557.660    89032199.49048
  21154931.980   111169982.953 9  21154930.280    86625987.59248
  20569214.680   108092037.237 9  20569211.000    84227598.80549
  22726036.640   119426206.958 8  22726038.360    93059422.46847
  25584135.100   134445538.227 4  25584138.080   104762773.22643
  24067338.580   126474713.321 7  24067339.620    98551732.41745
 16  1 15  0  7 25.0000000  0 10G02G03G06G07G09G16G23G26G27G32
  25806151.180   135612240.820 4  25806149.200   105671868.96943
  21338757.960   112135977.162 9  21338759.300    87378711.96048
  24194032.600   127140504.806 6  24194036.080    99070542.72745
  22990647.120   120816690.641 8  22990646.600    94142895.19547
  21742148.920   114255808.605 9  21742149.800    89030529.40848
  21154957.960   111170119.439 9  21154956.240    86626093.94548
  20569092.760   108091396.556 9  20569089.080    84227099.57449
  22726426.780   119428257.158 8  22726428.500    93061020.02647
  25583646.480   134442970.795 4  25583650.040   104760772.64842
  24068001.420   126478196.514 7  24068002.440    98554446.59145
 16  1 15  0  7 26.0000000  0 10G02G03G06G07G09G16G23G26G27G32
  25805937.920   135611120.089 4  25805935.920   105670995.71841
  21339244.480   112138533.753 9  21339245.800    87380704.10848
  24194183.420   127141297.326 6  24194186.860    99071160.27745
  22990170.640   120814186.667 8  22990170.120    94140944.04647
  21741741.080   114253665.420 9  21741741.980    89028859.39448
  21154984.060   111170256.598 9  21154982.360    86626200.82248
  20568970.880   108090756.098 9  20568967.200    84226600.51649
  22726817.000   119430307.823 8  22726818.720    93062617.94447
  25583157.880   134440403.245 4  25583161.700   104758772.03846
  24068664.260   126481679.738 7  24068665.280    98557160.79445
 16  1 15  0  7 27.0000000  0 10G02G03G06G07G09G16G23G26G27G32
  25805724.800   135610000.004 4  25805722.960   105670122.95743
  21339731.100   112141090.979 9  21339732.420    87382696.75048
  24194334.360   127142090.539 6  24194337.800    99071778.36645
  22989694.220   120811683.097 8  22989693.720    94138993.21547
  21741333.300   114251522.548 9  21741334.200    89027189.62548
  21155010.340   111170394.656 9  21155008.620    86626308.40248
  20568849.100   108090116.098 9  20568845.420    84226101.81649
  22727207.360   119432359.178 8  22727209.080    93064216.40747
  25582669.340   134437835.782 4
  24069327.160   126485163.285 7  24069328.180    98559875.24045
 16  1 15  0  7 28.0000000  0 10G02G03G06G07G09G16G23G26G27G32
  25805511.860   135608881.136 5  25805509.880   105669251.11043
  21340217.960   112143649.469 9  21340219.300    87384690.38148
  24194485.540   127142885.064 6  24194489.000    99072397.48445
  22989218.000   120809180.573 8  22989217.500    94137043.19847
  21740925.720   114249380.654 9  21740926.600    89025520.61448
  21155036.900   111170534.251 9  21155035.200    86626417.17548
  20568727.520   108089477.193 9  20568723.840    84225603.96949
  22727597.960   119434411.877 8  22727599.700    93065815.91647
  25582180.820   134435268.968 4
  24069990.240   126488647.733 7  24069991.240    98562590.39345
 16  1 15  0  7 29.0000000  0 10G02G03G06G07G09G16G23G26G27G32
  25805299.340   135607764.412 5  25805297.260   105668380.91144
  21340705.240   112146210.135 9  21340706.580    87386685.70548
  24194637.140   127143681.801 6  24194640.640    99073018.31845
  22988742.160   120806679.983 8  22988741.640    94135094.69247
  21740518.480   114247240.609 9  21740519.360    89023853.05148
  21155063.940   111170676.276 9  21155062.220    86626527.84448
  20568606.320   108088840.283 9  20568602.640    84225107.67949
  22727989.020   119436466.798 8  22727990.740    93067417.15047
  25581692.680   134432703.903 4
  24070653.680   126492134.024 7  24070654.660    98565306.98345
 16  1 15  0  7 30.0000000  0 10G02G03G06G07G09G16G23G26G27G32
  25805087.040   135606648.732 5  25805084.940   105667511.53744
  21341192.680   112148771.728 9  21341194.020    87388681.75048
  24194788.940   127144479.534 6  24194792.480    99073639.92045
  22988266.440   120804180.105 8  22988265.940    94133146.73947
  21740111.360   114245101.189 9  21740112.240    89022185.97148
  21155091.180   111170819.504 9  21155089.480    86626639.45548
  20568485.260   108088204.130 9  20568481.580    84224611.97749
  22728380.240   119438522.723 8  22728381.980    93069019.16947
  25581204.600   134430139.168 4
  24071317.240   126495620.898 7  24071318.180    98568024.03145
 16  1 15  0  7 31.0000000  0 10G02G03G06G07G09G16G23G26G27G32
  25804874.820   135605533.487 5  25804872.600   105666642.52843
  21341680.240   112151333.789 9  21341681.580    87390678.16148
  24194940.840   127145277.789 6  24194944.380    99074261.93545
  22987790.760   120801680.450 8  22987790.260    94131198.96247
  21739704.280   114242961.917 9  21739705.140    89020519.00648
  21155118.580   111170963.456 9  21155116.880    86626751.62548
  20568364.260   108087568.244 9  20568360.560    84224116.48449
  22728771.560   119440579.157 8  22728773.300    93070621.58847
  25580716.540   134427574.384 4
  24071980.780   126499107.887 7  24071981.720    98570741.16245
 16  1 15  0  7 32.0000000  0 10G02G03G06G07G09G16G23G26G27G32
  25804662.560   135604418.113 5  25804660.460   105665773.39344
  21342167.760   112153895.740 9  21342169.100    87392674.48648
  24195092.740   127146076.008 6  24195096.300    99074883.91745
  22987315.020   120799180.459 8  22987314.540    94129250.91347
  21739297.100   114240822.250 9  21739298.000    89018851.73348
  21155146.020   111171107.570 9  21155144.300    86626863.92148
  20568243.200   108086932.083 9  20568239.520    84223620.77249
  22729162.880   119442635.558 8  22729164.620    93072223.98047
  25580228.340   134425008.934 4
  24072644.240   126502594.432 7  24072645.180    98573457.94445
 16  1 15  0  7 33.0000000  0 10G02G03G06G07G09G16G23G26G27G32
  25804450.280   135603302.609 5  25804448.160   105664904.2124
  21342655.240   112156457.528 9  21342656.580    87394670.68048
  24195244.600   127146874.064 6  24195248.180    99075505.78145
  22986839.220   120796680.081 8  22986838.740    94127302.57347
  21738889.860   114238682.090 9  21738890.720    89017184.07548
  21155173.460   111171251.794 9  21155171.740    86626976.30248
  20568122.060   108086295.580 9  20568118.380    84223124.79149
  22729554.160   119444691.866 8  22729555.920    93073826.29847
  25579740.000   134422442.811 4
  24073307.600   126506080.454 7  24073308.540    98576174.32146
 16  1 15  0  7 34.0000000  0 10G02G03G06G07G09G16G23G26G27G32
  25804237.940   135602186.844 5  25804235.900   105664034.79542
  21343142.700   112159019.082 9  21343144.040    87396666.69448
  24195396.440   127147671.994 6  24195400.040    99076127.54945
  22986363.320   120794179.231 8  22986362.840    94125353.86147
  21738482.480   114236541.375 9  21738483.360    89015515.98848
  21155200.900   111171396.026 9  21155199.200    86627088.69548
  20568000.860   108085658.659 9  20567997.180    84222628.49549
  22729945.440   119446747.986 8  22729947.200    93075428.46547
  25579251.540   134419875.913 4
  24073970.880   126509565.920 7  24073971.800    98578890.26245
 16  1 15  0  7 35.0000000  0 10G02G03G06G07G09G16G23G26G27G32
  25804025.640   135601071.184 5  25804023.520   105663165.45143
  21343630.140   112161580.680 9  21343631.500    87398662.74548
  24195548.300   127148469.990 7  24195551.900    99076749.36645
  22985887.380   120791678.212 8  22985886.900    94123405.01947
  21738075.080   114234400.426 9  21738075.940    89013847.71448
  21155228.420   111171540.593 9  21155226.700    86627201.34648
  20567879.640   108085021.633 9  20567875.960    84222132.11349
  22730336.720   119448804.221 8  22730338.500    93077030.72647
  25578762.980   134417308.533 5
  24074634.060   126513051.080 7  24074635.020    98581605.97145
 16  1 15  0  7 36.0000000  0 10G02G03G06G07G09G16G23G26G27G32
  25803813.360   135599955.558 5  25803811.340   105662296.13344
  21344117.600   112164142.316 9  21344118.960    87400658.82748
  24195700.160   127149268.082 7  24195703.760    99077371.26045
  22985411.420   120789176.989 8  22985410.960    94121456.01447
  21737667.600   114232259.188 9  21737668.480    89012179.21948
  21155256.000   111171685.458 9  21155254.280    86627314.22648
  20567758.400   108084384.455 9  20567754.720    84221635.60949
  22730728.020   119450860.547 8  22730729.800    93078633.05947
  25578274.340   134414740.631 4  25578276.180   104738765.0685
  24075297.220   126516535.954 7  24075298.160    98584321.45645
 16  1 15  0  7 37.0000000  0 10G02G03G06G07G09G16G23G26G27G32
  25803601.080   135598839.951 5  25803599.020   105661426.86743
  21344605.080   112166703.982 9  21344606.440    87402654.92948
  24195852.040   127150066.301 7  24195855.680    99077993.25145
  22984935.400   120786675.571 8  22984934.960    94119506.86147
  21737260.100   114230117.693 9  21737260.960    89010510.52248
  21155283.620   111171830.631 9  21155281.900    86627427.34848
  20567637.120   108083747.150 9  20567633.440    84221139.00849
  22731119.360   119452916.990 8  22731121.120    93080235.47947
  25577785.620   134412172.272 4  25577787.460   104736763.81443
  24075960.300   126520020.519 7  24075961.280    98587036.70245
 16  1 15  0  7 38.0000000  0 10G02G03G06G07G09G16G23G26G27G32
  25803388.840   135597724.575 5  25803386.560   105660557.75544
  21345092.600   112169265.878 9  21345093.960    87404651.21148
  24196003.980   127150864.749 6  24196007.620    99078615.41645
  22984459.400   120784174.153 8  22984458.940    94117557.70647
  21736852.560   114227976.093 9  21736853.440    89008841.74248
  21155311.340   111171976.293 9  21155309.620    86627540.85248
  20567515.860   108083109.888 9  20567512.160    84220642.44249
  22731510.740   119454973.711 8  22731512.520    93081838.12147
  25577296.840   134409603.558 4  25577304.500   104734762.1844
  24076623.360   126523504.951 7  24076624.360    98589751.83545
 16  1 15  0  7 39.0000000  0 10G02G03G06G07G09G16G23G26G27G32
  25803176.660   135596609.627 5  25803174.280   105659688.9244
  21345580.180   112171828.154 9  21345581.540    87406647.79048
  24196155.980   127151663.672 6  24196159.680    99079237.95745
  22983983.420   120781672.893 8  22983982.980    94115608.67747
  21736445.040   114225834.579 9  21736445.920    89007173.03248
  21155339.180   111172122.582 9  21155337.460    86627654.84448
  20567394.620   108082472.830 9  20567390.940    84220146.03649
  22731902.180   119457030.873 8  22731903.980    93083441.10747
  25576808.020   134407034.671 4  25576821.540   104732760.5424
  24077286.420   126526989.405 7  24077287.420    98592466.98345
 16  1 15  0  7 40.0000000  0 10G02G03G06G07G09G16G23G26G27G32
  25802964.580   135595495.100 5  25802962.160   105658820.43241
  21346067.860   112174390.896 9  21346069.200    87408644.72948
  24196308.120   127152463.076 6  24196311.820    99079860.86944
  22983507.480   120779171.864 8  22983507.040    94113659.82547
  21736037.560   114223693.218 9  21736038.420    89005504.43948
  21155367.160   111172269.629 9  21155365.440    86627769.42648
  20567273.460   108081836.067 9  20567269.780    84219649.85749
  22732293.740   119459088.569 8  22732295.560    93085044.50647
  25576319.220   134404465.823 4  25576331.720   104730758.75644
  24077949.520   126530474.003 7  24077950.500    98595182.25046
 16  1 15  0  7 41.0000000  0 10G02G03G06G07G09G16G23G26G27G32
  25802752.620   135594381.075 5  25802750.120   105657952.35944
  21346555.600   112176954.076 9  21346556.980    87410642.01148
  24196460.320   127153263.002 7  24196464.040    99080484.17946
  22983031.580   120776671.053 8  22983031.160    94111711.14547
  21735630.100   114221552.001 9  21735630.980    89003835.95648
  21155395.300   111172417.385 9  21155393.560    86627884.56048
  20567152.340   108081199.582 9  20567148.640    84219153.89649
  22732685.380   119461146.770 8  22732687.220    93086648.29747
  25575830.320   134401896.728 4  25575839.700   104728756.91544
  24078612.620   126533958.707 7  24078613.640    98597897.60445
 16  1 15  0  7 42.0000000  0 10G02G03G06G07G09G16G23G26G27G32
  25802540.700   135593267.554 5  25802538.280   105657084.71341
  21347043.460   112179517.743 9  21347044.820    87412639.67148
  24196612.640   127154063.465 7  24196616.380    99081107.91245
  22982555.740   120774170.491 8  22982555.300    94109762.65847
  21735222.660   114219410.963 9  21735223.560    89002167.61548
  21155423.560   111172565.892 9  21155421.840    86628000.28248
  20567031.260   108080563.410 9  20567027.580    84218658.17649
  22733077.140   119463205.516 8  22733078.980    93088252.51547
  25575341.420   134399327.654 4  25575348.740   104726755.0524
  24079275.760   126537443.549 7  24079276.800    98600613.07045
 16  1 15  0  7 43.0000000  0 10G02G03G06G07G09G16G23G26G27G32
  25802328.900   135592154.571 5  25802326.400   105656217.46843
  21347531.420   112182081.958 9  21347532.780    87414637.76348
  24196765.060   127154864.506 7  24196768.800    99081732.09545
  22982079.940   120771670.238 8  22982079.520    94107814.41047
  21734815.280   114217270.148 9  21734816.160    89000499.45048
  21155451.960   111172715.203 9  21155450.240    86628116.62748
  20566910.280   108079927.601 9  20566906.600    84218162.74249
  22733469.020   119465264.870 8  22733470.880    93089857.20647
  25574852.560   134396758.604 5  25574863.460   104724753.17043
  24079938.940   126540928.605 7  24079939.960    98603328.68745
 16  1 15  0  7 44.0000000  0 10G02G03G06G07G09G16G23G26G27G32
  25802117.200   135591042.096 5  25802114.620   105655350.6274
  21348019.460   112184646.655 9  21348020.820    87416636.22648
  24196917.600   127155666.106 6  24196921.320    99082356.71945
  22981604.200   120769170.249 8  22981603.780    94105866.37547
  21734407.940   114215129.515 9  21734408.820    88998831.42648
  21155480.520   111172865.277 9  21155478.820    86628233.56748
  20566789.340   108079292.112 9  20566785.660    84217667.55649
  22733861.000   119467324.792 8  22733862.860    93091462.34047
  25574363.680   134394189.494 5  25574373.920   104722751.2274
  24080602.140   126544413.770 7  24080603.160    98606044.39245
 16  1 15  0  7 45.0000000  0 10G02G03G06G07G09G16G23G26G27G32
  25801905.600   135589930.099 5  25801903.060   105654484.10543
  21348507.600   112187211.824 9  21348508.960    87418635.06148
  24197070.240   127156468.240 7  24197074.000    99082981.77345
  22981128.520   120766670.502 8  22981128.080    94103918.52147
  21734000.620   114212989.055 9  21734001.500    88997163.53548
  21155509.220   111173016.083 9  21155507.500    86628351.08348
  20566668.480   108078656.928 9  20566664.800    84217172.60549
  22734253.060   119469385.207 8  22734254.940    93093067.86047
  25573874.800   134391620.349 5  25573885.280   104720749.29442
  24081265.360   126547899.091 7  24081266.400    98608760.22945
 16  1 15  0  7 46.0000000  0 10G02G03G06G07G09G16G23G26G27G32
  25801694.040   135588818.554 5  25801691.540   105653617.97043
  21348995.800   112189777.377 9  21348997.160    87420634.19148
  24197222.960   127157270.805 6  24197226.720    99083607.15045
  22980652.840   120764170.908 8  22980652.440    94101970.78747
  21733593.300   114210848.666 9  21733594.200    88995495.70148
  21155538.040   111173167.536 9  21155536.320    86628469.09848
  20566547.640   108078021.941 9  20566543.960    84216677.81549
  22734645.240   119471446.106 8  22734647.100    93094673.75147
  25573385.860   134389050.973 5  25573394.240   104718747.2444
  24081928.620   126551384.446 7  24081929.680    98611476.08245
 16  1 15  0  7 47.0000000  0 10G02G03G06G07G09G16G23G26G27G32
  25801482.660   135587707.629 5  25801480.200   105652752.29642
  21349484.140   112192343.600 9  21349485.500    87422633.84148
  24197375.820   127158074.074 7  24197379.560    99084233.07444
  22980177.280   120761671.771 8  22980176.860    94100023.41147
  21733186.080   114208708.634 9  21733186.960    88993828.14448
  21155567.060   111173319.926 9  21155565.320    86628587.84648
  20566426.900   108077387.448 9  20566423.220    84216183.40449
  22735037.540   119473507.717 8  22735039.420    93096280.20147
  25572896.960   134386481.825 5  25572904.300   104716745.34842
  24082591.920   126554870.132 7  24082593.000    98614192.19245
 16  1 15  0  7 48.0000000  0 10G02G03G06G07G09G16G23G26G27G32
  25801271.380   135586597.327 5  25801268.880   105651887.1174
  21349972.580   112194910.396 9  21349973.940    87424633.94248
  24197528.800   127158878.000 7  24197532.520    99084859.51045
  22979701.760   120759172.975 8  22979701.340    94098076.30047
  21732778.900   114206568.881 9  21732779.780    88992160.80648
  21155596.220   111173473.174 9  21155594.500    86628707.25748
  20566306.240   108076753.365 9  20566302.560    84215689.31649
  22735429.980   119475569.992 8  22735431.860    93097887.16747
  25572408.100   134383912.712 5
  24083255.260   126558356.036 7  24083256.320    98616908.47945
 16  1 15  0  7 49.0000000  0 10G02G03G06G07G09G16G23G26G27G32
  25801060.140   135585487.397 5  25801057.680   105651022.19843
  21350461.100   112197477.580 9  21350462.460    87426634.34548
  24197681.880   127159682.359 7  24197685.600    99085486.27945
  22979226.280   120756674.340 8  22979225.860    94096129.31347
  21732371.740   114204429.204 9  21732372.620    88990493.52748
  21155625.500   111173627.060 9  21155623.780    86628827.17048
  20566185.620   108076119.492 9  20566181.940    84215195.38949
  22735822.480   119477632.683 8  22735824.380    93099494.45947
  25571919.160   134381343.399 5  25571925.500   104712759.35453
  24083918.620   126561842.006 7  24083919.700    98619624.81945
 16  1 15  0  7 50.0000000  0 10G02G03G06G07G09G16G23G26G27G32
  25800848.980   135584377.957 5  25800846.660   105650157.71343
  21350949.720   112200045.228 9  21350951.060    87428635.10948
  24197835.060   127160487.239 7  24197838.800    99086113.45045
  22978750.820   120754175.941 8  22978750.440    94094182.51347
  21731964.600   114202289.687 9  21731965.500    88988826.37148
  21155654.920   111173781.686 9  21155653.200    86628947.65748
  20566065.060   108075485.924 9  20566061.360    84214701.69749
  22736215.100   119479695.923 8  22736217.000    93101102.17847
  25571430.220   134378774.091 5  25571436.020   104710757.30242
  24084581.980   126565328.060 7  24084583.120    98622341.22345
 16  1 15  0  7 51.0000000  0 10G02G03G06G07G09G16G23G26G27G32
  25800637.960   135583269.063 5  25800635.620   105649293.63043
  21351438.420   112202613.395 9  21351439.760    87430636.27948
  24197988.320   127161292.681 7  24197992.080    99086741.07745
  22978275.460   120751677.839 8  22978275.060    94092235.94447
  21731557.500   114200150.388 9  21731558.400    88987159.38548
  21155684.500   111173937.088 9  21155682.780    86629068.75148
  20565944.560   108074852.698 9  20565940.860    84214208.27649
  22736607.820   119481759.749 8  22736609.720    93102710.35247
  25570941.240   134376204.655 5  25570947.000   104708755.16844
  24085245.400   126568814.322 7  24085246.500    98625057.79245
