     2.11           OBSERVATION DATA    M (MIXED)           RINEX VERSION / TYPE
teqc  2015Nov6      NGS Web User        20160202 00:07:06UTCPGM / RUN BY / DATE
Solaris x86 5.10|AMD64|cc SC5.8 -xarch=amd64|=+|=+          COMMENT
teqc  2015Nov6      NOAA/NOS/NGS/CORS   20160201 13:14:51UTCCOMMENT
+47.682295489 (latitude)                                    COMMENT
-122.31514771 (longitude)                                   COMMENT
+74.4430      (elevation)                                   COMMENT
+.000000      (antenna height)                              COMMENT
BIT 2 OF LLI FLAGS DATA COLLECTED UNDER A/S CONDITION       COMMENT
 SNR is mapped to RINEX snr flag value [0-9]                COMMENT
  L1 & L2: min(max(int(snr_dBHz/6), 0), 9)                  COMMENT
teqc edited: all SBAS satellites excluded                   COMMENT
teqc edited: all Compass satellites excluded                COMMENT
teqc edited: all QZSS satellites excluded                   COMMENT
SSHO                                                        MARKER NAME
6                                                           MARKER NUMBER
Gavin Schrock       WSRN                                    OBSERVER / AGENCY
5137K78436          TRIMBLE NETR9       NAV 4.42 BOOT 4     REC # / TYPE / VERS
1441127238          TRM57971.00     NONE                    ANT # / TYPE
 -2299720.2890 -3635669.3300  4693221.8870                  APPROX POSITION XYZ
        0.0000        0.0000        0.0000                  ANTENNA: DELTA H/E/N
     1     1                                                WAVELENGTH FACT L1/2
    11    L1    L2    L5    C1    P1    C2    P2    C5    S1# / TYPES OF OBSERV
          S2    S5                                          # / TYPES OF OBSERV
     1.0000                                                 INTERVAL
teqc windowed: start @ 2016 Feb  1 12:00:00.000             COMMENT
teqc windowed:  end  @ 2016 Feb  1 13:00:00.000             COMMENT
  2016     2     1    12     0    0.0000000     GPS         TIME OF FIRST OBS
    17                                                      LEAP SECONDS
                                                            END OF HEADER
 16  2  1 12  2 48.0000000  0 17G02G05G13G20G21G25G26G29R01R07R08R13
                                R14R15R22R23R24
 127105613.662 5  99043310.13243                  24187382.547
                  24187383.703                          33.600          18.600

 113734190.192 8  88624042.59946                  21642886.883
                  21642891.016                          49.000          38.200

 130661499.866 6 101814183.29443                  24864058.227
                  24864062.723                          40.800          19.000

 108152515.159 8  84274624.45646                  20580720.641
                  20580724.098                          49.900          39.800

 119218302.855 7  92897409.74045                  22686488.242
                  22686491.719                          44.700          32.400

 121340859.490 7  94551273.30245                  23090376.773
                  23090385.023                          44.500          30.300

 119861552.654 7  93398630.36045                  22808889.891
                  22808897.566                          45.600          31.800

 105281417.841 8  82037457.49647                  20034372.422
                  20034376.789                          49.800          44.900

 122206815.000 6  95049608.512 6                  22861272.469    22861272.145
                  22861278.352                          38.600          36.700

 113244513.675 7  88079087.095 7                  21155023.656    21155022.109
                  21155025.918                          46.300          45.600

 107898421.137 7  83921026.460 8                  20149272.828    20149272.094
                  20149274.625                          47.700          48.900

 124483724.523 5  96820675.646 6                  23311801.945    23311800.051
                  23311804.449                          35.200          38.600

 116125304.385 6  90319705.263 6                  21784813.383    21784812.129
                  21784818.387                          37.400          36.900

 122818351.593 6  95525233.079 6                  22983737.711    22983736.492
                  22983740.863                          38.800          38.300

 118464394.939 7  92138991.196 7                  22192371.672    22192371.320
                  22192374.004                          43.900          43.500

 104290655.041 8  81114990.736 7                  19496034.086    19496032.988
                  19496038.879                          48.400          43.200

 113458826.696 6  88245768.962 6                  21217369.648    21217368.984
                  21217370.688                          40.200          39.300

 16  2  1 12  2 49.0000000  0 17G02G05G13G20G21G25G26G29R01R07R08R13
                                R14R15R22R23R24
 127108495.351 5  99045555.61343                  24187930.172
                  24187931.906                          33.500          19.000

 113736038.515 8  88625482.85446                  21643238.664
                  21643242.727                          49.100          37.800

 130658575.725 6 101811904.75343                  24863502.250
                  24863506.773                          39.800          19.600

 108150905.111 8  84273369.87746                  20580413.813
                  20580418.117                          49.600          39.600

 119216230.979 7  92895795.29345                  22686094.336
                  22686097.844                          44.900          32.300

 121344405.769 7  94554036.62945                  23091051.500
                  23091059.809                          44.400          31.200

 119859697.767 7  93397184.99145                  22808536.625
                  22808544.652                          45.400          31.800

 105281569.483 8  82037575.65747                  20034400.859
                  20034405.883                          49.800          44.700

 122202315.628 6  95046109.009 6                  22860430.914    22860429.887
                  22860436.520                          38.500          36.700

 113246671.954 7  88080765.763 7                  21155427.391    21155425.844
                  21155429.344                          46.300          45.800

 107896477.540 7  83919514.781 8                  20148909.625    20148909.008
                  20148911.273                          47.600          48.600

 124487726.936 5  96823788.604 6                  23312551.664    23312549.535
                  23312553.762                          35.300          38.500

 116126565.153 6  90320685.824 6                  21785049.305    21785048.637
                  21785054.625                          38.200          36.600

 122816587.794 6  95523861.242 6                  22983407.703    22983406.953
                  22983411.016                          38.400          38.600

 118467360.756 7  92141297.937 7                  22192927.883    22192926.711
                  22192929.504                          43.900          43.400

 104290712.086 8  81115035.105 7                  19496045.469    19496043.781
                  19496049.543                          48.600          43.200

 113456058.197 6  88243615.673 6                  21216852.578    21216851.797
                  21216853.742                          40.800          39.300

 16  2  1 12  2 50.0000000  0 17G02G05G13G20G21G25G26G29R01R07R08R13
                                R14R15R22R23R24
 127111376.969 5  99047801.01943                  24188479.266
                  24188480.434                          33.500          19.300

 113737887.325 8  88626923.47946                  21643590.094
                  21643594.055                          49.100          38.700

 130655651.736 6 101809626.32043                  24862945.727
                  24862950.410                          40.200          19.000

 108149295.589 8  84272115.70346                  20580107.906
                  20580111.313                          49.600          40.000

 119214159.252 7  92894180.95845                  22685699.203
                  22685703.395                          44.600          31.700

 121347952.189 7  94556800.06844                  23091726.172
                  23091734.695                          44.100          29.900

 119857843.381 7  93395740.01845                  22808184.344
                  22808191.730                          45.200          31.900

 105281721.540 8  82037694.14147                  20034429.750
                  20034434.586                          49.700          44.700

 122197816.386 6  95042609.590 6                  22859590.383    22859589.238
                  22859595.965                          38.600          37.300

 113248830.917 7  88082444.971 7                  21155830.141    21155828.711
                  21155832.699                          46.200          46.400

 107894534.685 7  83918003.680 8                  20148546.977    20148546.711
                  20148548.879                          47.200          48.300

 124491729.382 5  96826901.651 6                  23313299.883    23313298.926
                  23313303.434                          34.700          38.600

 116127826.649 6  90321666.990 6                  21785287.148    21785285.070
                  21785290.906                          38.500          36.500

 122814824.724 6  95522489.963 6                  22983078.031    22983076.930
                  22983081.141                          38.000          38.800

 118470326.729 7  92143604.805 7                  22193483.320    22193482.500
                  22193485.445                          44.300          43.300

 104290769.511 8  81115079.776 7                  19496055.914    19496054.582
                  19496060.559                          48.400          43.000

 113453289.809 6  88241462.478 6                  21216334.273    21216333.492
                  21216335.898                          40.500          39.200

 16  2  1 12  2 51.0000000  0 17G02G05G13G20G21G25G26G29R01R07R08R13
                                R14R15R22R23R24
 127114258.665 5  99050046.48543                  24189027.578
                  24189028.715                          33.600          19.300

 113739736.713 8  88628364.56446                  21643942.320
                  21643946.055                          49.100          38.800

 130652727.933 6 101807348.01343                  24862389.328
                  24862394.191                          40.600          19.000

 108147686.694 8  84270862.01846                  20579801.781
                  20579805.594                          49.400          40.000

 119212087.771 7  92892566.81745                  22685305.484
                  22685309.316                          44.700          32.600

 121351498.890 7  94559563.73145                  23092401.086
                  23092409.453                          44.400          30.800

 119855989.551 7  93394295.47345                  22807831.008
                  22807839.160                          45.200          32.600

 105281874.096 8  82037813.02447                  20034459.258
                  20034463.613                          50.000          44.800

 122193317.374 6  95039110.343 6                  22858747.727    22858747.051
                  22858753.547                          38.700          37.000

 113250990.696 7  88084124.783 7                  21156232.602    21156231.992
                  21156235.957                          46.300          46.000

 107892592.656 7  83916493.227 8                  20148184.289    20148183.789
                  20148185.918                          47.500          48.200

 124495732.104 5  96830014.849 6                  23314050.703    23314048.223
                  23314053.098                          34.700          39.100

 116129089.040 6  90322648.857 6                  21785524.992    21785521.625
                  21785527.633                          38.700          37.100

 122813062.510 6  95521119.341 6                  22982748.102    22982747.000
                  22982751.387                          38.700          38.600

 118473292.953 7  92145911.867 7                  22194038.859    22194037.453
                  22194040.855                          44.300          43.400

 104290827.433 8  81115124.827 7                  19496066.461    19496065.480
                  19496071.195                          48.400          43.200

 113450521.650 6  88239309.483 6                  21215816.836    21215817.113
                  21215818.773                          40.900          38.900

 16  2  1 12  2 52.0000000  0 16G05G13G20G21G25G26G29R01R07R08R13R14
                                R15R22R23R24
 113741586.778 8  88629806.17546                  21644294.469
                  21644298.340                          48.800          38.600

 130649804.403 6 101805069.94443                  24861832.766
                  24861837.949                          40.600          18.600

 108146078.465 8  84269608.85446                  20579495.352
                  20579499.766                          49.500          39.900

 119210016.571 7  92890952.89545                  22684911.516
                  22684915.273                          44.700          32.500

 121355045.925 7  94562327.65145                  23093076.375
                  23093084.313                          45.000          30.900

 119854136.403 7  93392851.45945                  22807478.453
                  22807486.570                          45.300          31.800

 105282027.230 8  82037932.34747                  20034488.188
                  20034492.766                          49.900          45.100

 122188818.560 6  95035611.285 6                  22857906.711    22857906.035
                  22857912.367                          39.000          37.400

 113253151.318 7  88085805.255 7                  21156637.086    21156635.539
                  21156640.129                          46.300          45.900

 107890651.574 7  83914983.481 8                  20147821.352    20147821.441
                  20147823.805                          47.100          48.400

 124499735.153 5  96833128.331 6                  23314800.313    23314798.066
                  23314802.797                          34.500          38.700

 116130352.378 6  90323631.443 6                  21785761.758    21785759.328
                  21785764.762                          38.700          36.700

 122811301.150 6  95519749.404 6                  22982418.570    22982417.352
                  22982422.188                          38.600          38.400

 118476259.497 7  92148219.177 7                  22194595.047    22194593.406
                  22194596.602                          43.600          43.600

 104290885.907 8  81115170.304 7                  19496077.398    19496076.887
                  19496082.648                          48.200          43.700

 113447753.825 6  88237156.704 6                  21215299.086    21215298.422
                  21215300.457                          40.800          39.500

 16  2  1 12  2 53.0000000  0 17G02G05G13G20G21G25G26G29R01R07R08R13
                                R14R15R22R23R24
 127120022.38615  99054537.69243                  24190122.836
                  24190125.547                          33.100          19.000

 113743437.357 8  88631248.18746                  21644646.422
                  21644650.391                          48.900          38.400

 130646880.992 6 101802791.95443                  24861276.063
                  24861281.551                          40.800          18.300

 108144470.807 8  84268356.14146                  20579189.383
                  20579193.719                          49.500          40.100

 119207945.547 7  92889339.11145                  22684517.352
                  22684521.121                          45.000          32.000

 121358593.150 7  94565091.72045                  23093750.906
                  23093759.359                          45.000          31.000

 119852283.756 7  93391407.83745                  22807125.977
                  22807133.957                          45.100          31.800

 105282180.799 8  82038052.00947                  20034517.461
                  20034522.207                          49.900          45.400

 122184319.913 6  95032112.346 6                  22857065.258    22857064.465
                  22857070.945                          39.200          37.200

 113255312.657 7  88087486.313 7                  21157039.969    21157038.773
                  21157043.262                          46.100          46.000

 107888711.313 7  83913474.378 8                  20147458.969    20147458.941
                  20147461.348                          47.300          48.300

 124503738.342 5  96836241.922 6                  23315550.148    23315547.316
                  23315552.266                          34.900          38.900

 116131616.510 6  90324614.686 6                  21785997.773    21785996.168
                  21786001.660                          38.700          36.900

 122809540.555 6  95518380.076 6                  22982088.734    22982087.633
                  22982092.418                          38.700          38.300

 118479226.209 7  92150526.653 7                  22195149.547    22195149.316
                  22195152.570                          43.600          43.600

 104290944.782 8  81115216.085 7                  19496088.586    19496087.957
                  19496093.445                          48.300          43.100

 113444986.086 6  88235004.076 6                  21214781.875    21214781.094
                  21214783.117                          40.800          39.700

 16  2  1 12  2 54.0000000  0 17G02G05G13G20G21G25G26G29R01R07R08R13
                                R14R15R22R23R24
 127122904.357 5  99056783.39243                  24190670.992
                  24190673.641                          33.200          19.300

 113745288.466 8  88632690.60546                  21644998.719
                  21645002.383                          49.300          38.200

 130643957.754 6 101800514.11842                  24860720.000
                  24860725.320                          40.000          16.900

 108142863.698 8  84267103.84546                  20578883.484
                  20578887.691                          49.500          40.000

 119205874.690 7  92887725.46045                  22684122.953
                  22684127.207                          44.500          32.300

 121362140.576 7  94567855.95045                  23094426.633
                  23094434.703                          44.800          30.700

 119850431.658 7  93389964.64245                  22806773.672
                  22806781.563                          45.200          32.100

 105282334.808 8  82038172.01447                  20034546.992
                  20034551.352                          49.500          45.200

 122179821.415 6  95028613.517 6                  22856223.078    22856223.105
                  22856229.379                          39.300          37.000

 113257474.749 7  88089167.935 7                  21157444.188    21157443.109
                  21157447.277                          46.000          46.100

 107886771.820 7  83911965.886 8                  20147097.000    20147096.852
                  20147099.070                          47.300          48.300

 124507741.673 5  96839355.619 6                  23316299.195    23316297.652
                  23316302.172                          34.700          38.500

 116132881.466 6  90325598.545 6                  21786235.078    21786234.059
                  21786239.930                          38.400          37.100

 122807780.730 6  95517011.299 6                  22981759.125    22981758.965
                  22981763.500                          39.400          38.800

 118482193.140 7  92152834.218 7                  22195706.430    22195705.023
                  22195708.594                          43.600          43.500

 104291004.057 8  81115262.203 7                  19496099.992    19496099.012
                  19496104.426                          48.100          43.300

 113442218.636 6  88232851.559 6                  21214264.500    21214263.836
                  21214265.617                          40.200          39.500

 16  2  1 12  2 55.0000000  0 17G02G05G13G20G21G25G26G29R01R07R08R13
                                R14R15R22R23R24
 127125786.353 5  99059029.10943                  24191219.289
                  24191222.508                          33.200          19.600

 113747140.227 8  88634133.53746                  21645350.891
                  21645354.934                          49.100          38.500

 130641034.765 6 101798236.46742                  24860163.484
                  24860168.844                          40.100          16.900

 108141257.280 8  84265852.09046                  20578577.984
                  20578582.313                          49.600          40.200

 119203804.150 7  92886112.05145                  22683728.883
                  22683733.270                          44.600          32.100

 121365688.343 7  94570620.44145                  23095102.063
                  23095109.711                          44.900          31.700

 119848580.224 7  93388521.96645                  22806421.484
                  22806429.148                          45.100          32.400

 105282489.424 8  82038292.49247                  20034575.742
                  20034580.648                          49.500          45.000

 122175323.158 6  95025114.882 6                  22855382.563    22855381.063
                  22855387.203                          39.200          37.300

 113259637.730 7  88090850.262 7                  21157848.438    21157848.063
                  21157852.086                          45.800          46.200

 107884833.246 7  83910458.121 8                  20146734.688    20146734.188
                  20146736.477                          47.500          48.500

 124511745.396 5  96842469.599 6                  23317048.586    23317047.160
                  23317051.938                          34.400          38.300

 116134147.403 6  90326583.155 6                  21786471.859    21786470.957
                  21786476.789                          38.600          36.700

 122806021.756 6  95515643.232 6                  22981429.836    22981429.559
                  22981433.891                          39.500          38.700

 118485160.334 7  92155142.068 7                  22196261.203    22196260.617
                  22196264.176                          43.800          43.600

 104291063.894 8  81115308.723 7                  19496111.172    19496109.602
                  19496115.281                          48.000          43.400

 113439451.435 6  88230699.277 6                  21213747.172    21213746.039
                  21213747.664                          40.200          39.600

 16  2  1 12  2 56.0000000  0 17G02G05G13G20G21G25G26G29R01R07R08R13
                                R14R15R22R23R24
 127128668.408 5  99061274.86243                  24191768.078
                  24191770.973                          33.300          20.400

 113748992.481 8  88635576.85146                  21645703.836
                  21645707.359                          49.100          38.400

 130638111.914 6 101795958.91743                  24859607.766
                  24859612.801                          40.300          18.300

 108139651.387 8  84264600.74846                  20578272.414
                  20578276.871                          49.500          39.900

 119201733.726 7  92884498.72845                  22683335.195
                  22683339.184                          44.400          31.900

 121369236.260 7  94573385.05445                  23095777.000
                  23095784.867                          45.000          31.400

 119846729.305 7  93387079.69345                  22806068.875
                  22806077.301                          45.000          31.900

 105282644.424 8  82038413.27147                  20034605.313
                  20034610.012                          50.000          44.600

 122170825.050 6  95021616.336 6                  22854540.758    22854540.902
                  22854546.859                          39.200          36.900

 113261801.400 7  88092533.119 7                  21158252.813    21158251.148
                  21158255.602                          45.700          46.200

 107882895.425 7  83908950.915 8                  20146373.922    20146372.836
                  20146375.109                          47.600          48.500

 124515749.187 5  96845583.708 6                  23317798.898    23317797.121
                  23317801.938                          34.900          38.300

 116135414.098 6  90327568.385 6                  21786710.633    21786708.555
                  21786714.297                          38.700          37.200

 122804263.561 6  95514275.740 6                  22981101.063    22981099.961
                  22981104.664                          39.700          38.500

 118488127.732 7  92157450.020 7                  22196817.938    22196816.883
                  22196820.156                          43.600          43.600

 104291124.086 8  81115355.559 7                  19496121.977    19496121.113
                  19496127.000                          48.200          42.900

 113436684.342 6  88228547.115 6                  21213228.422    21213228.816
                  21213230.094                          40.600          39.400

 16  2  1 12  2 57.0000000  0 17G02G05G13G20G21G25G26G29R01R07R08R13
                                R14R15R22R23R24
 127131550.537 5  99063520.65643                  24192317.313
                  24192319.242                          33.600          19.900

 113750845.256 8  88637020.57146                  21646055.898
                  21646060.180                          49.100          38.600

 130635189.175 6 101793681.45443                  24859051.344
                  24859056.602                          40.400          18.300

 108138046.083 8  84263349.86446                  20577966.773
                  20577970.742                          49.500          40.100

 119199663.470 7  92882885.53845                  22682940.758
                  22682945.102                          44.600          31.200

 121372784.381 7  94576149.82345                  23096451.852
                  23096459.617                          45.100          30.300

 119844878.907 7  93385637.82545                  22805716.891
                  22805725.172                          44.400          31.900

 105282799.870 8  82038534.40247                  20034635.047
                  20034639.715                          49.900          44.500

 122166327.063 6  95018117.894 6                  22853699.203    22853698.996
                  22853705.043                          38.800          36.900

 113263965.836 7  88094216.549 7                  21158656.750    21158655.906
                  21158660.297                          45.800          45.800

 107880958.403 7  83907444.346 8                  20146011.766    20146010.445
                  20146012.863                          47.500          48.600

 124519753.157 5  96848697.888 6                  23318549.875    23318548.098
                  23318552.473                          34.000          38.100

 116136681.661 6  90328554.244 6                  21786948.031    21786947.012
                  21786952.418                          38.800          37.100

 122802506.153 6  95512908.855 6                  22980772.430    22980771.680
                  22980776.305                          39.500          38.400

 118491095.276 7  92159758.117 7                  22197374.148    22197372.508
                  22197375.883                          43.500          43.300

 104291184.713 8  81115402.713 7                  19496133.688    19496132.355
                  19496138.238                          48.400          43.000

 113433917.456 6  88226395.101 6                  21212712.430    21212711.414
                  21212713.016                          40.200          39.300

 16  2  1 12  2 58.0000000  0 17G02G05G13G20G21G25G26G29R01R07R08R13
                                R14R15R22R23R24
 127134432.743 5  99065766.51843                  24192866.398
                  24192867.902                          34.100          19.000

 113752698.648 8  88638464.77446                  21646409.016
                  21646412.730                          49.400          38.700

 130632266.673 6 101791404.16842                  24858495.070
                  24858500.531                          40.000          17.800

 108136441.402 8  84262099.46046                  20577661.531
                  20577665.656                          49.200          40.200

 119197593.485 7  92881272.56745                  22682547.047
                  22682550.785                          45.000          32.700

 121376332.806 7  94578914.83145                  23097127.234
                  23097134.586                          45.000          30.100

 119843029.122 7  93384196.43045                  22805365.414
                  22805372.992                          44.700          32.000

 105282955.858 8  82038655.95147                  20034664.422
                  20034669.367                          49.900          44.800

 122161829.324 6  95014619.668 6                  22852858.391    22852857.246
                  22852863.789                          38.700          37.200

 113266131.078 7  88095900.630 7                  21159061.164    21159060.438
                  21159064.910                          45.700          45.900

 107879022.231 7  83905938.456 8                  20145650.188    20145650.277
                  20145652.434                          47.500          48.400

 124523757.400 5  96851812.303 6                  23319298.938    23319296.574
                  23319300.871                          34.100          38.300

 116137950.109 6  90329540.819 6                  21787186.109    21787184.855
                  21787189.836                          38.800          36.600

 122800749.573 6  95511542.623 6                  22980443.680    22980442.695
                  22980447.219                          39.500          38.500

 118494063.100 7  92162066.423 7                  22197929.703    22197928.180
                  22197931.684                          43.900          43.500

 104291245.840 8  81115450.256 7                  19496144.305    19496144.262
                  19496149.832                          48.500          42.900

 113431150.796 6  88224243.265 6                  21212195.281    21212193.914
                  21212195.668                          40.300          39.100

 16  2  1 12  2 59.0000000  0 17G02G05G13G20G21G25G26G29R01R07R08R13
                                R14R15R22R23R24
 127137314.968 5  99068012.37843                  24193413.461
                  24193416.051                          33.800          18.300

 113754552.573 8  88639909.39046                  21646761.836
                  21646765.766                          48.700          38.800

 130629344.326 6 101789127.02242                  24857938.711
                  24857944.105                          40.600          17.800

 108134837.275 8  84260849.49346                  20577356.063
                  20577360.453                          49.300          40.400

 119195523.655 7  92879659.71045                  22682153.164
                  22682157.430                          45.100          32.400

 121379881.409 7  94581679.98145                  23097802.414
                  23097809.941                          45.400          31.900

 119841179.874 7  93382755.45945                  22805013.250
                  22805021.145                          44.500          32.400

 105283112.291 8  82038777.84547                  20034694.547
                  20034699.215                          50.000          44.900

 122157331.740 6  95011121.545 6                  22852016.914    22852015.414
                  22852022.363                          39.100          37.500

 113268297.045 7  88097585.276 7                  21159465.656    21159464.578
                  21159468.891                          45.600          45.700

 107877086.887 7  83904433.177 8                  20145288.883    20145288.266
                  20145290.457                          47.500          48.600

 124527761.812 5  96854926.824 6                  23320049.773    23320047.645
                  23320052.133                          34.300          38.400

 116139219.427 6  90330528.051 6                  21787423.656    21787422.754
                  21787427.801                          39.200          36.900

 122798993.776 6  95510177.008 6                  22980115.664    22980114.094
                  22980118.766                          39.900          38.100

 118497031.082 7  92164374.869 7                  22198485.680    22198484.625
                  22198488.102                          43.600          43.600

 104291307.369 8  81115498.112 7                  19496156.703    19496155.840
                  19496161.340                          48.800          42.700

 113428384.316 6  88222091.555 6                  21211677.133    21211676.117
                  21211678.125                          39.700          39.600

 16  2  1 12  3  0.0000000  0 17G02G05G13G20G21G25G26G29R01R07R08R13
                                R14R15R22R23R24
 127140197.364 5  99070258.39642                  24193963.727
                  24193964.340                          34.300          17.800

 113756407.133 8  88641354.50646                  21647114.539
                  21647118.418                          48.900          38.600

 130626422.243 6 101786850.08642                  24857382.930
                  24857388.145                          39.400          17.400

 108133233.854 8  84259600.07346                  20577051.422
                  20577055.391                          49.300          40.300

 119193454.133 7  92878047.10345                  22681759.188
                  22681763.215                          44.800          32.100

 121383430.345 7  94584445.39545                  23098477.906
                  23098485.641                          45.800          31.500

 119839331.278 7  93381314.99945                  22804661.422
                  22804669.766                          44.100          32.000

 105283269.278 8  82038900.17447                  20034724.297
                  20034728.770                          50.000          44.600

 122152834.445 6  95007623.646 6                  22851175.563    22851174.180
                  22851181.039                          39.200          37.200

 113270463.895 7  88099270.600 7                  21159870.445    21159869.602
                  21159873.727                          45.700          45.300

 107875152.459 7  83902928.634 8                  20144928.000    20144926.563
                  20144928.824                          47.500          48.900

 124531766.532 5  96858041.617 6                  23320799.297    23320796.699
                  23320801.098                          34.600          38.500

 116140489.634 6  90331515.986 6                  21787662.523    21787660.680
                  21787665.824                          39.000          37.200

 122797238.844 6  95508812.070 6                  22979787.500    22979786.633
                  22979791.070                          39.300          37.800

 118499999.387 7  92166683.540 7                  22199041.688    22199040.281
                  22199043.828                          43.900          43.300

 104291369.443 8  81115546.399 7                  19496168.133    19496167.035
                  19496172.551                          48.300          42.300

 113425618.131 6  88219940.065 6                  21211160.516    21211159.031
                  21211160.836                          39.900          39.600

 16  2  1 12  3  1.0000000  0 17G02G05G13G20G21G25G26G29R01R07R08R13
                                R14R15R22R23R24
 127143079.694 5  99072504.37343                  24194513.078
                  24194513.512                          34.800          19.000

 113758262.192 8  88642800.00746                  21647467.766
                  21647471.262                          48.900          38.800

 130623500.267 6 101784573.24243                  24856827.492
                  24856832.395                          39.200          18.300

 108131630.951 8  84258351.05946                  20576746.250
                  20576750.406                          49.100          39.900

 119191384.749 7  92876434.59545                  22681365.672
                  22681369.348                          45.100          32.600

 121386979.469 7  94587210.94245                  23099153.539
                  23099160.449                          45.600          31.400

 119837483.178 7  93379874.92345                  22804309.617
                  22804318.184                          44.100          32.300

 105283426.679 8  82039022.82647                  20034754.531
                  20034759.211                          50.000          44.500

 122148337.251 6  95004125.813 6                  22850333.938    22850333.262
                  22850339.855                          39.000          37.800

 113272631.470 7  88100956.502 7                  21160275.516    21160274.672
                  21160278.574                          45.900          46.000

 107873218.799 7  83901424.659 8                  20144566.656    20144565.336
                  20144567.691                          47.500          48.800

 124535771.383 5  96861156.496 6                  23321550.281    23321547.098
                  23321551.746                          34.300          38.500

 116141760.642 6  90332504.571 6                  21787900.688    21787899.668
                  21787904.988                          38.900          37.000

 122795484.689 6  95507447.721 6                  22979458.719    22979458.086
                  22979462.449                          39.600          38.300

 118502967.857 7  92168992.345 7                  22199597.875    22199596.703
                  22199600.215                          43.800          43.500

 104291431.928 8  81115594.984 7                  19496179.766    19496178.785
                  19496184.570                          48.700          42.800

 113422852.104 6  88217788.692 6                  21210642.297    21210641.984
                  21210643.426                          39.900          39.800

 16  2  1 12  3  2.0000000  0 17G02G05G13G20G21G25G26G29R01R07R08R13
                                R14R15R22R23R24
 127145962.139 5  99074750.45943                  24195061.273
                  24195061.719                          35.000          19.000

 113760117.831 8  88644245.95446                  21647820.391
                  21647824.641                          49.400          38.400

 130620578.460 6 101782296.53943                  24856270.906
                  24856276.207                          40.000          19.600

 108130028.648 8  84257102.50646                  20576441.453
                  20576445.199                          49.300          40.400

 119189315.561 7  92874822.24045                  22680972.164
                  22680976.000                          44.900          32.600

 121390528.815 7  94589976.67245                  23099828.711
                  23099836.438                          45.800          30.900

 119835635.661 7  93378435.30145                  22803957.891
                  22803966.551                          44.300          32.400

 105283584.553 8  82039145.84547                  20034784.391
                  20034789.063                          50.200          44.300

 122143840.216 6  95000628.148 6                  22849493.352    22849491.617
                  22849498.617                          39.200          37.500

 113274799.808 7  88102642.975 7                  21160680.891    21160679.695
                  21160683.559                          45.400          46.300

 107871285.962 7  83899921.332 8                  20144206.094    20144205.477
                  20144207.891                          47.300          48.900

 124539776.407 5  96864271.512 6                  23322299.195    23322296.832
                  23322301.367                          34.100          38.500

 116143032.516 6  90333493.813 6                  21788139.383    21788137.895
                  21788143.531                          38.800          37.300

 122793731.353 6  95506084.012 6                  22979131.547    22979129.742
                  22979134.477                          39.500          37.900

 118505936.557 7  92171301.335 7                  22200153.891    22200152.836
                  22200156.176                          44.200          43.500

 104291494.862 8  81115643.934 7                  19496190.953    19496190.207
                  19496195.852                          48.600          42.800

 113420086.261 6  88215637.496 6                  21210125.383    21210125.070
                  21210126.840                          40.000          39.500

 16  2  1 12  3  3.0000000  0 17G02G05G13G20G21G25G26G29R01R07R08R13
                                R14R15R22R23R24
 127148844.620 5  99076996.54043                  24195609.656
                  24195610.012                          35.000          19.000

 113761973.993 8  88645692.31846                  21648174.102
                  21648177.766                          49.200          38.800

 130617656.831 6 101780019.93043                  24855715.508
                  24855720.340                          40.400          19.000

 108128426.913 8  84255854.39746                  20576136.594
                  20576140.414                          49.600          40.300

 119187246.547 7  92873210.01945                  22680578.086
                  22680581.934                          44.600          31.800

 121394078.366 7  94592742.55545                  23100504.078
                  23100511.371                          45.600          31.200

 119833788.688 7  93376996.10545                  22803606.617
                  22803614.715                          44.500          31.700

 105283742.913 8  82039269.24547                  20034814.383
                  20034818.820                          50.100          44.000

 122139343.328 6  94997130.569 6                  22848651.625    22848650.598
                  22848657.160                          39.400          37.200

 113276968.885 7  88104330.023 7                  21161085.789    21161084.594
                  21161088.781                          45.300          46.100

 107869353.906 7  83898418.634 8                  20143845.148    20143844.297
                  20143846.668                          47.500          48.700

 124543781.689 5  96867386.705 6                  23323045.914    23323046.953
                  23323051.875                          34.000          38.900

 116144305.222 6  90334483.701 6                  21788377.703    21788376.566
                  21788382.133                          39.000          36.800

 122791978.772 6  95504720.866 6                  22978803.289    22978801.367
                  22978805.977                          39.900          37.900

 118508905.485 7  92173610.482 7                  22200710.469    22200708.945
                  22200712.137                          43.900          43.600

 104291558.240 8  81115693.227 7                  19496203.164    19496202.535
                  19496207.996                          48.300          42.800

 113417320.603 6  88213486.431 6                  21209608.672    21209607.188
                  21209609.180                          40.100          39.900

 16  2  1 12  3  4.0000000  0 17G02G05G13G20G21G25G26G29R01R07R08R13
                                R14R15R22R23R24
 127151727.146 5  99079242.67843                  24196158.664
                  24196158.465                          35.600          19.000

 113763830.765 8  88647139.15846                  21648527.492
                  21648531.293                          48.900          38.300

 130614735.427 6 101777743.46843                  24855159.141
                  24855164.484                          40.400          18.300

 108126825.802 8  84254606.77846                  20575831.828
                  20575836.016                          49.800          40.400

 119185177.782 7  92871598.00045                  22680185.156
                  22680188.656                          45.000          32.000

 121397628.212 7  94595508.65945                  23101179.711
                  23101186.711                          45.800          30.400

 119831942.330 7  93375557.38745                  22803255.156
                  22803263.480                          44.600          31.600

 105283901.765 8  82039393.02547                  20034844.781
                  20034849.063                          50.300          44.500

 122134846.704 6  94993633.188 6                  22847809.734    22847809.293
                  22847816.008                          39.200          37.200

 113279138.753 7  88106017.709 7                  21161491.234    21161490.273
                  21161494.199                          45.500          45.900

 107867422.727 7  83896916.608 8                  20143484.414    20143483.211
                  20143485.668                          46.900          48.300

 124547787.143 5  96870502.120 6                  23323796.695    23323796.328
                  23323801.129                          34.200          38.600

 116145578.794 6  90335474.274 6                  21788617.422    21788615.699
                  21788621.113                          38.900          36.600

 122790227.049 6  95503358.423 6                  22978474.500    22978473.516
                  22978477.988                          39.700          38.300

 118511874.652 7  92175919.859 7                  22201266.602    22201265.430
                  22201268.625                          43.900          43.600

 104291622.081 8  81115742.892 7                  19496215.148    19496214.051
                  19496219.605                          48.000          42.700

 113414555.195 6  88211335.546 6                  21209091.313    21209090.766
                  21209092.531                          40.200          39.600

 16  2  1 12  3  5.0000000  0 17G02G05G13G20G21G25G26G29R01R07R08R13
                                R14R15R22R23R24
 127154609.774 5  99081488.87543                  24196707.313
                  24196707.383                          35.700          19.900

 113765688.122 8  88648586.44846                  21648880.680
                  21648884.395                          49.300          38.300

 130611814.232 6 101775467.18543                  24854602.875
                  24854608.391                          41.100          19.000

 108125225.347 8  84253359.67146                  20575527.250
                  20575531.125                          49.700          40.600

 119183109.269 7  92869986.17145                  22679791.305
                  22679794.926                          45.400          31.400

 121401178.321 7  94598274.98645                  23101855.883
                  23101862.379                          45.800          31.400

 119830096.555 7  93374119.11845                  22802904.070
                  22802912.523                          44.600          31.900

 105284061.123 8  82039517.19847                  20034875.008
                  20034879.547                          50.300          44.500

 122130350.251 6  94990135.965 6                  22846968.711    22846967.801
                  22846974.488                          39.200          37.200

 113281309.436 7  88107706.022 7                  21161896.938    21161895.859
                  21161899.824                          45.500          45.900

 107865492.429 7  83895415.281 8                  20143124.336    20143122.664
                  20143125.152                          47.000          48.300

 124551792.838 5  96873617.692 6                  23324546.789    23324546.539
                  23324551.254                          34.300          38.900

 116146853.309 6  90336465.531 6                  21788856.266    21788855.129
                  21788860.426                          38.700          36.400

 122788476.119 6  95501996.604 6                  22978146.711    22978146.313
                  22978150.492                          39.800          38.300

 118514844.095 7  92178229.417 7                  22201823.242    22201822.188
                  22201825.215                          44.100          43.800

 104291686.436 8  81115792.925 7                  19496227.727    19496226.629
                  19496231.871                          48.100          43.000

 113411790.004 6  88209184.851 6                  21208574.234    21208572.867
                  21208575.086                          40.100          39.400

 16  2  1 12  3  6.0000000  0 17G02G05G13G20G21G25G26G29R01R07R08R13
                                R14R15R22R23R24
 127157492.439 5  99083735.08043                  24197255.938
                  24197255.785                          34.800          19.300

 113767546.009 8  88650034.15546                  21649234.172
                  21649238.063                          49.100          38.200

 130608893.172 6 101773191.05143                  24854047.211
                  24854052.879                          41.500          18.300

 108123625.442 8  84252112.99546                  20575223.031
                  20575226.984                          49.800          40.500

 119181040.939 7  92868374.48445                  22679398.070
                  22679401.141                          45.700          31.900

 121404728.602 7  94601041.44145                  23102530.750
                  23102537.770                          45.800          31.500

 119828251.280 7  93372681.23845                  22802553.133
                  22802561.109                          44.900          31.800

 105284220.926 8  82039641.71947                  20034905.391
                  20034910.191                          50.700          44.800

 122125853.927 6  94986638.833 6                  22846128.289    22846127.145
                  22846133.805                          39.000          37.000

 113283480.865 7  88109394.913 7                  21162302.516    21162301.203
                  21162305.035                          45.400          46.000

 107863562.928 7  83893914.549 8                  20142763.117    20142762.500
                  20142765.012                          47.100          48.000

 124555798.824 5  96876733.387 6                  23325298.406    23325296.746
                  23325301.387                          33.900          38.700

 116148128.590 6  90337457.394 6                  21789095.672    21789093.949
                  21789099.332                          39.000          36.700

 122786725.978 6  95500635.338 6                  22977819.906    22977818.453
                  22977822.727                          39.300          38.300

 118517813.700 7  92180539.094 7                  22202378.852    22202377.797
                  22202381.293                          43.600          43.800

 104291751.185 8  81115843.284 7                  19496239.141    19496238.395
                  19496243.695                          48.100          43.100

 113409024.976 6  88207034.253 6                  21208056.352    21208055.805
                  21208057.871                          39.900          39.500

 16  2  1 12  3  7.0000000  0 17G02G05G13G20G21G25G26G29R01R07R08R13
                                R14R15R22R23R24
 127160375.208 5  99085981.39543                  24197804.672
                  24197804.527                          35.200          19.900

 113769404.460 8  88651482.29446                  21649587.922
                  21649591.559                          48.900          38.400

 130605972.289 6 101770915.05143                  24853491.438
                  24853496.965                          41.300          18.600

 108122026.136 8  84250866.78646                  20574918.539
                  20574922.648                          49.600          40.500

 119178972.806 7  92866762.94645                  22679004.352
                  22679007.449                          45.800          31.000

 121408279.155 7  94603808.11145                  23103206.773
                  23103213.445                          45.900          31.500

 119826406.614 7  93371243.83545                  22802201.539
                  22802210.402                          44.800          31.700

 105284381.239 8  82039766.64147                  20034935.891
                  20034940.742                          50.800          44.500

 122121357.827 6  94983141.861 6                  22845286.391    22845285.480
                  22845292.141                          39.400          36.700

 113285653.118 7  88111084.450 7                  21162707.883    21162707.742
                  21162711.266                          45.400          46.000

 107861634.235 7  83892414.463 8                  20142403.336    20142402.367
                  20142404.930                          47.300          48.000

 124559804.921 5  96879849.246 6                  23326049.039    23326046.910
                  23326051.621                          34.100          38.600

 116149404.701 6  90338449.967 6                  21789334.969    21789333.363
                  21789338.906                          38.600          37.100

 122784976.649 6  95499274.751 6                  22977491.500    22977491.340
                  22977495.727                          38.900          38.100

 118520783.531 7  92182848.991 7                  22202936.383    22202934.273
                  22202937.578                          43.300          43.600

 104291816.387 8  81115894.009 7                  19496251.289    19496250.895
                  19496256.395                          48.100          43.400

 113406260.131 6  88204883.842 6                  21207540.648    21207539.281
                  21207541.281                          40.000          39.600

 16  2  1 12  3  8.0000000  0 17G02G05G13G20G21G25G26G29R01R07R08R13
                                R14R15R22R23R24
 127163258.012 5  99088227.73243                  24198352.047
                  24198352.852                          35.300          19.600

 113771263.484 8  88652930.88446                  21649941.695
                  21649945.465                          48.900          38.400

 130603051.627 6 101768639.19543                  24852935.688
                  24852941.344                          41.300          18.600

 108120427.452 8  84249621.06146                  20574614.477
                  20574618.523                          49.400          39.800

 119176904.929 7  92865151.61445                  22678610.719
                  22678614.262                          45.200          31.500

 121411829.948 7  94606574.97045                  23103882.711
                  23103889.055                          45.800          31.800

 119824562.554 7  93369806.90845                  22801851.125
                  22801859.215                          45.000          31.900

 105284542.032 8  82039891.92947                  20034966.547
                  20034971.219                          51.000          44.600

 122116861.929 6  94979645.038 6                  22844446.242    22844444.977
                  22844451.305                          38.900          37.200

 113287826.184 7  88112774.598 7                  21163114.406    21163113.680
                  21163117.469                          45.600          45.900

 107859706.371 7  83890915.009 7                  20142043.859    20142042.188
                  20142044.844                          47.300          47.900

 124563811.306 5  96882965.339 6                  23326800.016    23326797.535
                  23326802.410                          34.600          38.700

 116150681.770 6  90339443.211 6                  21789574.523    21789573.973
                  21789578.863                          38.800          37.000

 122783228.151 6  95497914.803 6                  22977165.031    22977164.047
                  22977168.605                          39.000          38.200

 118523753.592 7  92185159.021 7                  22203492.516    22203490.758
                  22203494.156                          43.300          43.800

 104291882.082 8  81115945.106 7                  19496264.047    19496262.832
                  19496268.492                          48.600          43.500

 113403495.543 6  88202733.604 6                  21207023.266    21207022.250
                  21207023.973                          40.200          39.300

 16  2  1 12  3  9.0000000  0 17G02G05G13G20G21G25G26G29R01R07R08R13
                                R14R15R22R23R24
 127166140.894 5  99090474.12643                  24198900.781
                  24198901.500                          35.200          19.000

 113773123.064 8  88654379.90446                  21650295.344
                  21650299.746                          49.100          38.700

 130600131.127 6 101766363.49243                  24852379.977
                  24852385.430                          41.600          19.300

 108118829.354 8  84248375.78946                  20574309.977
                  20574314.316                          49.500          40.300

 119174837.235 7  92863540.42245                  22678216.969
                  22678220.969                          45.500          31.600

 121415380.989 7  94609342.01745                  23104558.016
                  23104564.918                          45.700          30.700

 119822719.042 7  93368370.40145                  22801500.016
                  22801508.844                          45.100          32.100

 105284703.308 8  82040017.60047                  20034997.508
                  20035001.797                          51.200          44.700

 122112366.174 6  94976148.354 6                  22843603.820    22843603.965
                  22843610.305                          39.500          37.200

 113289999.945 7  88114465.317 7                  21163520.984    21163519.672
                  21163523.527                          45.800          45.800

 107857779.346 7  83889416.202 7                  20141683.383    20141682.180
                  20141684.941                          47.300          47.700

 124567817.888 5  96886081.503 6                  23327550.086    23327547.605
                  23327552.105                          34.800          38.600

 116151959.628 6  90340437.119 6                  21789812.844    21789812.645
                  21789817.887                          38.500          37.400

 122781480.434 6  95496555.462 6                  22976837.500    22976837.102
                  22976841.445                          38.700          37.800

 118526723.834 7  92187469.208 7                  22204049.102    22204046.992
                  22204050.410                          43.600          44.000

 104291948.197 8  81115996.521 7                  19496276.203    19496275.457
                  19496281.031                          48.700          43.500

 113400731.106 6  88200583.501 6                  21206505.781    21206505.234
                  21206507.328                          40.300          39.700

 16  2  1 12  3 10.0000000  0 17G02G05G13G20G21G25G26G29R01R07R08R13
                                R14R15R22R23R24
 127169023.790 5  99092720.52543                  24199449.539
                  24199449.695                          35.100          18.300

 113774983.167 8  88655829.34246                  21650649.172
                  21650653.656                          49.100          38.600

 130597210.786 6 101764087.90643                  24851824.430
                  24851830.082                          41.900          19.300

 108117231.802 8  84247130.94946                  20574006.133
                  20574010.660                          49.600          40.500

 119172769.713 7  92861929.36845                  22677823.711
                  22677827.074                          45.700          32.200

 121418932.207 7  94612109.19745                  23105234.000
                  23105240.781                          45.700          31.000

 119820876.056 7  93366934.31145                  22801149.531
                  22801157.848                          45.100          32.600

 105284865.023 8  82040143.61447                  20035028.031
                  20035032.512                          51.100          44.500

 122107870.569 6  94972651.758 6                  22842763.258    22842762.348
                  22842769.195                          38.800          37.600

 113292174.448 7  88116156.557 7                  21163926.844    21163925.297
                  21163929.211                          45.800          45.600

 107855853.134 7  83887918.042 8                  20141324.219    20141322.547
                  20141324.906                          47.300          48.100

 124571824.588 5  96889197.890 6                  23328301.578    23328298.395
                  23328302.801                          35.200          38.500

 116153238.304 6  90341431.626 6                  21790053.539    21790052.637
                  21790058.055                          38.500          37.200

 122779733.461 6  95495196.748 6                  22976510.156    22976510.230
                  22976514.832                          38.700          38.500

 118529694.233 7  92189779.541 7                  22204604.898    22204603.609
                  22204607.203                          43.800          44.200

 104292014.716 8  81116048.269 7                  19496288.859    19496288.113
                  19496293.551                          48.600          43.400

 113397966.874 6  88198433.530 6                  21205989.250    21205987.648
                  21205989.816                          39.900          39.400

 16  2  1 12  3 11.0000000  0 17G02G05G13G20G21G25G26G29R01R07R08R13
                                R14R15R22R23R24
 127171906.877 5  99094967.09243                  24199999.117
                  24199998.406                          34.900          19.000

 113776843.910 8  88657279.27246                  21651003.391
                  21651007.695                          49.300          38.500

 130594290.695 6 101761812.51643                  24851268.547
                  24851274.211                          41.700          19.900

 108115634.928 8  84245886.63446                  20573702.297
                  20573706.246                          49.600          40.600

 119170702.491 7  92860318.55145                  22677430.180
                  22677433.840                          45.600          32.800

 121422483.750 7  94614876.63245                  23105909.977
                  23105916.738                          46.000          31.400

 119819033.720 7  93365498.72545                  22800798.531
                  22800807.078                          45.600          32.300

 105285027.299 8  82040270.05847                  20035059.039
                  20035063.695                          51.100          44.300

 122103375.251 6  94969155.406 6                  22841922.266    22841921.473
                  22841927.973                          39.500          37.100

 113294349.741 7  88117848.471 7                  21164333.656    21164332.578
                  21164336.090                          45.600          45.600

 107853927.863 7  83886420.609 8                  20140964.188    20140963.219
                  20140965.844                          47.200          48.000

 124575831.597 5  96892314.443 6                  23329050.695    23329048.801
                  23329053.176                          34.900          38.300

 116154517.957 6  90342426.917 6                  21790294.141    21790292.652
                  21790297.980                          38.600          37.300

 122777987.418 6  95493838.687 6                  22976183.164    22976183.707
                  22976187.938                          38.900          38.400

 118532664.935 7  92192090.081 7                  22205161.102    22205159.461
                  22205163.184                          43.500          44.100

 104292081.811 8  81116100.455 7                  19496300.508    19496299.879
                  19496305.359                          48.200          42.700

 113395202.955 6  88196283.804 6                  21205472.320    21205471.188
                  21205473.785                          39.900          39.800

 16  2  1 12  3 12.0000000  0 17G02G05G13G20G21G25G26G29R01R07R08R13
                                R14R15R22R23R24
 127174789.975 5  99097213.68443                  24200546.063
                  24200546.895                          34.800          18.600

 113778705.206 8  88658729.63046                  21651358.078
                  21651361.969                          49.000          38.500

 130591370.780 6 101759537.27143                  24850712.781
                  24850718.645                          41.300          19.300

 108114038.665 8  84244642.78846                  20573398.508
                  20573402.105                          49.600          40.800

 119168635.419 7  92858707.84645                  22677037.023
                  22677040.406                          46.000          31.800

 121426035.513 7  94617644.24245                  23106585.867
                  23106592.352                          46.000          30.600

 119817191.942 7  93364063.57645                  22800447.969
                  22800456.480                          45.300          32.400

 105285190.066 8  82040396.89647                  20035089.727
                  20035094.254                          50.800          44.400

 122098880.099 6  94965659.198 6                  22841080.469    22841080.496
                  22841087.066                          39.400          37.500

 113296525.837 7  88119540.989 7                  21164739.766    21164738.688
                  21164742.477                          45.100          45.700

 107852003.372 7  83884923.779 7                  20140605.008    20140604.391
                  20140606.711                          46.700          47.900

 124579838.833 5  96895431.154 6                  23329800.336    23329798.676
                  23329803.289                          34.600          38.500

 116155798.439 6  90343422.858 6                  21790535.086    21790532.773
                  21790538.359                          38.400          37.100

 122776242.157 6  95492481.266 6                  22975857.570    22975857.172
                  22975861.656                          38.300          38.500

 118535635.894 7  92194400.804 7                  22205718.148    22205716.273
                  22205719.527                          43.000          43.900

 104292149.358 8  81116152.989 7                  19496313.578    19496312.598
                  19496318.301                          48.100          42.700

 113392439.206 6  88194134.255 6                  21204954.961    21204954.531
                  21204956.781                          39.500          39.900

 16  2  1 12  3 13.0000000  0 17G02G05G13G20G21G25G26G29R01R07R08R13
                                R14R15R22R23R24
 127177673.056 5  99099460.24443                  24201095.516
                  24201095.594                          35.500          19.000

 113780567.042 8  88660180.41146                  21651711.781
                  21651715.867                          48.900          39.100

 130588450.982 6 101757262.10743                  24850156.648
                  24850163.180                          41.100          19.600

 108112442.937 8  84243399.36846                  20573094.406
                  20573098.906                          49.400          40.300

 119166568.524 7  92857097.27845                  22676643.883
                  22676647.242                          46.100          32.300

 121429587.493 7  94620412.01845                  23107261.570
                  23107268.391                          46.000          30.900

 119815350.690 7  93362628.83645                  22800097.555
                  22800105.648                          45.200          32.300

 105285353.249 8  82040524.04747                  20035120.758
                  20035125.371                          50.300          44.600

 122094385.126 6  94962163.084 6                  22840240.305    22840239.512
                  22840245.945                          39.600          37.700

 113298702.711 7  88121234.116 7                  21165145.367    21165144.992
                  21165149.086                          45.300          45.800

 107850079.637 7  83883427.537 7                  20140246.406    20140244.969
                  20140247.332                          47.200          47.800

 124583846.181 5  96898547.998 6                  23330550.180    23330549.344
                  23330553.922                          35.000          38.500

 116157079.747 6  90344419.416 6                  21790775.875    21790773.094
                  21790778.352                          38.400          37.500

 122774497.637 6  95491124.404 6                  22975530.695    22975530.297
                  22975534.977                          38.300          38.500

 118538607.012 7  92196711.679 7                  22206274.125    22206272.250
                  22206276.129                          42.800          44.100

 104292217.328 8  81116205.850 7                  19496326.109    19496325.480
                  19496331.086                          48.200          43.000

 113389675.632 6  88191984.799 6                  21204438.664    21204437.766
                  21204439.605                          39.500          39.900

 16  2  1 12  3 14.0000000  0 17G02G05G13G20G21G25G26G29R01R07R08R13
                                R14R15R22R23R24
 127180556.305 5  99101706.91443                  24201644.367
                  24201644.496                          34.900          18.600

 113782429.453 8  88661631.64146                  21652066.758
                  21652070.633                          48.900          38.800

 130585531.450 6 101754987.14443                  24849601.719
                  24849607.602                          41.600          19.300

 108110847.872 8  84242156.45746                  20572791.086
                  20572795.590                          49.500          40.500

 119164501.890 7  92855486.91245                  22676250.695
                  22676253.922                          46.100          32.600

 121433139.740 7  94623180.00445                  23107937.633
                  23107944.223                          45.700          30.400

 119813510.070 7  93361194.58745                  22799747.406
                  22799755.766                          45.100          32.600

 105285516.968 8  82040651.61947                  20035151.750
                  20035156.668                          50.600          44.500

 122089890.365 6  94958667.150 6                  22839400.461    22839398.727
                  22839404.941                          39.600          37.000

 113300880.437 7  88122927.919 7                  21165552.070    21165551.695
                  21165555.578                          45.000          45.300

 107848156.798 7  83881931.991 8                  20139886.133    20139885.398
                  20139888.055                          47.000          48.200

 124587853.784 5  96901665.033 6                  23331300.844    23331299.887
                  23331304.563                          34.600          38.600

 116158361.913 6  90345416.681 6                  21791015.539    21791013.695
                  21791019.391                          38.100          37.400

 122772753.955 6  95489768.204 6                  22975204.219    22975204.059
                  22975208.902                          38.600          38.500

 118541578.405 7  92199022.777 7                  22206830.633    22206829.578
                  22206833.145                          43.000          44.100

 104292285.789 8  81116259.103 7                  19496339.281    19496338.535
                  19496343.961                          48.400          42.600

 113386912.329 6  88189835.551 6                  21203921.719    21203920.938
                  21203923.070                          39.600          39.900

 16  2  1 12  3 15.0000000  0 17G02G05G13G20G21G25G26G29R01R07R08R13
                                R14R15R22R23R24
 127183439.559 5  99103953.60943                  24202193.289
                  24202192.992                          35.000          18.300

 113784292.422 8  88663083.30746                  21652421.164
                  21652424.723                          49.000          39.200

 130582612.035 6 101752712.25443                  24849046.227
                  24849051.906                          41.300          19.600

 108109253.364 8  84240913.98046                  20572487.516
                  20572491.945                          49.600          40.400

 119162435.408 7  92853876.66645                  22675857.078
                  22675860.668                          46.300          32.700

 121436692.177 7  94625948.13645                  23108613.773
                  23108620.430                          45.800          30.200

 119811669.956 7  93359760.73045                  22799397.203
                  22799405.602                          45.000          32.400

 105285681.133 8  82040779.54147                  20035183.531
                  20035188.145                          50.600          44.900

 122085395.740 6  94955171.348 6                  22838559.711    22838557.977
                  22838564.641                          39.400          37.100

 113303058.914 7  88124622.281 7                  21165960.625    21165958.609
                  21165962.707                          45.100          45.500

 107846234.776 7  83880437.102 8                  20139527.586    20139526.617
                  20139529.207                          47.300          48.100

 124591861.571 5  96904782.211 6                  23332051.875    23332049.980
                  23332054.926                          35.200          38.900

 116159644.962 6  90346414.595 6                  21791256.859    21791254.664
                  21791260.176                          38.200          37.300

 122771011.062 6  95488412.616 6                  22974878.141    22974877.508
                  22974882.785                          38.500          38.500

 118544550.013 7  92201334.014 7                  22207388.117    22207386.711
                  22207390.078                          43.000          44.000

 104292354.674 8  81116312.685 7                  19496352.219    19496351.121
                  19496356.844                          48.300          42.400

 113384149.156 6  88187686.417 6                  21203405.016    21203404.234
                  21203406.082                          39.800          39.600

 16  2  1 12  3 16.0000000  0 17G02G05G13G20G21G25G26G29R01R07R08R13
                                R14R15R22R23R24
 127186322.835 5  99106200.32643                  24202741.414
                  24202742.121                          35.200          19.000

 113786155.925 8  88664535.38346                  21652775.945
                  21652779.578                          48.900          39.200

 130579692.823 6 101750437.54143                  24848490.672
                  24848496.086                          41.500          19.600

 108107659.442 8  84239671.95746                  20572184.484
                  20572188.449                          50.000          40.400

 119160369.139 7  92852266.58245                  22675463.797
                  22675467.391                          46.200          32.600

 121440244.859 7  94628716.46645                  23109289.625
                  23109296.434                          45.900          30.400

 119809830.434 7  93358327.33245                  22799048.164
                  22799055.559                          44.400          32.200

 105285845.757 8  82040907.82247                  20035214.289
                  20035218.934                          50.300          44.900

 122080901.315 6  94951675.680 6                  22837718.820    22837717.203
                  22837723.629                          39.300          37.200

 113305238.111 7  88126317.217 7                  21166366.484    21166366.227
                  21166369.988                          45.600          45.100

 107844313.618 7  83878942.854 8                  20139168.586    20139167.969
                  20139170.488                          47.300          48.200

 124595869.609 5  96907899.557 6                  23332803.227    23332801.332
                  23332805.809                          34.600          38.600

 116160928.850 6  90347413.144 6                  21791497.586    21791495.742
                  21791501.445                          38.100          37.400

 122769268.905 6  95487057.671 6                  22974552.078    22974551.563
                  22974556.336                          38.700          38.500

 118547521.845 7  92203645.423 7                  22207943.828    22207943.008
                  22207946.723                          43.700          43.600

 104292424.005 8  81116366.603 7                  19496364.938    19496364.074
                  19496369.504                          48.100          42.700

 113381386.176 6  88185537.417 6                  21202888.172    21202887.508
                  21202889.695                          39.400          39.900

 16  2  1 12  3 17.0000000  0 17G02G05G13G20G21G25G26G29R01R07R08R13
                                R14R15R22R23R24
 127189206.231 5  99108447.12243                  24203290.367
                  24203290.352                          35.600          19.000

 113788020.048 8  88665987.94946                  21653130.586
                  21653134.195                          48.800          38.300

 130576773.829 6 101748162.98943                  24847935.750
                  24847941.078                          41.600          20.100

 108106066.179 8  84238430.45646                  20571881.688
                  20571885.453                          49.500          40.100

 119158303.137 7  92850656.71045                  22675070.992
                  22675074.070                          45.900          32.400

 121443797.811 7  94631484.99745                  23109965.695
                  23109972.418                          45.600          30.400

 119807991.542 7  93356894.43045                  22798697.336
                  22798705.801                          44.600          32.300

 105286010.936 8  82041036.52947                  20035246.109
                  20035250.645                          49.900          45.200

 122076407.096 6  94948180.171 6                  22836878.023    22836876.996
                  22836883.254                          39.200          37.100

 113307418.091 7  88128012.728 7                  21166774.398    21166773.438
                  21166777.230                          45.400          45.100

 107842393.312 7  83877449.292 8                  20138809.648    20138809.383
                  20138811.984                          47.500          48.400

 124599877.845 5  96911017.081 6                  23333553.375    23333551.715
                  23333556.016                          35.100          38.300

 116162213.620 6  90348412.411 6                  21791738.453    21791736.141
                  21791742.094                          38.300          37.100

 122767527.692 6  95485703.376 6                  22974226.703    22974225.953
                  22974230.980                          38.400          38.800

 118550493.950 7  92205957.058 7                  22208500.375    22208499.906
                  22208503.371                          43.700          43.600

 104292493.814 8  81116420.902 7                  19496378.219    19496377.590
                  19496382.652                          48.400          43.000

 113378623.450 6  88183388.658 6                  21202372.102    21202370.617
                  21202372.637                          39.600          40.000

 16  2  1 12  3 18.0000000  0 17G02G05G13G20G21G25G26G29R01R07R08R13
                                R14R15R22R23R24
 127192089.683 5  99110693.96843                  24203838.938
                  24203839.402                          35.400          18.600

 113789884.697 8  88667440.92046                  21653485.625
                  21653489.285                          49.100          38.600

 130573854.993 6 101745888.58543                  24847380.055
                  24847385.234                          41.900          19.300

 108104473.487 8  84237189.39746                  20571578.492
                  20571582.488                          49.300          40.000

 119156237.316 7  92849046.97945                  22674678.242
                  22674681.219                          45.600          32.600

 121447350.982 7  94634253.70245                  23110642.461
                  23110648.824                          45.700          30.600

 119806153.136 7  93355461.90645                  22798348.086
                  22798355.902                          44.700          32.400

 105286176.560 8  82041165.58647                  20035277.438
                  20035282.012                          50.100          45.200

 122071913.019 6  94944684.785 6                  22836035.961    22836035.871
                  22836042.109                          39.600          37.100

 113309598.791 7  88129708.841 7                  21167181.398    21167181.141
                  21167184.773                          45.200          45.400

 107840473.805 7  83875956.341 8                  20138451.945    20138450.625
                  20138453.316                          47.200          48.600

 124603886.295 5  96914134.789 6                  23334304.625    23334302.496
                  23334306.250                          34.500          38.000

 116163499.216 6  90349412.329 6                  21791978.617    21791977.949
                  21791983.750                          38.700          37.500

 122765787.240 6  95484349.681 6                  22973900.563    22973900.285
                  22973904.961                          38.700          38.300

 118553466.248 7  92208268.840 7                  22209057.398    22209056.813
                  22209060.082                          43.000          43.800

 104292564.058 8  81116475.536 7                  19496390.977    19496390.348
                  19496395.766                          48.700          43.000

 113375860.922 6  88181240.010 6                  21201855.117    21201854.453
                  21201856.410                          39.500          40.300

 16  2  1 12  3 19.0000000  0 17G02G05G13G20G21G25G26G29R01R07R08R13
                                R14R15R22R23R24
 127194973.243 5  99112940.89443                  24204387.430
                  24204388.008                          35.000          19.000

 113791749.952 8  88668894.36446                  21653840.359
                  21653844.082                          49.500          38.600

 130570936.366 6 101743614.35543                  24846824.430
                  24846830.391                          41.400          19.000

 108102881.429 8  84235948.83146                  20571275.281
                  20571279.473                          49.700          40.000

 119154171.743 7  92847437.43745                  22674284.852
                  22674288.250                          46.100          32.200

 121450904.419 7  94637022.62445                  23111318.102
                  23111325.016                          45.800          30.400

 119804315.385 7  93354029.89445                  22797997.875
                  22798006.418                          44.600          32.700

 105286342.689 8  82041295.04147                  20035309.586
                  20035313.727                          50.400          45.300

 122067419.161 6  94941189.552 6                  22835196.531    22835194.563
                  22835201.293                          39.400          37.200

 113311780.328 7  88131405.591 7                  21167589.063    21167588.336
                  21167591.922                          45.500          45.700

 107838555.126 7  83874464.040 8                  20138092.500    20138092.117
                  20138094.691                          47.100          48.200

 124607894.963 5  96917252.633 6                  23335054.109    23335052.918
                  23335057.133                          35.200          38.500

 116164785.729 6  90350412.934 6                  21792219.969    21792218.480
                  21792224.594                          38.600          37.400

 122764047.647 6  95482996.645 6                  22973574.867    22973574.234
                  22973578.977                          39.100          38.900

 118556438.792 7  92210580.835 7                  22209614.445    22209613.742
                  22209616.934                          42.900          43.900

 104292634.759 8  81116530.528 7                  19496404.063    19496403.434
                  19496409.000                          48.700          43.200

 113373098.644 6  88179091.594 6                  21201337.945    21201337.867
                  21201339.590                          39.900          40.600
                  
