     2.11           OBSERVATION DATA    M (MIXED)           RINEX VERSION / TYPE
teqc  2011Oct11                         20160218 00:18:06UTCPGM / RUN BY / DATE
Linux 2.4.21-27.ELsmp|Opteron|gcc|Linux x86_64|=+           COMMENT
teqc  2015Jun23                         20160218 00:18:05UTCCOMMENT
Linux 2.4.21-27.ELsmp|Opteron|gcc -static|Linux x86_64|=+   COMMENT
BIT 2 OF LLI FLAGS DATA COLLECTED UNDER A/S CONDITION       COMMENT
CEBR                                                        MARKER NAME
13408M001                                                   MARKER NUMBER
AUTOMATIC           ESA/ESOC                                OBSERVER / AGENCY
3001288             SEPT POLARX4        2.9.0               REC # / TYPE / VERS
5163                SEPCHOKE_MC     NONE                    ANT # / TYPE
  4846664.9180  -370195.2000  4116929.5260                  APPROX POSITION XYZ
        0.1780        0.0000        0.0000                  ANTENNA: DELTA H/E/N
     1     1                                                WAVELENGTH FACT L1/2
    17    C1    P1    L1    S1    C2    P2    L2    S2    C5# / TYPES OF OBSERV
          L5    S5    C7    L7    S7    C8    L8    S8      # / TYPES OF OBSERV
 SNR is mapped to RINEX snr flag value [0-9]                COMMENT
  L1 & L2: min(max(int(snr_dBHz/6), 0), 9)                  COMMENT
teqc_SBF.bin edited: all SBAS satellites excluded           COMMENT
teqc_SBF.bin edited: all Galileo satellites excluded        COMMENT
teqc_SBF.bin edited: all Compass satellites excluded        COMMENT
teqc_SBF.bin edited: all QZSS satellites excluded           COMMENT
    17                                                      LEAP SECONDS
  2016     2    18     0     0    0.0000000     GPS         TIME OF FIRST OBS
                                                            END OF HEADER
 16  2 18  0  0  0.0000000  0 19G27G26R14G16R24G20G31G08R15G21G10G18
                                R17R02G29R08R18R01G04
  21918746.696    21918746.370   115183849.749 7        47.000    21918747.796
  21918747.819    89753682.447 7        44.500    21918748.861    86013951.821 8
        51.000

  20332542.007    20332541.788   106848264.083 8        51.500    20332543.921
  20332544.095    83258426.178 8        49.250    20332544.184    79789323.620 9
        55.250

  21734317.278                   115856153.880 6        39.750    21734323.471
  21734323.095    90110388.660 6        38.750


  20554527.439    20554526.863   108014807.392 8        50.750
  20554525.529    84167392.42047        45.000


  22481370.469                   120218318.105 6        39.750    22481370.389
  22481371.927    93502928.663 5        31.750


  23703517.213    23703516.382   124562832.286 6        37.250
  23703516.578    97061952.08143        19.250


  23953601.261    23953601.283   125877054.670 6        41.000    23953601.065
  23953601.382    98086038.085 6        38.000


  24551514.249    24551513.977   129019089.833 5        35.750    24551519.333
  24551517.969   100534375.338 6        37.500    24551518.367    96345438.824 7
        43.000

  19590928.294                   104687994.324 8        49.500    19590934.031
  19590933.266    81424025.621 8        48.250


  21623323.120    21623322.401   113631685.560 8        48.000
  21623321.247    88544084.48546        40.000


  23980808.859    23980808.783   126020037.143 6        40.500    23980810.778
  23980811.059    98197492.372 6        37.750    23980810.357    94105931.054 7
        43.000

  22876368.484    22876367.832   120216185.851 7        44.000
  22876366.852    93674966.38244        27.500


  20258139.955                   108405748.282 8        49.250    20258144.091
  20258142.231    84315351.443 5        33.000


  23645328.180                   126176006.873 6        41.500    23645331.100
  23645331.216    98136900.963 6        39.500


  24598404.534    24598404.578   129265747.731 6        38.500    24598402.853
  24598403.041   100726677.810 5        33.000


  24269864.537                   129964048.981 5        35.500    24269867.975
  24269865.887   101083141.030 5        32.500


  21045532.151                   112342593.608 8        49.000    21045535.894
  21045535.952    87377642.860 7        45.000


  22965446.264                   122763453.788 7        43.000    22965448.478
  22965449.976    95482724.103 5        35.500


  20642621.889    20642621.822   108477755.177 8        50.000
  20642620.396    84528138.12447        42.250


 16  2 18  0  0  1.0000000  0 19G27G26R14G16R24G20G31G08R15G21G10G18
                                R17R02G29R08R18R01G04
  21918363.375    21918363.049   115181835.053 7        46.750    21918364.569
  21918364.431    89752112.554 7        44.500    21918365.459    86012447.344 8
        51.000

  20332655.483    20332655.264   106848860.321 8        51.500    20332657.459
  20332657.558    83258890.775 8        49.250    20332657.638    79789768.861 9
        55.250

  21735111.916                   115860389.071 6        39.750    21735117.783
  21735117.519    90113682.701 6        38.500


  20554296.229    20554295.653   108013592.542 8        50.750
  20554294.355    84166445.78647        45.000


  22481963.397                   120221487.167 6        39.500    22481963.755
  22481964.605    93505393.514 5        31.500


  23703751.320    23703750.489   124564063.530 6        37.000
  23703750.918    97062911.49443        19.000


  23954264.072    23954264.094   125880536.808 6        41.000    23954263.889
  23954264.036    98088751.465 6        38.000


  24550994.065    24550993.802   129016355.434 5        35.750    24550998.733
  24550997.660   100532244.652 6        37.250    24550998.089    96343396.912 7
        43.000

  19591215.716                   104689529.886 8        49.500    19591221.364
  19591220.675    81425219.949 8        48.250


  21623607.198    21623606.474   113633178.267 8        48.000
  21623605.306    88545247.63346        40.000


  23980190.613    23980190.533   126016788.887 6        40.500    23980192.545
  23980192.925    98194961.269 6        37.750    23980192.196    94103505.408 7
        43.000

  22876049.559    22876048.907   120214509.815 7        44.000
  22876047.895    93673660.38144        27.500


  20258521.076                   108407787.303 8        49.500    20258525.257
  20258523.410    84316937.349 5        32.750


  23644671.840                   126172504.881 6        41.500    23644675.091
  23644675.019    98134177.182 6        38.750


  24598944.666    24598944.710   129268586.201 6        38.500    24598942.542
  24598943.235   100728889.593 5        32.250


  24270183.453                   129965751.685 5        35.500    24270186.359
  24270183.752   101084465.374 5        32.000


  21045145.481                   112340530.426 8        49.000    21045149.282
  21045149.443    87376038.169 7        45.000


  22965233.514                   122762315.737 7        43.000    22965235.499
  22965237.413    95481838.948 6        36.250


  20642897.654    20642897.587   108479204.656 8        50.250
  20642896.228    84529267.58847        42.250


 16  2 18  0  0  2.0000000  0 19G27G26R14G16R24G20G31G08R15G21G10G18
                                R17R02G29R08R18R01G04
  21917979.987    21917979.661   115179820.578 7        46.750    21917981.181
  21917981.088    89750542.825 7        44.500    21917982.098    86010943.020 8
        51.000

  20332769.022    20332768.799   106849457.092 8        51.500    20332770.972
  20332771.124    83259355.795 8        49.250    20332771.195    79790214.505 9
        55.250

  21735906.148                   115864624.620 6        39.750    21735912.341
  21735911.997    90116977.011 6        38.250


  20554065.140    20554064.564   108012378.126 8        50.750
  20554063.262    84165499.48847        45.000


  22482555.946                   120224656.280 6        39.250    22482557.019
  22482557.113    93507858.384 5        31.500


  23703985.714    23703984.883   124565295.360 6        36.750
  23703985.293    97063871.35443        19.250


  23954926.740    23954926.757   125884018.998 6        41.250    23954926.547
  23954926.691    98091464.856 6        38.000


  24550473.698    24550473.448   129013621.133 6        36.250    24550478.290
  24550477.373   100530114.017 6        37.250    24550477.749    96341355.061 7
        43.000

  19591503.192                   104691066.311 8        49.500    19591508.894
  19591508.245    81426414.936 8        48.250


  21623891.379    21623890.655   113634671.351 8        48.000
  21623889.429    88546411.07546        39.750


  23979572.483    23979572.403   126013540.696 6        40.500    23979574.428
  23979574.799    98192430.209 6        37.750    23979574.025    94101079.813 7
        43.000

  22875730.643    22875729.991   120212834.139 7        44.000
  22875729.006    93672354.65944        27.500


  20258902.107                   108409826.600 8        49.250    20258905.635
  20258904.401    84318523.473 5        33.500


  23644016.188                   126169003.026 6        41.500    23644019.247
  23644018.835    98131453.510 6        39.000


  24599484.887    24599484.940   129271424.670 6        38.750    24599482.548
  24599483.380   100731101.409 5        32.250


  24270502.481                   129967455.158 5        35.500    24270504.784
  24270501.671   101085790.277 5        32.250


  21044759.012                   112338467.618 8        49.000    21044763.059
  21044762.974    87374433.756 7        45.000


  22965020.651                   122761178.445 7        42.750    22965022.945
  22965024.590    95480954.412 6        36.000


  20643173.558    20643173.496   108480654.640 8        50.000
  20643172.154    84530397.44647        42.250


 16  2 18  0  0  3.0000000  0 19G27G26R14G16R24G20G31G08R15G21G10G18
                                R17R02G29R08R18R01G04
  21917596.631    21917596.305   115177806.295 7        47.000    21917597.807
  21917597.793    89748973.254 7        44.500    21917598.835    86009438.850 8
        51.000

  20332882.726    20332882.503   106850054.399 8        51.500    20332884.721
  20332884.792    83259821.226 8        49.250    20332884.873    79790660.546 9
        55.250

  21736700.800                   115868860.504 6        39.750    21736706.967
  21736706.747    90120271.600 6        38.750


  20553834.114    20553833.538   108011164.151 8        50.750
  20553832.249    84164553.53447        45.000


  22483148.749                   120227825.407 6        39.500    22483152.210
  22483150.041    93510323.270 5        31.750


  23704220.112    23704219.276   124566527.811 6        36.500
  23704219.857    97064831.70143        19.000


  23955589.430    23955589.443   125887501.255 6        41.250    23955589.005
  23955589.358    98094178.290 6        38.000


  24549953.433    24549953.179   129010886.882 6        36.250    24549957.753
  24549957.038   100527983.448 6        37.000    24549957.400    96339313.256 7
        42.750

  19591790.901                   104692603.592 8        49.500    19591796.477
  19591795.972    81427610.607 8        48.250


  21624175.622    21624174.898   113636164.824 8        48.000
  21624173.632    88547574.82046        39.750


  23978954.196    23978954.116   126010292.573 6        40.500    23978955.931
  23978956.673    98189899.202 6        37.500    23978955.882    94098654.259 7
        43.000

  22875411.695    22875411.043   120211158.864 7        43.750
  22875410.202    93671049.24944        27.500


  20259283.268                   108411866.165 8        49.250    20259286.711
  20259285.437    84320109.802 5        33.250


  23643359.987                   126165501.347 6        41.250    23643363.112
  23643362.661    98128729.999 6        38.750


  24600024.831    24600024.889   129274263.151 6        38.250    24600022.671
  24600023.530   100733313.198 5        32.250


  24270820.270                   129969159.335 5        35.500    24270822.389
  24270819.796   101087115.766 5        31.750


  21044372.691                   112336405.184 8        48.750    21044376.916
  21044376.639    87372829.646 7        45.000


  22964807.560                   122760041.904 7        42.500    22964810.520
  22964812.202    95480070.397 5        35.750


  20643449.649    20643449.587   108482105.114 8        50.250
  20643448.174    84531527.68547        42.250


 16  2 18  0  0  4.0000000  0 19G27G26R14G16R24G20G31G08R15G21G10G18
                                R17R02G29R08R18R01G04
  21917213.520    21917213.199   115175792.214 7        47.000    21917214.481
  21917214.540    89747403.848 7        44.500    21917215.568    86007934.835 8
        51.000

  20332996.458    20332996.235   106850652.232 8        51.500    20332998.452
  20332998.564    83260287.075 8        49.250    20332998.635    79791106.981 9
        55.250

  21737496.096                   115873096.729 6        39.750    21737501.699
  21737501.462    90123566.422 6        38.250


  20553603.136    20553602.560   108009950.616 8        50.750
  20553601.325    84163607.92247        45.000


  22483741.189                   120230994.554 6        39.250    22483745.961
  22483743.059    93512788.116 5        31.250


  23704454.729    23704453.898   124567760.808 6        36.750
  23704454.514    97065792.48543        18.750


  23956252.196    23956252.209   125890983.547 6        41.250    23956251.686
  23956252.021    98096891.766 6        38.000


  24549433.428    24549433.169   129008152.698 6        36.750    24549437.261
  24549436.755   100525852.916 6        36.750    24549437.077    96337271.508 7
        43.000

  19592078.806                   104694141.734 8        49.500    19592084.338
  19592083.747    81428806.935 8        48.250


  21624459.901    21624459.177   113637658.670 8        48.000
  21624457.902    88548738.85546        39.750


  23978336.285    23978336.209   126007044.508 6        40.500    23978337.519
  23978338.592    98187368.239 6        37.750    23978337.823    94096228.764 7
        43.000

  22875092.954    22875092.297   120209483.967 7        43.750
  22875091.451    93669744.13444        27.250


  20259664.470                   108413906.005 8        49.250    20259667.506
  20259666.379    84321696.351 5        32.750


  23642703.798                   126161999.836 6        41.000    23642706.812
  23642706.280    98126006.593 6        39.000


  24600565.016    24600565.069   129277101.630 6        38.000    24600562.763
  24600563.724   100735525.008 5        32.500


  24271137.608                   129970864.169 5        35.500    24271139.875
  24271138.395   101088441.750 5        33.000


  21043986.338                   112334343.114 8        49.000    21043990.349
  21043990.344    87371225.816 7        45.000


  22964594.581                   122758906.113 7        42.500    22964598.038
  22964599.639    95479187.009 6        36.000


  20643725.683    20643725.616   108483556.079 8        50.000
  20643724.292    84532658.30647        42.250


 16  2 18  0  0  5.0000000  0 19G27G26R14G16R24G20G31G08R15G21G10G18
                                R17R02G29R08R18R01G04
  21916830.391    21916830.070   115173778.358 7        47.000    21916831.299
  21916831.317    89745834.602 7        44.500    21916832.359    86006430.978 8
        51.000

  20333110.314    20333110.095   106851250.602 8        51.250    20333112.291
  20333112.438    83260753.334 8        49.250    20333112.492    79791553.819 9
        55.250

  21738291.012                   115877333.297 6        39.500    21738296.467
  21738296.190    90126861.532 6        38.500


  20553372.302    20553371.726   108008737.533 8        50.750
  20553370.487    84162662.66347        45.000


  22484334.341                   120234163.702 6        39.000    22484337.565
  22484335.486    93515253.015 5        31.000


  23704689.820    23704688.989   124568994.422 6        37.250
  23704689.243    97066753.73843        19.250


  23956914.810    23956914.818   125894465.905 6        41.500    23956914.479
  23956914.676    98099605.288 6        38.250


  24548913.423    24548913.169   129005418.598 6        36.500    24548916.182
  24548916.473   100523722.453 6        36.750    24548916.665    96335229.796 7
        42.750

  19592366.828                   104695680.735 8        49.500    19592372.315
  19592371.733    81430003.936 8        48.250


  21624744.372    21624743.648   113639152.900 8        48.000
  21624742.248    88549903.19046        39.750


  23977718.150    23977718.070   126003796.520 6        40.500    23977719.858
  23977720.529    98184837.350 6        38.000    23977719.652    94093803.326 7
        42.750

  22874774.181    22874773.524   120207809.462 7        43.500
  22874772.799    93668439.32544        27.500


  20260045.671                   108415946.133 8        49.500    20260048.171
  20260047.446    84323283.131 5        31.750


  23642047.579                   126158498.526 6        41.000    23642050.356
  23642050.154    98123283.352 6        39.000


  24601104.688    24601104.741   129279940.113 6        38.000    24601103.261
  24601103.892   100737736.825 5        32.500


  24271456.139                   129972569.739 5        35.750    24271457.087
  24271456.770   101089768.280 5        31.500


  21043600.151                   112332281.429 8        48.750    21043604.171
  21043604.162    87369622.276 7        45.000


  22964381.933                   122757771.095 7        42.250    22964386.727
  22964387.348    95478304.239 6        36.000


  20644001.877    20644001.810   108485007.556 8        50.000
  20644000.500    84533789.32847        42.250


 16  2 18  0  0  6.0000000  0 19G27G26R14G16R24G20G31G08R15G21G10G18
                                R17R02G29R08R18R01G04
  21916447.156    21916446.835   115171764.710 7        47.000    21916448.095
  21916448.126    89744265.526 7        44.750    21916449.163    86004927.279 8
        51.000

  20333224.264    20333224.041   106851849.501 8        51.250    20333226.219
  20333226.406    83261220.009 8        49.250    20333226.456    79792001.045 9
        55.250

  21739085.575                   115881570.224 6        39.500    21739090.963
  21739090.949    90130156.920 6        38.250


  20553141.486    20553140.910   108007524.883 8        50.750
  20553139.733    84161717.74147        45.000


  22484926.317                   120237332.873 6        39.000    22484930.006
  22484927.909    93517717.951 5        32.250


  23704924.835    23704923.999   124570228.625 6        37.000
  23704924.106    97067715.45843        19.250


  23957577.562    23957577.570   125897948.319 6        41.500    23957577.267
  23957577.374    98102318.850 6        38.250


  24548393.012    24548392.762   129002684.552 6        36.500    24548395.896
  24548396.177   100521592.016 6        36.500    24548396.347    96333188.144 7
        42.750

  19592655.073                   104697220.602 8        49.500    19592660.533
  19592659.876    81431201.609 8        48.250


  21625028.713    21625027.994   113640647.512 8        48.000
  21625026.670    88551067.82246        39.750


  23977100.046    23977099.970   126000548.591 6        40.250    23977101.835
  23977102.479    98182306.500 6        37.750    23977101.513    94091377.928 7
        42.750

  22874455.519    22874454.867   120206135.338 7        43.750
  22874454.191    93667134.81544        27.500


  20260426.939                   108417986.515 8        49.500    20260428.451
  20260429.104    84324870.109 5        32.500


  23641390.979                   126154997.352 6        40.500    23641394.226
  23641393.886    98120560.221 6        39.000


  24601644.717    24601644.770   129282778.592 6        37.750    24601642.959
  24601644.068   100739948.604 5        32.000


  24271774.550                   129974275.998 5        35.750    24271774.975
  24271775.502   101091095.373 5        31.250


  21043213.798                   112330220.106 8        48.750    21043218.077
  21043217.952    87368019.028 7        45.000


  22964169.156                   122756636.815 7        42.250    22964175.098
  22964175.376    95477422.033 5        35.500


  20644278.165    20644278.103   108486459.531 8        50.000
  20644276.801    84534920.73647        42.250


 16  2 18  0  0  7.0000000  0 19G27G26R14G16R24G20G31G08R15G21G10G18
                                R17R02G29R08R18R01G04
  21916064.049    21916063.728   115169751.263 7        47.000    21916064.957
  21916064.988    89742696.605 7        44.750    21916066.017    86003423.733 8
        51.000

  20333338.291    20333338.072   106852448.936 8        51.500    20333340.285
  20333340.482    83261687.103 8        49.500    20333340.531    79792448.673 9
        55.250

  21739880.021                   115885807.461 6        39.750    21739886.214
  21739885.825    90133452.549 6        38.250


  20552910.786    20552910.210   108006312.675 8        50.750
  20552909.060    84160773.16447        45.000


  22485518.548                   120240502.066 6        38.750    22485521.213
  22485520.582    93520182.851 5        32.000


  23705159.519    23705158.683   124571463.435 6        37.000
  23705159.054    97068677.64643        19.000


  23958240.310    23958240.314   125901430.775 6        41.500    23958240.275
  23958240.082    98105032.443 6        38.000


  24547872.863    24547872.618   128999950.606 6        36.750    24547875.359
  24547875.819   100519461.654 6        36.500    24547876.083    96331146.563 7
        42.750

  19592943.336                   104698761.331 8        49.500    19592948.895
  19592948.179    81432399.952 8        48.250


  21625313.176    21625312.452   113642142.502 8        48.000
  21625311.163    88552232.75046        40.000


  23976481.818    23976481.738   125997300.747 6        40.250    23976483.714
  23976484.425    98179775.706 6        38.000    23976483.392    94088952.595 7
        42.750

  22874137.117    22874136.465   120204461.584 7        43.750
  22874135.695    93665830.59644        27.500


  20260808.293                   108420027.168 8        49.500    20260809.321
  20260810.627    84326457.243 5        32.500


  23640734.321                   126151496.341 6        40.500    23640737.689
  23640737.854    98117837.218 6        38.750


  24602184.669    24602184.727   129285617.066 6        37.500    24602183.480
  24602184.195   100742160.411 5        32.500


  24272092.831                   129975982.962 5        35.000    24272092.420
  24272094.624   101092423.056 5        32.000


  21042827.772                   112328159.153 8        48.750    21042832.167
  21042831.904    87366416.062 7        45.000


  22963957.219                   122755503.299 7        42.250    22963962.723
  22963963.327    95476540.412 5        35.750


  20644554.645    20644554.583   108487911.998 8        50.250
  20644553.197    84536052.52947        42.250


 16  2 18  0  0  8.0000000  0 19G27G26R14G16R24G20G31G08R15G21G10G18
                                R17R02G29R08R18R01G04
  21915680.988    21915680.667   115167738.038 7        47.000    21915681.775
  21915681.869    89741127.856 7        44.500    21915682.919    86001920.349 8
        50.750

  20333452.492    20333452.273   106853048.905 8        51.250    20333454.544
  20333454.660    83262154.609 8        49.250    20333454.696    79792896.700 9
        55.250

  21740675.084                   115890045.079 6        39.750    21740681.161
  21740680.884    90136748.460 6        38.500


  20552680.171    20552679.595   108005100.913 8        50.750
  20552678.476    84159828.93247        45.000


  22486111.051                   120243671.298 6        38.500    22486112.889
  22486113.059    93522647.799 5        32.000


  23705395.022    23705394.195   124572698.820 6        37.500
  23705394.092    97069640.28043        19.000


  23958903.045    23958903.045   125904913.284 6        41.500    23958902.576
  23958902.795    98107746.112 6        38.000


  24547352.814    24547352.564   128997216.709 6        36.750    24547355.296
  24547355.533   100517331.356 6        36.500    24547355.872    96329105.010 7
        42.750

  19593231.939                   104700302.920 8        49.750    19593237.381
  19593236.653    81433598.968 8        48.500


  21625597.683    21625596.964   113643637.874 8        48.000
  21625595.724    88553397.97346        39.750


  23975863.777    23975863.701   125994052.969 6        40.250    23975865.736
  23975866.366    98177244.945 6        38.000    23975865.360    94086527.297 7
        42.750

  22873818.738    22873818.090   120202788.227 7        44.000
  22873817.271    93664526.68144        27.500


  20261189.503                   108422068.092 8        49.500    20261191.010
  20261192.092    84328044.624 5        32.750


  23640077.820                   126147995.490 6        40.500    23640081.281
  23640081.670    98115114.330 6        38.750


  24602724.864    24602724.917   129288455.558 6        37.500    24602723.791
  24602724.376   100744372.211 5        32.500


  24272411.488                   129977690.668 5        35.000    24272409.883
  24272413.724   101093751.296 5        31.500


  21042441.719                   112326098.562 8        48.750    21042446.114
  21042445.868    87364813.383 7        45.000


  22963745.572                   122754370.535 7        42.250    22963750.929
  22963751.435    95475659.383 5        35.750


  20644831.135    20644831.068   108489364.969 8        50.250
  20644829.690    84537184.71347        42.250


 16  2 18  0  0  9.0000000  0 19G27G26R14G16R24G20G31G08R15G21G10G18
                                R17R02G29R08R18R01G04
  21915297.971    21915297.650   115165725.017 7        47.000    21915298.722
  21915298.789    89739559.263 7        44.750    21915299.849    86000417.117 8
        51.000

  20333566.759    20333566.536   106853649.395 8        51.500    20333568.812
  20333568.928    83262622.521 8        49.250    20333568.959    79793345.121 9
        55.250

  21741470.447                   115894283.032 6        39.750    21741476.001
  21741475.925    90140044.645 6        38.000


  20552449.650    20552449.074   108003889.584 8        50.750
  20552447.973    84158885.04047        45.000


  22486703.156                   120246840.546 6        38.250    22486705.830
  22486705.388    93525112.762 5        30.500


  23705630.515    23705629.688   124573934.790 6        37.500
  23705629.277    97070603.36643        19.250


  23959565.789    23959565.789   125908395.858 6        41.500    23959564.966
  23959565.507    98110459.786 6        38.000


  24546832.666    24546832.416   128994482.883 6        37.000    24546835.554
  24546835.246   100515201.097 6        36.500    24546835.639    96327063.521 7
        43.000

  19593520.569                   104701845.377 8        49.500    19593525.993
  19593525.327    81434798.661 8        48.250


  21625882.239    21625881.515   113645133.614 8        48.000
  21625880.356    88554563.48546        39.750


  23975245.875    23975245.804   125990805.250 6        40.250    23975247.757
  23975248.356    98174714.264 6        38.000    23975247.310    94084102.064 7
        42.750

  22873500.323    22873499.675   120201115.254 7        44.000
  22873498.865    93663223.06744        27.500


  20261570.816                   108424109.283 8        49.250    20261572.766
  20261573.544    84329632.244 5        32.500


  23639421.431                   126144494.846 6        40.250    23639425.638
  23639425.594    98112391.598 6        39.000


  24603265.027    24603265.080   129291294.026 6        37.250    24603263.775
  24603264.517   100746584.029 5        32.500


  24272731.039                   129979399.126 5        34.750    24272730.480
  24272732.452   101095080.051 5        31.250


  21042055.831                   112324038.358 8        48.750    21042059.976
  21042059.909    87363210.997 7        45.000


  22963533.743                   122753238.518 7        42.500    22963538.943
  22963539.752    95474778.920 5        35.500


  20645107.736    20645107.669   108490818.434 8        50.250
  20645106.278    84538317.28347        42.250


 16  2 18  0  0 10.0000000  0 19G27G26R14G16R24G20G31G08R15G21G10G18
                                R17R02G29R08R18R01G04
  21914914.833    21914914.512   115163712.203 7        46.750    21914915.920
  21914915.772    89737990.846 7        44.750    21914916.877    85998914.045 8
        50.750

  20333681.108    20333680.889   106854250.426 8        51.500    20333683.151
  20333683.299    83263090.856 8        49.250    20333683.344    79793793.944 9
        55.250

  21742265.717                   115898521.336 6        40.000    21742270.720
  21742271.069    90143341.092 6        38.500


  20552219.277    20552218.701   108002678.700 8        50.750
  20552217.550    84157941.49547        45.000


  22487296.044                   120250009.815 6        38.500    22487300.100
  22487298.325    93527577.758 5        31.250


  23705865.919    23705865.092   124575171.368 6        37.250
  23705864.551    97071566.93143        18.750


  23960228.608    23960228.608   125911878.481 6        41.500    23960227.732
  23960228.228    98113173.522 6        38.000


  24546312.030    24546311.771   128991749.126 6        36.750    24546315.581
  24546315.062   100513070.876 6        36.750    24546315.518    96325022.078 7
        42.750

  19593809.324                   104703388.698 8        49.500    19593814.722
  19593814.118    81435999.017 8        48.250


  21626166.884    21626166.160   113646629.742 7        47.750
  21626165.064    88555729.29846        39.750


  23974627.910    23974627.843   125987557.610 6        40.250    23974629.855
  23974630.311    98172183.636 6        38.000    23974629.251    94081676.875 7
        42.750

  22873182.176    22873181.533   120199442.664 7        44.000
  22873180.552    93661919.75144        27.500


  20261952.322                   108426150.747 8        49.500    20261955.805
  20261955.192    84331220.014 5        32.500


  23638765.430                   126140994.364 6        40.250    23638769.736
  23638769.692    98109669.010 6        38.750


  24603805.284    24603805.337   129294132.503 6        37.500    24603804.394
  24603804.667   100748795.817 5        32.750


  24273050.371                   129981108.255 5        34.750    24273051.207
  24273051.820   101096409.378 5        31.250


  21041669.814                   112321978.512 8        48.500    21041674.200
  21041674.071    87361608.898 7        45.000


  22963322.145                   122752107.264 7        42.500    22963327.328
  22963327.963    95473899.037 6        36.000


  20645384.404    20645384.337   108492272.406 8        50.250
  20645382.960    84539450.24647        42.250


 16  2 18  0  0 11.0000000  0 19G27G26R14G16R24G20G31G08R15G21G10G18
                                R17R02G29R08R18R01G04
  21914531.799    21914531.478   115161699.601 7        46.750    21914533.046
  21914532.787    89736422.587 7        44.750    21914533.896    85997411.130 8
        50.750

  20333795.617    20333795.398   106854851.987 8        51.500    20333797.638
  20333797.777    83263559.602 8        49.500    20333797.822    79794243.161 9
        55.250

  21743060.914                   115902759.983 6        40.000    21743066.410
  21743066.311    90146637.841 6        38.500


  20551988.997    20551988.421   108001468.262 8        50.750
  20551987.213    84156998.29547        45.000


  22487888.910                   120253179.081 6        38.500    22487892.688
  22487891.030    93530042.725 5        31.500


  23706101.668    23706100.841   124576408.544 6        37.500
  23706099.977    97072530.96443        18.500


  23960891.240    23960891.236   125915361.168 6        41.500    23960890.538
  23960890.981    98115887.300 6        38.250


  24545791.820    24545791.561   128989015.444 6        36.500    24545794.936
  24545794.856   100510940.761 6        36.750    24545795.334    96322980.689 7
        42.750

  19594098.196                   104704932.889 8        49.750    19594103.629
  19594103.079    81437200.054 8        48.250


  21626451.552    21626450.828   113648126.248 7        47.750
  21626449.844    88556895.40746        39.750


  23974009.829    23974009.762   125984310.021 6        40.250    23974012.051
  23974012.302    98169653.063 6        38.250    23974011.242    94079251.735 7
        42.750

  22872864.051    22872863.403   120197770.458 7        44.000
  22872862.325    93660616.73244        27.500


  20262334.024                   108428192.470 8        49.500    20262337.141
  20262336.501    84332808.038 5        33.250


  23638109.282                   126137494.056 6        40.250    23638113.794
  23638113.852    98106946.542 6        38.750


  24604345.241    24604345.290   129296970.984 6        37.500    24604344.351
  24604344.785   100751007.592 5        32.750


  24273369.260                   129982818.091 5        35.000    24273369.886
  24273370.763   101097739.272 5        31.250


  21041284.074                   112319919.032 8        48.500    21041288.447
  21041288.286    87360007.080 7        45.000


  22963110.942                   122750976.734 7        42.250    22963116.205
  22963116.469    95473019.739 5        35.750


  20645661.117    20645661.050   108493726.876 8        50.250
  20645659.740    84540583.60047        42.250


 16  2 18  0  0 12.0000000  0 19G27G26R14G16R24G20G31G08R15G21G10G18
                                R17R02G29R08R18R01G04
  21914148.822    21914148.501   115159687.208 7        46.750    21914150.056
  21914149.846    89734854.485 7        44.750    21914150.959    85995908.370 8
        51.000

  20333910.225    20333910.002   106855454.078 8        51.250    20333912.273
  20333912.349    83264028.769 8        49.250    20333912.385    79794692.775 9
        55.250

  21743855.781                   115906999.002 6        40.000    21743861.607
  21743861.545    90149934.857 6        38.000


  20551758.802    20551758.226   108000258.260 8        50.750
  20551756.964    84156055.43747        45.000


  22488480.859                   120256348.390 6        38.500    22488484.530
  22488483.403    93532507.760 5        30.750


  23706337.143    23706336.312   124577646.301 6        37.250
  23706335.511    97073495.44743        18.500


  23961553.890    23961553.886   125918843.909 6        41.500    23961553.179
  23961553.738    98118601.122 6        38.000


  24545271.488    24545271.229   128986281.818 6        36.500    24545274.565
  24545274.623   100508810.678 6        37.000    24545275.124    96320939.364 7
        42.750

  19594387.317                   104706477.947 8        49.750    19594392.804
  19594392.200    81438401.767 8        48.250


  21626736.399    21626735.675   113649623.136 7        47.750
  21626734.691    88558061.81346        39.750


  23973391.819    23973391.752   125981062.514 6        40.250    23973393.782
  23973394.328    98167122.538 6        38.250    23973393.237    94076826.649 7
        42.750

  22872545.895    22872545.247   120196098.641 7        44.000
  22872544.182    93659314.02144        27.500


  20262715.704                   108430234.464 8        49.500    20262719.062
  20262718.015    84334396.253 5        33.000


  23637453.657                   126133993.898 6        40.250    23637457.624
  23637457.820    98104224.197 6        38.750


  24604885.208    24604885.261   129299809.451 6        37.250    24604884.783
  24604884.903   100753219.423 5        33.000


  24273688.615                   129984528.636 5        34.500    24273689.786
  24273690.247   101099069.692 5        31.000


  21040898.311                   112317859.909 8        48.500    21040902.573
  21040902.559    87358405.542 7        45.000


  22962899.465                   122749846.937 7        42.000    22962905.108
  22962904.930    95472141.034 6        36.000


  20645938.049    20645937.982   108495181.840 8        50.250
  20645936.614    84541717.33747        42.250


 16  2 18  0  0 13.0000000  0 19G27G26R14G16R24G20G31G08R15G21G10G18
                                R17R02G29R08R18R01G04
  21913765.886    21913765.560   115157675.031 7        46.750    21913767.281
  21913766.954    89733286.560 7        45.000    21913768.077    85994405.774 8
        51.000

  20334024.846    20334024.627   106856056.712 8        51.250    20334026.916
  20334027.028    83264498.347 8        49.250    20334027.037    79795142.792 9
        55.250

  21744650.826                   115911238.352 6        40.000    21744656.993
  21744656.818    90153232.131 6        38.000


  20551528.661    20551528.085   107999048.705 8        50.750
  20551526.797    84155112.92647        45.000


  22489073.385                   120259517.685 6        38.500    22489076.349
  22489075.978    93534972.779 5        30.750


  23706572.686    23706571.850   124578884.652 6        37.750
  23706571.143    97074460.40243        18.000


  23962216.535    23962216.522   125922326.693 6        41.250    23962216.267
  23962216.495    98121314.976 6        38.000


  24544751.394    24544751.131   128983548.287 6        36.500    24544754.363
  24544754.452   100506680.627 6        37.000    24544754.810    96318898.073 7
        42.750

  19594676.739                   104708023.876 8        49.750    19594682.118
  19594681.496    81439604.157 8        48.250


  21627021.322    21627020.598   113651120.396 7        47.750
  21627019.618    88559228.50946        39.750


  23972773.702    23972773.640   125977815.074 6        40.000    23972775.858
  23972776.363    98164592.063 6        38.250    23972775.223    94074401.615 7
        42.500

  22872227.824    22872227.176   120194427.199 7        44.000
  22872226.071    93658011.59744        27.250


  20263097.406                   108432276.729 8        49.500    20263099.852
  20263099.870    84335984.660 5        33.500


  23636797.675                   126130493.877 6        40.250    23636801.467
  23636801.968    98101501.973 6        38.750


  24605425.384    24605425.437   129302647.921 6        37.500    24605424.557
  24605425.017   100755431.210 5        33.000


  24274008.765                   129986239.898 5        34.500    24274009.105
  24274009.673   101100400.665 5        31.750


  21040512.580                   112315801.171 8        48.750    21040517.173
  21040516.860    87356804.312 7        45.000


  22962688.324                   122748717.909 7        42.000    22962692.979
  22962693.659    95471262.889 6        36.000


  20646215.057    20646214.990   108496637.305 8        50.250
  20646213.586    84542851.46547        42.250


 16  2 18  0  0 14.0000000  0 19G27G26R14G16R24G20G31G08R15G21G10G18
                                R17R02G29R08R18R01G04
  21913382.914    21913382.588   115155663.052 7        46.750    21913384.528
  21913384.081    89731718.784 7        44.750    21913385.216    85992903.322 8
        51.000

  20334139.646    20334139.423   106856659.860 8        51.250    20334141.582
  20334141.806    83264968.338 8        49.250    20334141.828    79795593.195 9
        55.500

  21745446.301                   115915478.071 6        40.000    21745452.414
  21745452.105    90156529.680 6        38.000


  20551298.628    20551298.052   107997839.586 8        50.750
  20551296.714    84154170.75647        45.000


  22489666.425                   120262687.003 6        38.500    22489669.577
  22489668.602    93537437.830 5        31.250


  23706808.810    23706807.974   124580123.568 6        37.500
  23706806.892    97075425.79543        18.000


  23962879.203    23962879.186   125925809.535 6        41.250    23962879.529
  23962879.248    98124028.876 6        38.000


  24544231.366    24544231.103   128980814.793 6        36.500    24544234.496
  24544234.210   100504550.655 6        36.500    24544234.483    96316856.849 7
        42.750

  19594966.254                   104709570.665 8        49.750    19594971.392
  19594970.994    81440807.220 8        48.250


  21627306.316    21627305.592   113652618.034 7        47.500
  21627304.617    88560395.49946        39.500


  23972155.594    23972155.532   125974567.700 6        39.750    23972158.197
  23972158.403    98162061.640 6        38.250    23972157.231    94071976.640 7
        42.500

  22871909.623    22871908.975   120192756.153 7        43.750
  22871908.045    93656709.48044        27.250


  20263479.050                   108434319.262 8        49.250    20263482.350
  20263481.581    84337573.314 5        32.750


  23636141.992                   126126994.048 6        40.500    23636146.423
  23636146.200    98098779.890 6        38.500


  24605965.556    24605965.605   129305486.398 6        37.500    24605965.051
  24605965.207   100757642.996 5        33.000


  24274329.452                   129987951.865 5        34.250    24274327.779
  24274329.921   101101732.242 5        32.250


  21040126.956                   112313742.824 8        48.750    21040131.540
  21040131.236    87355203.377 7        44.750


  22962477.246                   122747589.614 7        42.250    22962482.500
  22962482.410    95470385.323 6        36.000


  20646492.123    20646492.056   108498093.265 8        50.250
  20646490.652    84543985.98147        42.250


 16  2 18  0  0 15.0000000  0 19G27G26R14G16R24G20G31G08R15G21G10G18
                                R17R02G29R08R18R01G04
  21913000.053    21912999.732   115153651.283 7        47.000    21913001.672
  21913001.252    89730151.171 7        44.750    21913002.383    85991401.027 8
        51.000

  20334254.517    20334254.298   106857263.551 8        51.250    20334256.391
  20334256.691    83265438.745 8        49.250    20334256.713    79796044.001 9
        55.250

  21746241.548                   115919718.131 6        40.000    21746247.459
  21746247.428    90159827.502 6        38.250


  20551068.630    20551068.054   107996630.913 8        51.000
  20551066.711    84153228.93447        44.750


  22490259.791                   120265856.335 6        38.750    22490261.861
  22490261.405    93539902.891 5        31.500


  23707044.554    23707043.714   124581363.103 6        37.250
  23707042.761    97076391.66443        18.000


  23963541.969    23963541.956   125929292.443 6        41.500    23963542.108
  23963542.032    98126742.817 6        38.000


  24543711.218    24543710.959   128978081.394 6        36.750    24543714.134
  24543714.009   100502420.725 6        36.250    24543714.259    96314815.659 7
        42.750

  19595255.984                   104711118.334 8        49.750    19595261.050
  19595260.589    81442010.959 8        48.250


  21627591.351    21627590.627   113654116.044 7        47.500
  21627589.679    88561562.78146        39.500


  23971537.487    23971537.425   125971320.411 6        40.000    23971540.299
  23971540.456    98159531.283 6        38.250    23971539.262    94069551.711 7
        42.500

  22871591.646    22871590.998   120191085.489 7        43.750
  22871590.081    93655407.66744        27.000


  20263860.770                   108436362.086 8        49.250    20263864.754
  20263863.542    84339162.199 5        33.500


  23635486.492                   126123494.442 6        40.750    23635490.360
  23635490.418    98096057.974 6        39.000


  24606505.969    24606506.018   129308324.859 6        37.750    24606505.075
  24606505.312   100759854.785 5        33.000


  24274649.155                   129989664.562 5        34.500    24274648.708
  24274649.687   101103064.327 5        32.500


  21039741.489                   112311684.870 8        48.750    21039745.840
  21039745.715    87353602.739 7        44.750


  22962266.641                   122746462.071 7        42.250    22962271.573
  22962271.587    95469508.346 6        36.000


  20646769.257    20646769.190   108499549.727 8        50.250
  20646767.817    84545120.88547        42.250


 16  2 18  0  0 16.0000000  0 19G27G26R14G16R24G20G31G08R15G21G10G18
                                R17R02G29R08R18R01G04
  21912617.269    21912616.943   115151639.733 7        47.000    21912618.812
  21912618.472    89728583.734 7        44.750    21912619.608    85989898.894 8
        51.000

  20334369.510    20334369.287   106857867.772 8        51.250    20334371.486
  20334371.669    83265909.568 8        49.000    20334371.692    79796495.207 9
        55.500

  21747037.130                   115923958.545 6        40.000    21747043.560
  21747043.055    90163125.593 6        38.500


  20550838.717    20550838.141   107995422.683 8        51.000
  20550836.798    84152287.45547        44.750


  22490852.809                   120269025.717 6        38.500    22490854.383
  22490854.074    93542367.909 5        32.000


  23707280.173    23707279.324   124582603.215 6        37.000
  23707278.746    97077357.97843        18.000


  23964204.704    23964204.687   125932775.390 6        41.250    23964204.954
  23964204.824    98129456.809 6        38.000


  24543190.815    24543190.570   128975348.079 6        36.750    24543193.713
  24543193.838   100500290.854 6        36.250    24543194.066    96312774.543 7
        42.750

  19595545.772                   104712666.865 8        49.750    19595550.740
  19595550.328    81443215.369 8        48.250


  21627876.520    21627875.796   113655614.439 7        47.500
  21627874.816    88562730.36246        39.500


  23970919.777    23970919.724   125968073.180 6        39.750    23970922.245
  23970922.504    98157000.977 6        38.500    23970921.279    94067126.832 7
        42.500

  22871273.803    22871273.151   120189415.211 7        43.500
  22871272.207    93654106.15344        27.250


  20264242.548                   108438405.181 8        49.500    20264246.550
  20264245.151    84340751.269 5        33.250


  23634830.850                   126119995.039 6        40.750    23634834.436
  23634834.628    98093336.213 6        38.750


  24607046.133    24607046.191   129311163.337 6        38.000    24607044.523
  24607045.426   100762066.552 5        33.000


  24274968.992                   129991377.924 5        33.750    24274968.876
  24274969.533   101104396.901 5        32.250


  21039356.196                   112309627.264 8        48.750    21039360.297
  21039360.257    87352002.380 7        45.000


  22962055.742                   122745335.281 7        42.000    22962060.978
  22962060.786    95468631.961 5        35.750


  20647046.529    20647046.462   108501006.689 8        50.250
  20647045.071    84546256.17947        42.250


 16  2 18  0  0 17.0000000  0 19G27G26R14G16R24G20G31G08R15G21G10G18
                                R17R02G29R08R18R01G04
  21912234.529    21912234.212   115149628.390 7        47.000    21912235.969
  21912235.737    89727016.446 7        44.750    21912236.837    85988396.915 8
        51.000

  20334484.578    20334484.359   106858472.528 8        51.250    20334486.554
  20334486.756    83266380.809 8        49.250    20334486.773    79796946.811 9
        55.500

  21747832.614                   115928199.307 6        39.750    21747838.865
  21747838.673    90166423.980 6        38.250


  20550608.871    20550608.295   107994214.889 8        51.000
  20550606.966    84151346.31747        44.750


  22491445.223                   120272195.066 6        38.500    22491447.490
  22491447.213    93544832.974 5        32.000


  23707515.975    23707515.112   124583843.914 6        36.750
  23707514.839    97078324.74943        18.000


  23964867.340    23964867.323   125936258.384 6        41.250    23964867.926
  23964867.640    98132170.826 6        38.000


  24542670.663    24542670.418   128972614.819 6        36.750    24542673.516
  24542673.695   100498161.052 6        36.000    24542674.101    96310733.470 7
        43.000

  19595835.752                   104714216.256 8        49.750    19595840.675
  19595840.282    81444420.454 8        48.250


  21628161.617    21628160.893   113657113.211 7        47.500
  21628160.016    88563898.23646        39.500


  23970301.955    23970301.897   125964826.013 6        40.000    23970304.495
  23970304.584    98154470.727 6        38.500    23970303.341    94064702.010 7
        42.500

  22870955.831    22870955.183   120187745.312 7        43.500
  22870954.418    93652804.93444        27.000


  20264624.411                   108440448.548 8        49.500    20264628.869
  20264627.076    84342340.534 5        32.250


  23634175.193                   126116495.767 6        40.750    23634178.677
  23634178.967    98090614.563 6        39.000


  24607586.345    24607586.403   129314001.784 6        38.000    24607584.485
  24607585.585   100764278.356 5        33.000


  24275288.436                   129993091.963 5        34.000    24275288.355
  24275289.795   101105730.037 5        32.500


  21038970.868                   112307570.017 8        49.250    21038974.843
  21038974.771    87350402.301 7        45.000


  22961845.057                   122744209.239 7        42.000    22961850.642
  22961850.253    95467756.145 5        35.750


  20647323.868    20647323.806   108502464.149 8        50.250
  20647322.414    84547391.86347        42.250


 16  2 18  0  0 18.0000000  0 19G27G26R14G16R24G20G31G08R15G21G10G18
                                R17R02G29R08R18R01G04
  21911851.924    21911851.607   115147617.262 7        47.250    21911853.252
  21911853.033    89725449.335 7        44.750    21911854.146    85986895.100 8
        51.000

  20334599.682    20334599.459   106859077.814 8        51.250    20334601.734
  20334601.945    83266852.459 8        49.250    20334601.958    79797398.808 9
        55.500

  21748628.223                   115932440.424 6        39.500    21748634.626
  21748634.224    90169722.620 6        38.500


  20550379.092    20550378.516   107993007.542 8        51.000
  20550377.214    84150405.52847        45.000


  22492038.285                   120275364.458 6        38.250    22492040.324
  22492040.056    93547298.064 5        32.000


  23707751.442    23707750.584   124585085.210 6        36.250
  23707751.044    97079291.99743        18.500


  23965529.976    23965529.954   125939741.445 6        41.250    23965530.464
  23965530.464    98134884.885 6        38.000


  24542150.685    24542150.444   128969881.631 6        36.500    24542153.457
  24542153.631   100496031.281 6        36.000    24542154.123    96308692.444 7
        43.000

  19596125.938                   104715766.503 8        49.750    19596130.977
  19596130.463    81445626.198 8        48.250


  21628446.889    21628446.165   113658612.362 7        47.500
  21628445.292    88565066.40546        39.500


  23969684.071    23969684.018   125961578.919 6        40.250    23969686.740
  23969686.704    98151940.533 6        38.750    23969685.443    94062277.238 7
        42.250

  22870638.126    22870637.478   120186075.801 7        43.500
  22870636.704    93651504.01744        27.000


  20265006.324                   108442492.182 8        49.500    20265010.585
  20265009.141    84343930.030 5        33.750


  23633519.908                   126112996.644 6        40.750    23633523.034
  23633523.316    98087893.014 6        39.000


  24608126.387    24608126.445   129316840.251 6        38.000    24608124.540
  24608125.779   100766490.113 5        33.000


  24275608.036                   129994806.764 5        34.250    24275608.685
  24275610.111   101107063.783 5        33.000


  21038585.593                   112305513.124 8        49.000    21038589.689
  21038589.452    87348802.490 7        45.000


  22961634.282                   122743083.950 6        41.750    22961640.949
  22961640.028    95466880.913 5        35.500


  20647601.278    20647601.211   108503922.109 8        50.250
  20647599.861    84548527.93447        42.250


 16  2 18  0  0 19.0000000  0 19G27G26R14G16R24G20G31G08R15G21G10G18
                                R17R02G29R08R18R01G04
  21911469.260    21911468.939   115145606.337 7        47.250    21911470.441
  21911470.365    89723882.387 7        45.000    21911471.510    85985393.439 8
        51.000

  20334714.956    20334714.737   106859683.622 8        51.250    20334716.990
  20334717.232    83267324.522 8        49.250    20334717.250    79797851.199 9
        55.500

  21749424.029                   115936681.883 6        39.750    21749430.159
  21749429.949    90173021.553 6        38.250


  20550149.438    20550148.862   107991800.629 8        51.000
  20550147.547    84149465.07647        45.000


  22492630.999                   120278533.859 6        38.500    22492632.582
  22492632.890    93549763.131 5        32.000


  23707987.302    23707986.444   124586327.092 6        36.000
  23707987.333    97080259.70143        18.250


  23966192.966    23966192.944   125943224.546 6        41.500    23966193.105
  23966193.283    98137598.990 6        38.000


  24541630.232    24541630.000   128967148.496 6        36.500    24541633.202
  24541633.550   100493901.564 5        35.750    24541634.257    96306651.486 7
        43.000

  19596416.083                   104717317.603 8        49.750    19596421.195
  19596420.752    81446832.612 8        48.250


  21628732.223    21628731.499   113660111.884 7        47.500
  21628730.636    88566234.86246        39.500


  23969066.302    23969066.253   125958331.910 6        40.000    23969068.936
  23969068.869    98149410.395 6        38.750    23969067.563    94059852.515 7
        42.500

  22870320.301    22870319.649   120184406.662 7        43.500
  22870319.072    93650203.38944        26.750


  20265388.267                   108444536.082 8        49.500    20265392.278
  20265390.941    84345519.727 5        33.500


  23632864.096                   126109497.627 6        41.000    23632867.244
  23632867.579    98085171.568 6        38.750


  24608666.523    24608666.585   129319678.700 6        38.000    24608665.817
  24608665.964   100768701.939 5        33.500


  24275928.222                   129996522.310 5        34.000    24275928.692
  24275930.311   101108398.095 5        31.750


  21038200.385                   112303456.593 8        49.250    21038204.297
  21038204.190    87347202.962 7        44.750


  22961423.812                   122741959.406 6        41.500    22961429.424
  22961429.312    95466006.283 5        35.750


  20647878.783    20647878.716   108505380.556 8        50.250
  20647877.401    84549664.38647        42.250


 16  2 18  0  0 20.0000000  0 19G27G26R14G16R24G20G31G08R15G21G10G18
                                R17R02G29R08R18R01G04
  21911086.722    21911086.401   115143595.627 7        47.250    21911087.853
  21911087.728    89722315.591 7        44.750    21911088.895    85983891.934 8
        51.000

  20334830.301    20334830.078   106860289.971 8        51.250    20334832.381
  20334832.622    83267796.998 8        49.250    20334832.640    79798303.989 9
        55.500

  21750219.790                   115940923.694 6        39.750    21750225.929
  21750225.723    90176320.727 6        38.500


  20549919.852    20549919.276   107990594.165 8        51.000
  20549917.965    84148524.97547        45.000


  22493223.708                   120281703.267 6        38.500    22493225.031
  22493225.733    93552228.246 5        31.500


  23708223.792    23708222.934   124587569.543 6        36.000
  23708223.779    97081227.84343        18.250


  23966855.665    23966855.648   125946707.705 6        41.250    23966855.571
  23966856.108    98140313.144 6        38.000


  24541110.058    24541109.835   128964415.432 6        36.250    24541113.308
  24541113.492   100491771.936 6        36.250    24541114.328    96304610.570 7
        43.000

  19596706.404                   104718869.563 8        49.750    19596711.837
  19596711.211    81448039.690 8        48.250


  21629017.673    21629016.954   113661611.796 7        47.500
  21629016.055    88567403.62546        39.500


  23968448.637    23968448.588   125955084.958 6        40.250    23968450.824
  23968451.043    98146880.302 6        38.750    23968449.728    94057427.850 7
        42.500

  22870002.870    22870002.218   120182737.927 7        43.500
  22870001.510    93648903.07744        26.750


  20265770.278                   108446580.263 8        49.250    20265773.614
  20265773.010    84347109.643 5        32.500


  23632208.493                   126105998.793 6        41.000    23632211.807
  23632211.928    98082450.240 6        39.250


  24609206.673    24609206.731   129322517.177 6        38.000    24609205.949
  24609206.145   100770913.709 5        33.000


  24276248.444                   129998238.595 5        34.000    24276250.085
  24276250.608   101109732.968 5        32.500


  21037815.459                   112301400.439 8        49.000    21037819.013
  21037818.844    87345603.737 7        45.000


  22961212.948                   122740835.635 6        41.250    22961218.667
  22961218.909    95465132.248 5        35.500


  20648156.412    20648156.350   108506839.512 8        50.250
  20648155.035    84550801.23447        42.250


 16  2 18  0  0 21.0000000  0 19G27G26R14G16R24G20G31G08R15G21G10G18
                                R17R02G29R08R18R01G04
  21910704.179    21910703.862   115141585.118 7        47.250    21910705.333
  21910705.149    89720748.973 7        44.750    21910706.325    85982390.585 8
        51.000

  20334945.785    20334945.562   106860896.855 8        51.250    20334947.816
  20334948.106    83268269.895 8        49.250    20334948.120    79798757.184 9
        55.500

  21751015.461                   115945165.848 6        39.750    21751021.672
  21751021.556    90179620.169 6        38.250


  20549690.310    20549689.734   107989388.141 8        51.000
  20549688.463    84147585.21747        45.000


  22493816.180                   120284872.708 6        38.250    22493818.299
  22493818.501    93554693.354 5        32.000


  23708460.323    23708459.478   124588812.596 6        36.250
  23708460.328    97082196.45443        18.000


  23967518.829    23967518.812   125950190.927 6        41.250    23967518.529
  23967518.932    98143027.345 6        38.000


  24540590.146    24540589.923   128961682.439 6        36.750    24540593.151
  24540593.353   100489642.321 6        36.250    24540594.314    96302569.707 7
        43.000

  19596996.853                   104720422.391 8        49.500    19597002.429
  19597001.817    81449247.448 8        48.250


  21629303.191    21629302.467   113663112.087 7        47.500
  21629301.554    88568572.68446        39.500


  23967830.860    23967830.811   125951838.068 6        40.000    23967833.118
  23967833.190    98144350.268 6        38.750    23967831.884    94055003.224 7
        42.500

  22869685.572    22869684.924   120181069.571 7        43.500
  22869684.025    93647603.06344        26.750


  20266152.463                   108448624.709 8        49.250    20266156.251
  20266155.119    84348699.777 5        33.750


  23631552.931                   126102500.159 6        41.000    23631556.280
  23631556.245    98079729.069 6        39.000


  24609746.849    24609746.907   129325355.630 6        37.750    24609745.799
  24609746.322   100773125.503 5        33.250


  24276568.796                   129999955.535 5        34.000    24276571.067
  24276571.125   101111068.372 5        31.500


  21037430.210                   112299344.663 8        49.250    21037433.837
  21037433.725    87344004.805 7        45.000


  22961002.952                   122739712.607 6        41.250    22961008.671
  22961008.912    95464258.788 5        35.250


  20648434.069    20648434.002   108508298.960 8        50.250
  20648432.763    84551938.46847        42.250


 16  2 18  0  0 22.0000000  0 19G27G26R14G16R24G20G31G08R15G21G10G18
                                R17R02G29R08R18R01G04
  21910321.708    21910321.387   115139574.837 7        47.250    21910322.759
  21910322.611    89719182.511 7        44.750    21910323.769    85980889.397 8
        51.000

  20335061.305    20335061.082   106861504.271 8        51.250    20335063.376
  20335063.698    83268743.204 8        49.250    20335063.702    79799210.775 9
        55.500

  21751810.999                   115949408.341 6        39.750    21751817.782
  21751817.357    90182919.877 6        38.250


  20549460.943    20549460.367   107988182.557 8        51.000
  20549459.047    84146645.80247        45.000


  22494409.005                   120288042.181 6        38.250    22494411.916
  22494410.892    93557158.496 5        32.000


  23708696.613    23708695.782   124590056.241 6        36.500
  23708696.966    97083165.53142        17.750


  23968181.792    23968181.775   125953674.196 6        41.250    23968181.613
  23968181.756    98145741.560 6        37.750


  24540070.419    24540070.200   128958949.524 6        37.250    24540073.486
  24540073.379   100487512.787 6        36.250    24540074.242    96300528.886 7
        43.000

  19597287.513                   104721976.090 8        49.500    19597293.308
  19597292.521    81450455.873 8        48.250


  21629588.820    21629588.096   113664612.759 7        47.750
  21629587.117    88569742.03746        39.500


  23967212.878    23967212.825   125948591.276 6        40.000    23967215.413
  23967215.368    98141820.292 6        39.000    23967214.031    94052578.676 7
        42.500

  22869368.226    22869367.578   120179401.616 7        43.750
  22869366.612    93646303.36044        27.000


  20266534.483                   108450669.420 8        49.500    20266537.595
  20266537.228    84350290.118 5        33.250


  23630897.074                   126099001.743 6        41.250    23630900.682
  23630900.790    98077008.105 6        39.000


  24610286.990    24610287.048   129328194.086 6        37.750    24610286.060
  24610286.547   100775337.305 5        33.000


  24276888.646                   130001673.174 5        33.250    24276892.952
  24276891.168   101112404.308 5        31.250


  21037045.222                   112297289.279 8        49.000    21037048.660
  21037048.709    87342406.163 7        44.750


  22960792.875                   122738590.344 6        41.250    22960798.773
  22960798.858    95463385.940 6        36.000


  20648711.976    20648711.909   108509758.914 8        50.250
  20648710.589    84553076.09447        42.250


 16  2 18  0  0 23.0000000  0 19G27G26R14G16R24G20G31G08R15G21G10G18
                                R17R02G29R08R18R01G04
  21909939.268    21909938.951   115137564.746 7        47.250    21909940.256
  21909940.100    89717616.207 7        44.750    21909941.267    85979388.358 8
        51.000

  20335177.049    20335176.826   106862112.217 8        51.000    20335179.106
  20335179.388    83269216.929 8        49.250    20335179.396    79799664.756 9
        55.500

  21752607.126                   115953651.192 6        39.750    21752613.910
  21752613.427    90186219.864 6        38.250


  20549231.481    20549230.905   107986977.414 8        50.750
  20549229.715    84145706.72947        45.000


  22495002.121                   120291211.687 6        38.500    22495005.247
  22495003.342    93559623.656 5        31.250


  23708933.689    23708932.862   124591300.476 6        36.000
  23708933.721    97084135.06242        17.750


  23968844.495    23968844.482   125957157.525 6        41.250    23968844.535
  23968844.589    98148455.856 6        37.750


  24539550.686    24539550.467   128956216.665 6        37.500    24539553.253
  24539553.325   100485383.283 6        36.250    24539554.018    96298488.126 7
        43.000

  19597578.598                   104723530.646 8        49.750    19597584.281
  19597583.445    81451664.975 8        48.250


  21629874.494    21629873.770   113666113.800 7        47.750
  21629872.759    88570911.68046        39.500


  23966594.989    23966594.931   125945344.537 6        40.000    23966597.842
  23966597.547    98139290.383 6        39.000    23966596.250    94050154.164 7
        42.250

  22869051.027    22869050.379   120177734.033 7        43.500
  22869049.261    93645003.94444        26.750


  20266916.587                   108452714.393 8        49.500    20266920.169
  20266919.042    84351880.630 5        33.250


  23630241.525                   126095503.513 6        41.000    23630245.107
  23630245.397    98074287.252 6        39.000


  24610826.979    24610827.037   129331032.551 6        37.750    24610826.804
  24610826.787   100777549.091 5        33.500


  24277209.642                   130003391.522 5        33.250    24277212.530
  24277212.012   101113740.771 5        32.000


  21036660.170                   112295234.266 8        49.000    21036663.470
  21036663.685    87340807.832 7        44.750


  22960582.503                   122737468.838 6        41.500    22960589.224
  22960588.991    95462513.641 5        35.250


  20648989.909    20648989.842   108511219.360 8        50.250
  20648988.510    84554214.10347        42.250


 16  2 18  0  0 24.0000000  0 19G27G26R14G16R24G20G31G08R15G21G10G18
                                R17R02G29R08R18R01G04
  21909556.904    21909556.583   115135554.882 7        47.250    21909557.753
  21909557.637    89716050.086 7        44.750    21909558.809    85977887.487 8
        51.000

  20335292.868    20335292.649   106862720.696 8        51.250    20335294.894
  20335295.176    83269691.072 8        49.250    20335295.185    79800119.143 9
        55.500

  21753403.075                   115957894.390 6        39.750    21753410.194
  21753409.469    90189520.131 6        38.750


  20549002.181    20549001.605   107985772.716 8        50.750
  20549000.468    84144768.00447        45.000


  22495595.014                   120294381.204 6        39.000    22495598.144
  22495595.984    93562088.870 5        31.250


  23709170.650    23709169.832   124592545.301 6        36.000
  23709170.569    97085105.06342        17.500


  23969507.458    23969507.445   125960640.901 6        41.250    23969508.146
  23969507.431    98151170.154 6        37.750


  24539030.968    24539030.754   128953483.898 6        37.500    24539033.060
  24539033.266   100483253.851 6        36.000    24539033.776    96296447.414 7
        43.000

  19597869.799                   104725086.066 8        49.750    19597875.268
  19597874.566    81452874.746 8        48.250


  21630160.151    21630159.427   113667615.213 7        47.750
  21630158.474    88572081.61246        39.250


  23965977.221    23965977.168   125942097.876 6        40.000    23965979.913
  23965979.769    98136760.500 6        39.000    23965978.383    94047729.707 7
        42.250

  22868733.676    22868733.028   120176066.844 7        43.750
  22868732.003    93643704.84144        27.000


  20267298.696                   108454759.624 8        49.500    20267303.521
  20267301.250    84353471.369 5        33.500


  23629585.793                   126092005.434 6        41.250    23629589.276
  23629589.688    98071566.516 6        39.000


  24611367.017    24611367.079   129333871.024 6        37.750    24611367.245
  24611366.954   100779760.866 5        33.750


  24277530.534                   130005110.612 5        33.250    24277533.047
  24277532.605   101115077.847 5        32.250


  21036275.307                   112293179.621 8        49.000    21036278.607
  21036278.776    87339209.768 7        44.750


  22960372.694                   122736348.076 6        41.750    22960379.272
  22960379.214    95461641.948 5        35.500


  20649267.919    20649267.852   108512680.303 8        50.250
  20649266.524    84555352.49947        42.250


 16  2 18  0  0 25.0000000  0 19G27G26R14G16R24G20G31G08R15G21G10G18
                                R17R02G29R08R18R01G04
  21909174.437    21909174.116   115133545.216 7        47.250    21909175.327
  21909175.215    89714484.109 7        44.750    21909176.382    85976386.764 8
        51.000

  20335408.786    20335408.567   106863329.706 8        51.250    20335410.874
  20335411.071    83270165.623 8        49.250    20335411.076    79800573.923 9
        55.500

  21754199.471                   115962137.952 6        39.750    21754206.196
  21754205.597    90192820.681 6        38.000


  20548772.921    20548772.345   107984568.458 8        50.750
  20548771.311    84143829.62047        45.000


  22496187.839                   120297550.735 6        39.250    22496190.231
  22496188.827    93564554.017 5        31.500


  23709407.824    23709407.024   124593790.728 6        36.000
  23709407.547    97086075.52042        17.250


  23970170.277    23970170.264   125964124.322 6        41.250    23970170.653
  23970170.295    98153884.516 6        38.000


  24538511.097    24538510.874   128950751.196 6        37.500    24538513.167
  24538513.297   100481124.479 6        36.000    24538513.641    96294406.755 7
        43.000

  19598161.148                   104726642.355 8        49.750    19598166.652
  19598165.749    81454085.193 8        48.250


  21630446.044    21630445.320   113669117.001 7        47.750
  21630444.246    88573251.83646        39.250


  23965359.444    23965359.391   125938851.270 6        39.750    23965362.288
  23965361.988    98134230.696 6        39.000    23965360.530    94045305.300 7
        42.250

  22868416.365    22868415.713   120174400.025 7        43.500
  22868414.769    93642406.01944        27.000


  20267680.944                   108456805.109 8        49.500    20267685.715
  20267683.560    84355062.324 5        32.750


  23628930.588                   126088507.479 6        41.000    23628934.027
  23628934.067    98068845.884 6        39.250


  24611907.099    24611907.170   129336709.477 6        37.500    24611907.385
  24611907.068   100781972.649 5        33.750


  24277851.400                   130006830.432 5        33.250    24277854.937
  24277853.797   101116415.486 5        31.500


  21035890.304                   112291125.307 8        48.750    21035893.582
  21035893.886    87337611.978 7        44.750


  22960163.423                   122735228.073 7        42.250    22960169.629
  22960169.459    95460770.824 5        35.750


  20649546.076    20649546.009   108514141.741 8        50.250
  20649544.627    84556491.28047        42.250


 16  2 18  0  0 26.0000000  0 19G27G26R14G16R24G20G31G08R15G21G10G18
                                R17R02G29R08R18R01G04
  21908791.934    21908791.613   115131535.765 7        47.250    21908792.932
  21908792.829    89712918.299 7        44.750    21908794.018    85974886.196 8
        51.000

  20335524.776    20335524.557   106863939.251 8        51.250    20335526.891
  20335527.079    83270640.592 8        49.250    20335527.065    79801029.102 9
        55.250

  21754995.769                   115966381.866 6        39.500    21755001.819
  21755001.729    90196121.512 6        38.500


  20548543.773    20548543.197   107983364.640 8        50.750
  20548542.234    84142891.57847        45.000


  22496780.517                   120300720.276 6        39.500    22496781.357
  22496781.071    93567019.238 5        30.250


  23709644.794    23709644.012   124595036.736 6        36.250
  23709644.695    97087046.45042        17.500


  23970833.003    23970832.986   125967607.814 6        41.500    23970833.629
  23970833.164    98156598.917 6        37.500


  24537991.110    24537990.887   128948018.561 6        37.250    24537993.068
  24537993.287   100478995.128 6        36.250    24537993.618    96292366.148 7
        43.000

  19598452.671                   104728199.504 8        49.750    19598458.032
  19598457.097    81455296.309 8        48.250


  21630732.031    21630731.307   113670619.168 7        47.750
  21630730.086    88574422.35446        39.250


  23964741.456    23964741.407   125935604.755 6        40.000    23964744.242
  23964744.215    98131700.939 6        38.750    23964742.744    94042880.961 7
        42.250

  22868099.309    22868098.661   120172733.612 7        43.750
  22868097.587    93641107.51544        27.000


  20268063.232                   108458850.851 8        49.500    20268067.368
  20268065.808    84356653.428 5        33.250


  23628275.169                   126085009.663 6        41.000    23628278.594
  23628278.590    98066125.364 6        38.500


  24612447.307    24612447.378   129339547.923 6        37.250    24612448.063
  24612447.240   100784184.440 5        33.500


  24278173.688                   130008550.912 5        32.500    24278175.928
  24278175.383   101117753.656 5        32.250


  21035505.530                   112289071.373 8        49.000    21035508.700
  21035509.018    87336014.473 7        44.750


  22959954.459                   122734108.818 7        42.250    22959960.026
  22959960.008    95459900.323 5        35.250


  20649824.256    20649824.189   108515603.682 8        50.250
  20649822.829    84557630.45547        42.250


 16  2 18  0  0 27.0000000  0 19G27G26R14G16R24G20G31G08R15G21G10G18
                                R17R02G29R08R18R01G04
  21908409.651    21908409.330   115129526.521 7        47.500    21908410.541
  21908410.492    89711352.651 7        45.000    21908411.694    85973385.788 8
        51.000

  20335640.939    20335640.716   106864549.323 8        51.250    20335643.014
  20335643.171    83271115.974 8        49.250    20335643.135    79801484.677 9
        55.250

  21755791.807                   115970626.166 6        39.500    21755797.884
  21755797.991    90199422.623 6        38.250


  20548314.808    20548314.232   107982161.265 8        50.750
  20548313.243    84141953.88447        45.000


  22497373.190                   120303889.831 6        39.500    22497374.093
  22497373.794    93569484.454 5        31.000


  23709882.572    23709881.794   124596283.330 6        36.250
  23709881.946    97088017.81942        17.500


  23971496.078    23971496.065   125971091.343 6        41.500    23971496.248
  23971496.042    98159313.373 6        37.500


  24537471.033    24537470.805   128945285.996 6        37.250    24537472.916
  24537473.224   100476865.871 6        36.500    24537473.774    96290325.601 7
        43.000

  19598744.247                   104729757.509 8        49.750    19598749.287
  19598748.634    81456508.089 8        48.250


  21631018.040    21631017.316   113672121.718 8        48.000
  21631015.992    88575593.17446        39.250


  23964123.603    23964123.550   125932358.294 6        40.000    23964126.345
  23964126.456    98129171.234 6        39.000    23964125.008    94040456.646 7
        42.250

  22867782.275    22867781.623   120171067.580 7        43.750
  22867780.505    93639809.30844        27.000


  20268445.726                   108460896.838 8        49.500    20268449.527
  20268448.029    84358244.770 5        33.500


  23627619.191                   126081512.025 6        41.000    23627623.077
  23627623.055    98063404.980 6        38.750


  24612987.363    24612987.434   129342386.401 6        37.500    24612987.926
  24612987.407   100786396.212 5        34.000


  24278495.756                   130010272.119 5        33.000    24278497.277
  24278497.040   101119092.355 5        32.250


  21035120.863                   112287017.810 8        49.000    21035124.168
  21035124.302    87334417.265 7        45.000


  22959745.831                   122732990.329 7        42.500    22959750.093
  22959750.629    95459030.382 5        35.500


  20650102.646    20650102.579   108517066.118 8        50.250
  20650101.130    84558770.01747        42.250


 16  2 18  0  0 28.0000000  0 19G27G26R14G16R24G20G31G08R15G21G10G18
                                R17R02G29R08R18R01G04
  21908027.309    21908026.988   115127517.480 7        47.250    21908028.230
  21908028.186    89709787.175 7        45.000    21908029.380    85971885.534 8
        51.000

  20335757.135    20335756.912   106865159.934 8        51.250    20335759.156
  20335759.375    83271591.772 8        49.250    20335759.317    79801940.649 9
        55.500

  21756588.409                   115974870.801 6        39.500    21756594.070
  21756594.186    90202724.019 6        38.750


  20548085.896    20548085.320   107980958.335 8        50.500
  20548084.336    84141016.53547        45.000


  22497965.975                   120307059.443 6        39.500    22497967.245
  22497966.557    93571949.698 5        31.250


  23710119.886    23710119.113   124597530.519 6        36.500
  23710119.210    97088989.65242        17.250


  23972159.112    23972159.099   125974574.936 6        41.500    23972159.193
  23972158.929    98162027.852 6        37.500


  24536951.095    24536950.863   128942553.515 6        37.000    24536953.081
  24536953.260   100474736.657 6        36.750    24536953.935    96288285.116 7
        43.000

  19599035.989                   104731316.384 8        49.750    19599040.935
  19599040.309    81457720.540 8        48.000


  21631303.983    21631303.259   113673624.650 8        48.000
  21631301.988    88576764.28946        39.500


  23963505.759    23963505.706   125929111.924 6        39.750    23963508.836
  23963508.715    98126641.586 6        38.750    23963507.195    94038032.413 7
        42.250

  22867465.470    22867464.818   120169401.947 7        44.000
  22867463.525    93638511.41244        27.000


  20268828.143                   108462943.085 8        49.500    20268832.467
  20268830.594    84359836.298 5        33.000


  23626963.513                   126078014.621 6        40.750    23626967.604
  23626967.600    98060684.776 6        39.000


  24613527.745    24613527.816   129345224.859 6        37.250    24613527.973
  24613527.571   100788608.009 5        34.000


  24278815.942                   130011993.986 5        32.500    24278819.453
  24278818.947   101120431.580 5        32.750


  21034736.304                   112284964.662 8        49.000    21034739.617
  21034739.662    87332820.359 7        44.500


  22959537.221                   122731872.593 7        42.500    22959540.910
  22959541.482    95458161.021 6        36.000


  20650381.058    20650380.991   108518529.059 8        50.250
  20650379.515    84559909.97247        42.250


 16  2 18  0  0 29.0000000  0 19G27G26R14G16R24G20G31G08R15G21G10G18
                                R17R02G29R08R18R01G04
  21907645.048    21907644.722   115125508.667 7        47.250    21907646.135
  21907645.925    89708221.867 7        45.000    21907647.159    85970385.444 8
        51.000

  20335873.473    20335873.254   106865771.068 8        51.250    20335875.467
  20335875.677    83272067.985 8        49.250    20335875.624    79802397.019 9
        55.500

  21757384.688                   115979115.811 6        39.750    21757390.734
  21757390.627    90206025.685 6        38.250


  20547857.128    20547856.552   107979755.841 8        50.750
  20547855.505    84140079.52547        45.000


  22498559.087                   120310229.034 6        39.500    22498559.279
  22498559.185    93574414.944 5        31.750


  23710357.271    23710356.502   124598778.303 6        36.250
  23710356.600    97089961.93842        17.250


  23972822.120    23972822.107   125978058.576 6        41.500    23972822.401
  23972821.824    98164742.394 6        37.500


  24536431.086    24536430.863   128939821.111 6        37.000    24536433.469
  24536433.308   100472607.528 6        36.750    24536434.149    96286244.679 7
        43.000

  19599327.852                   104732876.103 8        49.750    19599332.802
  19599332.225    81458933.660 8        48.250


  21631590.059    21631589.331   113675127.952 8        48.000
  21631588.060    88577935.69446        39.500


  23962888.143    23962888.090   125925865.609 6        39.750    23962890.969
  23962891.001    98124111.991 6        38.750    23962889.391    94035608.216 7
        42.000

  22867148.799    22867148.142   120167736.692 7        44.000
  22867146.603    93637213.80744        26.750


  20269210.503                   108464989.588 8        49.500    20269215.596
  20269212.716    84361428.000 5        33.000


  23626308.111                   126074517.407 6        40.500    23626312.028
  23626312.279    98057964.735 6        39.000


  24614067.926    24614068.006   129348063.326 6        37.250    24614068.874
  24614067.684   100790819.791 5        34.000


  24279136.871                   130013716.648 5        32.500    24279140.551
  24279140.412   101121771.393 5        32.250


  21034351.923                   112282911.889 8        49.000    21034355.031
  21034355.120    87331223.762 7        44.750


  22959328.311                   122730755.600 7        42.500    22959331.191
  22959332.720    95457292.246 5        34.500


  20650659.546    20650659.479   108519992.497 8        50.250
  20650658.003    84561050.31247        42.250


 16  2 18  0  0 30.0000000  0 19G27G26R14G16R24G20G31G08R15G21G10G18
                                R17R02G29R08R18R01G04
  21907262.961    21907262.635   115123500.049 7        47.250    21907263.918
  21907263.699    89706656.708 7        44.750    21907264.920    85968885.502 8
        51.000

  20335989.909    20335989.686   106866382.747 8        51.250    20335991.828
  20335992.078    83272544.614 8        49.250    20335992.029    79802853.790 9
        55.500

  21758180.521                   115983361.175 6        39.750    21758186.942
  21758186.942    90209327.609 6        38.500


  20547628.387    20547627.815   107978553.790 8        50.750
  20547626.764    84139142.86147        45.000


  22499151.756                   120313398.644 6        39.000    22499151.559
  22499151.966    93576880.204 5        31.000


  23710594.772    23710594.012   124600026.670 6        36.000
  23710594.150    97090934.68742        17.250


  23973484.953    23973484.940   125981542.273 6        41.500    23973484.805
  23973484.769    98167456.946 6        37.750


  24535910.544    24535910.316   128937088.765 6        37.000    24535913.263
  24535913.339   100470478.426 6        36.500    24535914.229    96284204.291 7
        43.250

  19599619.858                   104734436.689 8        49.750    19599624.862
  19599624.267    81460147.451 8        48.250


  21631876.154    21631875.426   113676631.635 7        47.750
  21631874.195    88579107.39346        39.250


  23962270.456    23962270.407   125922619.368 6        39.500    23962272.870
  23962273.282    98121582.454 6        38.750    23962271.685    94033184.072 7
        42.000

  22866832.056    22866831.399   120166071.833 7        44.000
  22866829.793    93635916.51244        26.750


  20269593.046                   108467036.361 8        49.500    20269597.620
  20269595.103    84363019.971 5        33.000


  23625652.920                   126071020.361 6        40.500    23625656.699
  23625656.891    98055244.798 6        39.000


  24614608.049    24614608.133   129350901.768 6        37.250    24614609.032
  24614607.847   100793031.563 5        34.000


  24279459.373                   130015440.023 5        32.750    24279462.123
  24279462.226   101123111.783 5        32.000


  21033967.238                   112280859.464 8        49.000    21033970.525
  21033970.583    87329627.435 7        45.000


  22959119.808                   122729639.361 7        42.750    22959122.880
  22959123.712    95456424.059 5        35.500


  20650938.115    20650938.053   108521456.431 8        50.500
  20650936.581    84562191.03847        42.250


 16  2 18  0  0 31.0000000  0 19G27G26R14G16R24G20G31G08R15G21G10G18
                                R17R02G29R08R18R01G04
  21906880.852    21906880.531   115121491.649 7        47.250    21906881.608
  21906881.514    89705091.724 7        45.000    21906882.739    85967385.725 8
        51.000

  20336106.395    20336106.176   106866994.954 8        51.500    20336108.260
  20336108.582    83273021.661 8        49.250    20336108.537    79803310.960 9
        55.500

  21758977.520                   115987606.892 6        39.750    21758983.642
  21758983.490    90212629.838 6        38.250


  20547399.766    20547399.190   107977352.178 8        50.750
  20547398.107    84138206.53947        45.000


  22499744.264                   120316568.302 6        39.000    22499746.177
  22499744.496    93579345.540 5        30.750


  23710832.376    23710831.616   124601275.628 6        36.250
  23710831.853    97091907.90442        17.500


  23974147.933    23974147.920   125985026.014 6        41.750    23974147.468
  23974147.705    98170171.544 6        37.750


  24535390.602    24535390.379   128934356.457 6        37.000    24535393.160
  24535393.343   100468349.364 6        36.250    24535394.255    96282163.939 7
        43.000

  19599911.962                   104735998.138 8        49.750    19599917.002
  19599916.456    81461361.908 8        48.250


  21632162.418    21632161.694   113678135.701 8        48.000
  21632160.406    88580279.39346        39.250


  23961652.495    23961652.442   125919373.189 6        39.500    23961655.219
  23961655.545    98119052.988 6        38.500    23961653.967    94030759.999 7
        42.000

  22866515.219    22866514.562   120164407.340 7        44.000
  22866513.032    93634619.50344        26.750


  20269975.441                   108469083.402 8        49.500    20269979.416
  20269977.798    84364612.088 5        33.000


  23624997.322                   126067523.467 6        40.500    23625001.137
  23625001.597    98052525.002 6        39.250


  24615148.292    24615148.376   129353740.235 6        37.500    24615148.561
  24615148.002   100795243.344 5        34.000


  24279782.086                   130017164.070 5        32.750    24279783.785
  24279784.205   101124452.757 5        31.750


  21033582.840                   112278807.383 8        49.250    21033586.198
  21033586.220    87328031.370 7        44.750


  22958911.355                   122728523.874 7        42.750    22958914.449
  22958914.735    95455556.441 5        35.500


  20651216.773    20651216.706   108522920.856 8        50.500
  20651215.252    84563332.15047        42.000


 16  2 18  0  0 32.0000000  0 19G27G26R14G16R24G20G31G08R15G21G10G18
                                R17R02G29R08R18R01G04
  21906498.806    21906498.480   115119483.446 7        47.250    21906499.177
  21906499.360    89703526.888 7        45.000    21906500.590    85965886.095 8
        51.000

  20336222.957    20336222.734   106867607.685 8        51.250    20336224.898
  20336225.184    83273499.112 8        49.250    20336225.135    79803768.515 9
        55.500

  21759774.185                   115991852.937 6        39.750    21759780.297
  21759779.976    90215932.337 6        38.500


  20547171.262    20547170.690   107976151.005 8        50.750
  20547169.531    84137270.56047        44.750


  22500336.677                   120319737.962 6        39.000    22500340.644
  22500337.514    93581810.771 5        32.250


  23711070.423    23711069.672   124602525.176 6        36.250
  23711069.649    97092881.58842        16.750


  23974811.169    23974811.156   125988509.793 6        41.750    23974810.610
  23974810.659    98172886.190 6        37.750


  24534870.968    24534870.745   128931624.215 6        37.000    24534872.944
  24534873.405   100466220.343 6        36.000    24534874.268    96280123.637 7
        43.000

  19600204.344                   104737560.445 8        49.750    19600209.410
  19600208.829    81462577.033 8        48.000


  21632448.611    21632447.887   113679640.134 8        48.000
  21632446.688    88581451.67946        39.250


  23961034.593    23961034.540   125916127.089 6        39.500    23961037.455
  23961037.826    98116523.557 6        38.500    23961036.225    94028335.951 7
        42.000

  22866198.539    22866197.882   120162743.239 7        44.000
  22866196.298    93633322.79844        26.750


  20270358.078                   108471130.702 8        49.500    20270362.849
  20270360.363    84366204.422 5        33.500


  23624341.930                   126064026.738 6        40.500    23624345.798
  23624346.647    98049805.316 6        39.250


  24615688.804    24615688.888   129356578.670 6        37.250    24615688.326
  24615688.133   100797455.094 5        33.750


  24280103.721                   130018888.851 5        33.000    24280105.845
  24280106.399   101125794.246 5        32.250


  21033198.620                   112276755.664 8        49.000    21033201.969
  21033201.880    87326435.594 7        44.750


  22958702.798                   122727409.134 7        42.750    22958706.103
  22958706.085    95454689.433 5        35.500


  20651495.525    20651495.458   108524385.789 8        50.500
  20651494.018    84564473.65547        42.000


 16  2 18  0  0 33.0000000  0 19G27G26R14G16R24G20G31G08R15G21G10G18
                                R17R02G29R08R18R01G04
  21906116.531    21906116.205   115117475.462 7        47.250    21906117.104
  21906117.256    89701962.225 7        45.000    21906118.490    85964386.626 8
        51.000

  20336339.626    20336339.403   106868220.958 8        51.500    20336341.638
  20336341.889    83273976.985 8        49.250    20336341.853    79804226.478 9
        55.500

  21760570.563                   115996099.334 6        40.000    21760576.953
  21760576.501    90219235.084 6        38.500


  20546942.847    20546942.275   107974950.283 8        50.750
  20546941.045    84136334.93247        44.750


  22500929.543                   120322907.619 6        39.000    22500932.280
  22500930.835    93584276.085 5        32.000


  23711308.260    23711307.523   124603775.296 6        36.250
  23711307.566    97093855.70442        16.750


  23975473.966    23975473.944   125991993.643 6        41.500    23975473.519
  23975473.649    98175600.879 6        37.750


  24534350.878    24534350.655   128928892.059 6        36.750    24534353.217
  24534353.561   100464091.378 6        36.250    24534354.209    96278083.376 7
        43.000

  19600496.868                   104739123.626 8        49.750    19600502.105
  19600501.371    81463792.844 8        48.250


  21632734.866    21632734.138   113681144.950 7        47.750
  21632733.037    88582624.26346        39.250


  23960416.852    23960416.799   125912881.069 6        39.250    23960420.022
  23960420.089    98113994.180 6        38.500    23960418.533    94025911.987 7
        42.000

  22865881.916    22865881.259   120161079.539 7        44.000
  22865879.663    93632026.40844        26.750


  20270740.826                   108473178.278 8        49.500    20270744.122
  20270743.067    84367796.988 5        33.000


  23623686.797                   126060530.157 6        40.250    23623691.188
  23623691.345    98047085.773 6        39.000


  24616228.726    24616228.806   129359417.138 6        37.250    24616228.940
  24616228.207   100799666.868 5        34.000


  24280425.977                   130020614.306 5        33.500    24280429.420
  24280428.995   101127136.244 5        32.500


  21032814.221                   112274704.335 8        49.000    21032817.785
  21032817.660    87324840.113 7        45.000


  22958494.483                   122726295.161 7        42.500    22958497.117
  22958497.730    95453823.015 5        34.750


  20651774.366    20651774.299   108525851.221 8        50.500
  20651772.877    84565615.55247        42.250


 16  2 18  0  0 34.0000000  0 19G27G26R14G16R24G20G31G08R15G21G10G18
                                R17R02G29R08R18R01G04
  21905734.440    21905734.114   115115467.682 7        47.250    21905735.182
  21905735.182    89700397.724 7        45.000    21905736.439    85962887.316 8
        51.000

  20336456.407    20336456.188   106868834.760 8        51.500    20336458.540
  20336458.692    83274455.275 8        49.250    20336458.652    79804684.838 9
        55.500

  21761366.825                   116000346.050 6        40.000    21761373.349
  21761373.349    90222538.100 6        38.500


  20546714.521    20546713.945   107973749.997 8        50.750
  20546712.634    84135399.64647        44.750


  22501521.894                   120326077.302 6        39.000    22501525.548
  22501523.683    93586741.367 5        32.500


  23711546.253    23711545.516   124605026.043 6        36.250
  23711545.569    97094830.32242        16.750


  23976136.835    23976136.813   125995477.540 6        41.500    23976137.184
  23976136.629    98178315.592 6        37.750


  24533830.855    24533830.641   128926159.980 6        36.500    24533833.717
  24533833.650   100461962.474 6        36.000    24533834.227    96276043.194 7
        43.000

  19600789.679                   104740687.673 8        49.750    19600794.620
  19600794.057    81465009.325 8        48.250


  21633021.332    21633020.604   113682650.143 7        47.750
  21633019.458    88583797.14046        39.250


  23959799.111    23959799.067   125909635.102 6        39.250    23959802.210
  23959802.370    98111464.859 6        38.500    23959800.796    94023488.054 7
        42.250

  22865565.290    22865564.633   120159416.208 7        44.000
  22865563.121    93630730.30444        26.750


  20271123.606                   108475226.121 8        49.500    20271126.012
  20271126.079    84369389.755 5        33.000


  23623031.472                   126057033.777 6        40.500    23623035.993
  23623036.154    98044366.370 6        39.000


  24616768.773    24616768.849   129362255.594 6        37.250    24616768.969
  24616768.307   100801878.669 5        34.000


  24280748.569                   130022340.448 5        34.250    24280751.560
  24280750.787   101128478.813 5        31.250


  21032430.020                   112272653.388 8        49.000    21032433.440
  21032433.543    87323244.928 7        44.750


  22958286.083                   122725181.945 7        42.000    22958289.048
  22958289.343    95452957.158 5        35.250


  20652053.311    20652053.244   108527317.150 8        50.250
  20652051.826    84566757.83347        42.250


 16  2 18  0  0 35.0000000  0 19G27G26R14G16R24G20G31G08R15G21G10G18
                                R17R02G29R08R18R01G04
  21905352.362    21905352.032   115113460.120 7        47.250    21905353.114
  21905353.158    89698833.393 7        44.750    21905354.419    85961388.160 8
        51.000

  20336573.277    20336573.058   106869449.101 8        51.500    20336575.442
  20336575.594    83274933.983 8        49.250    20336575.553    79805143.598 9
        55.750

  21762163.444                   116004593.119 6        40.000    21762170.456
  21762170.219    90225841.355 6        38.500


  20546486.182    20546485.610   107972550.162 8        50.750
  20546484.309    84134464.70947        44.750


  22502114.429                   120329246.998 6        38.750    22502118.413
  22502116.915    93589206.684 5        31.500


  23711784.389    23711783.652   124606277.366 6        36.500
  23711783.714    97095805.37542        17.000


  23976799.677    23976799.655   125998961.495 6        41.500    23976800.231
  23976799.610    98181030.354 6        38.000


  24533310.640    24533310.426   128923427.972 6        36.000    24533313.882
  24533313.690   100459833.670 6        36.500    24533314.343    96274003.068 7
        43.000

  19601082.579                   104742252.580 8        50.000    19601087.494
  19601086.953    81466226.469 8        48.250


  21633307.770    21633307.042   113684155.720 7        47.750
  21633305.951    88584970.31746        39.250


  23959181.186    23959181.142   125906389.227 6        39.500    23959184.254
  23959184.701    98108935.631 6        38.500    23959183.095    94021064.197 7
        42.250

  22865248.775    22865248.114   120157753.280 7        44.000
  22865246.660    93629434.51744        27.000


  20271506.341                   108477274.233 8        49.500    20271509.248
  20271509.073    84370982.721 5        33.500


  23622376.044                   126053537.597 6        40.750    23622381.083
  23622380.882    98041647.119 6        39.250


  24617308.891    24617308.967   129365094.046 6        37.500    24617309.539
  24617308.466   100804090.468 5        33.750


  24281071.621                   130024067.325 5        34.250    24281073.508
  24281073.262   101129821.938 5        32.250


  21032045.863                   112270602.820 8        49.000    21032049.248
  21032049.485    87321650.038 7        45.000


  22958077.670                   122724069.457 7        42.250    22958081.153
  22958081.422    95452091.889 5        35.000


  20652332.313    20652332.246   108528783.586 8        50.250
  20652330.873    84567900.50947        42.250


 16  2 18  0  0 36.0000000  0 19G27G26R14G16R24G20G31G08R15G21G10G18
                                R17R02G29R08R18R01G04
  21904970.343    21904970.013   115111452.769 7        47.250    21904971.040
  21904971.179    89697269.223 7        45.000    21904972.435    85959889.164 8
        51.000

  20336690.259    20336690.036   106870063.962 8        51.500    20336692.504
  20336692.603    83275413.093 8        49.250    20336692.544    79805602.749 9
        55.500

  21762960.475                   116008840.517 6        40.000    21762967.657
  21762967.062    90229144.897 6        38.750


  20546257.942    20546257.370   107971350.765 8        50.750
  20546256.073    84133530.11447        44.750


  22502707.147                   120332416.740 6        38.250    22502711.507
  22502709.428    93591672.047 5        32.250


  23712023.129    23712022.392   124607529.261 6        36.750
  23712021.971    97096780.87142        16.750


  23977462.599    23977462.573   126002445.496 6        41.500    23977463.275
  23977462.582    98183745.167 6        38.000


  24532790.206    24532789.992   128920696.034 6        36.250    24532793.935
  24532793.761   100457704.885 6        36.500    24532794.458    96271962.988 7
        43.000

  19601375.614                   104743818.342 8        50.000    19601380.546
  19601379.947    81467444.284 8        48.250


  21633594.223    21633593.490   113685661.665 7        47.750
  21633592.510    88586143.78146        39.250


  23958563.507    23958563.458   125903143.421 6        39.500    23958566.226
  23958567.004    98106406.419 6        38.500    23958565.484    94018640.370 7
        42.000

  22864932.412    22864931.751   120156090.726 7        44.000
  22864930.306    93628139.01644        26.750


  20271889.161                   108479322.618 8        49.500    20271891.831
  20271891.978    84372575.891 5        33.500


  23621720.642                   126050041.608 6        40.500    23621725.986
  23621725.651    98038928.016 6        39.500


  24617849.134    24617849.205   129367932.504 6        37.250    24617849.117
  24617848.634   100806302.213 5        33.750


  24281395.076                   130025794.900 5        34.500    24281396.525
  24281395.778   101131165.579 5        32.000


  21031661.866                   112268552.602 8        49.000    21031665.377
  21031665.386    87320055.426 7        45.000


  22957869.395                   122722957.712 7        42.500    22957873.496
  22957873.572    95451227.211 5        35.250


  20652611.423    20652611.356   108530250.510 8        50.500
  20652610.019    84569043.56647        42.250


 16  2 18  0  0 37.0000000  0 19G27G26R14G16R24G20G31G08R15G21G10G18
                                R17R02G29R08R18R01G04
  21904588.341    21904588.011   115109445.628 7        47.250    21904589.097
  21904589.235    89695705.220 7        45.000    21904590.519    85958390.328 8
        51.000

  20336807.340    20336807.117   106870679.361 8        51.500    20336809.527
  20336809.714    83275892.625 8        49.250    20336809.634    79806062.296 9
        55.500

  21763757.555                   116013088.256 6        40.000    21763764.634
  21763763.994    90232448.682 6        38.500


  20546029.822    20546029.246   107970151.814 8        50.750
  20546027.913    84132595.86847        44.750


  22503300.379                   120335586.492 6        38.250    22503303.022
  22503302.235    93594137.400 5        31.750


  23712261.699    23712260.957   124608781.756 6        36.500
  23712260.326    97097756.85242        16.750


  23978125.491    23978125.460   126005929.548 6        41.500    23978126.322
  23978125.594    98186459.999 6        38.250


  24532270.344    24532270.121   128917964.153 6        36.500    24532274.328
  24532273.970   100455576.167 6        36.750    24532274.655    96269922.955 7
        43.000

  19601668.836                   104745384.957 8        50.000    19601673.688
  19601673.053    81468662.763 8        48.250


  21633880.809    21633880.076   113687167.987 7        47.750
  21633879.145    88587317.54046        39.250


  23957945.936    23957945.892   125899897.681 6        39.500    23957948.029
  23957949.361    98103877.279 6        38.500    23957947.770    94016216.614 7
        42.000

  22864616.067    22864615.406   120154428.559 7        43.750
  22864614.001    93626843.82144        27.000


  20272271.861                   108481371.265 8        49.500    20272274.575
  20272274.405    84374169.306 5        33.000


  23621065.939                   126046545.774 6        40.500    23621071.264
  23621070.625    98036209.024 6        39.250


  24618389.092    24618389.172   129370770.935 6        37.250    24618389.311
  24618388.801   100808514.000 5        33.750


  24281717.712                   130027523.182 5        34.500    24281718.634
  24281718.634   101132509.823 5        31.250


  21031277.799                   112266502.749 8        49.000    21031281.273
  21031281.412    87318461.107 7        44.750


  22957661.590                   122721846.717 7        42.500    22957665.556
  22957665.923    95450363.122 5        35.250


  20652890.662    20652890.595   108531717.927 8        50.500
  20652889.254    84570187.00747        42.250


 16  2 18  0  0 38.0000000  0 19G27G26R14G16R24G20G31G08R15G21G10G18
                                R17R02G29R08R18R01G04
  21904206.514    21904206.184   115107438.701 7        47.250    21904207.260
  21904207.336    89694141.372 7        45.000    21904208.647    85956891.649 8
        51.000

  20336924.577    20336924.354   106871295.298 8        51.250    20336926.831
  20336926.920    83276372.577 8        49.250    20336926.849    79806522.252 9
        55.500

  21764554.533                   116017336.344 6        40.000    21764561.477
  21764561.039    90235752.761 6        38.750


  20545801.783    20545801.207   107968953.305 8        50.750
  20545799.842    84131661.96447        44.750


  22503893.165                   120338756.258 6        38.500    22503895.606
  22503895.302    93596602.778 5        32.250


  23712500.059    23712499.308   124610034.844 6        36.250
  23712498.811    97098733.28142        16.750


  23978788.588    23978788.562   126009413.640 6        41.250    23978789.652
  23978788.641    98189174.878 6        38.000


  24531750.835    24531750.625   128915232.368 6        36.750    24531754.247
  24531754.108   100453447.481 6        36.750    24531754.833    96267882.982 7
        42.750

  19601962.192                   104746952.426 8        50.000    19601967.178
  19601966.391    81469881.905 8        48.250


  21634167.534    21634166.806   113688674.699 7        47.500
  21634165.852    88588491.60046        39.250


  23957328.423    23957328.379   125896651.999 6        39.500    23957330.480
  23957331.723    98101348.158 6        38.250    23957330.118    94013792.899 7
        42.000

  22864299.731    22864299.070   120152766.781 7        43.750
  22864297.799    93625548.92944        26.750


  20272654.748                   108483420.177 8        49.500    20272658.343
  20272657.440    84375762.908 5        33.000


  23620410.667                   126043050.073 6        40.750    23620415.953
  23620415.546    98033490.158 6        39.500


  24618929.452    24618929.528   129373609.387 6        37.000    24618929.769
  24618928.969   100810725.773 5        33.250


  24282040.926                   130029252.190 5        34.250    24282042.804
  24282041.082   101133854.563 5        31.000


  21030893.856                   112264453.282 8        48.750    21030897.384
  21030897.514    87316867.068 7        44.750


  22957453.628                   122720736.481 7        42.500    22957457.755
  22957458.431    95449499.557 5        35.250


  20653169.986    20653169.919   108533185.853 8        50.500
  20653168.596    84571330.84547        42.250


 16  2 18  0  0 39.0000000  0 19G27G26R14G16R24G20G31G08R15G21G10G18
                                R17R02G29R08R18R01G04
  21903824.597    21903824.267   115105431.981 7        47.250    21903825.339
  21903825.469    89692577.702 7        45.000    21903826.757    85955393.131 8
        51.000

  20337041.926    20337041.707   106871911.760 8        51.250    20337044.157
  20337044.229    83276852.934 8        49.250    20337044.148    79806982.596 9
        55.500

  21765351.930                   116021584.782 6        39.750    21765357.676
  21765357.971    90239057.122 6        38.250


  20545573.712    20545573.136   107967755.240 8        50.750
  20545571.856    84130728.40847        44.750


  22504486.231                   120341926.061 6        38.500    22504488.713
  22504488.033    93599068.160 5        31.750


  23712738.544    23712737.789   124611288.529 6        36.000
  23712737.363    97099710.17342        16.500


  23979451.528    23979451.502   126012897.805 6        41.250    23979452.270
  23979451.680    98191889.804 6        38.250


  24531230.978    24531230.782   128912500.637 6        37.000    24531234.068
  24531234.260   100451318.862 6        36.500    24531234.971    96265843.053 7
        42.750

  19602255.620                   104748520.757 8        50.000    19602260.937
  19602259.890    81471101.718 8        48.250


  21634454.335    21634453.602   113690181.785 7        47.500
  21634452.640    88589665.95346        39.250


  23956710.852    23956710.812   125893406.419 6        39.500    23956713.329
  23956714.080    98098819.156 6        38.250    23956712.551    94011369.256 7
        42.000

  22863983.578    22863982.912   120151105.388 7        43.750
  22863981.656    93624254.33444        27.000


  20273037.639                   108485469.354 8        49.500    20273041.007
  20273040.412    84377356.698 5        33.250


  23619755.633                   126039554.545 6        40.750    23619760.976
  23619760.431    98030771.401 6        38.750


  24619469.574    24619469.645   129376447.841 6        37.000    24619469.682
  24619469.163   100812937.551 5        33.500


  24282363.920                   130030981.885 5        34.000    24282364.712
  24282364.148   101135199.912 5        32.000


  21030509.833                   112262404.185 8        48.750    21030513.791
  21030513.616    87315273.326 7        45.000


  22957246.284                   122719626.990 7        42.250    22957250.371
  22957250.898    95448636.652 5        35.250


  20653449.481    20653449.419   108534654.271 8        50.500
  20653448.023    84572475.06747        42.250


 16  2 18  0  0 40.0000000  0 19G27G26R14G16R24G20G31G08R15G21G10G18
                                R17R02G29R08R18R01G04
  21903442.828    21903442.493   115103425.469 7        47.250    21903443.588
  21903443.655    89691014.185 7        45.000    21903444.943    85953894.762 8
        51.000

  20337159.342    20337159.123   106872528.763 8        51.250    20337161.457
  20337161.645    83277333.717 8        49.250    20337161.546    79807443.344 9
        55.500

  21766148.916                   116025833.587 6        39.500    21766155.043
  21766155.195    90242361.727 6        38.750


  20545345.829    20545345.253   107966557.615 8        50.500
  20545343.956    84129795.19447        44.750


  22505079.231                   120345095.878 6        38.750    22505081.664
  22505080.515    93601533.583 5        31.750


  23712976.917    23712976.166   124612542.777 6        36.250
  23712976.036    97100687.50442        16.250


  23980114.339    23980114.308   126016382.005 6        41.250    23980115.103
  23980114.714    98194604.750 6        38.000


  24530711.429    24530711.242   128909768.971 6        37.000    24530714.054
  24530714.429   100449190.305 6        36.500    24530715.167    96263803.171 7
        42.750

  19602549.294                   104750089.943 8        50.000    19602554.485
  19602553.578    81472322.195 8        48.250


  21634741.194    21634740.466   113691689.253 7        47.500
  21634739.490    88590840.60446        39.000


  23956093.553    23956093.518   125890160.887 6        39.500    23956096.178
  23956096.388    98096290.177 6        38.000    23956094.930    94008945.645 7
        42.000

  22863667.555    22863666.894   120149444.390 7        43.750
  22863665.597    93622960.05144        26.750


  20273420.634                   108487518.797 8        49.500    20273424.287
  20273423.375    84378950.711 5        33.750


  23619100.804                   126036059.231 6        40.750    23619105.342
  23619105.378    98028052.817 6        39.250


  24620010.028    24620010.104   129379286.291 6        37.000    24620009.894
  24620009.281   100815149.328 5        33.250


  24282685.953                   130032712.288 5        34.000    24282686.633
  24282687.344   101136545.745 5        31.250


  21030125.605                   112260355.456 8        48.500    21030129.795
  21030129.808    87313679.881 7        45.000


  22957038.747                   122718518.242 7        42.000    22957042.811
  22957043.513    95447774.277 5        35.500


  20653729.141    20653729.074   108536123.190 8        50.500
  20653727.544    84573619.67847        42.250


 16  2 18  0  0 41.0000000  0 19G27G26R14G16R24G20G31G08R15G21G10G18
                                R17R02G29R08R18R01G04
  21903061.076    21903060.741   115101419.161 7        47.250    21903061.894
  21903061.872    89689450.829 7        45.000    21903063.187    85952396.543 8
        51.000

  20337276.892    20337276.669   106873146.287 8        51.250    20337278.926
  20337279.154    83277814.905 8        49.250    20337279.060    79807904.484 9
        55.500

  21766945.625                   116030082.733 6        39.750    21766952.351
  21766952.163    90245666.618 6        38.500


  20545117.937    20545117.365   107965360.435 8        50.500
  20545116.140    84128862.32847        44.750


  22505672.173                   120348265.717 6        38.750    22505674.529
  22505673.063    93603998.968 5        32.000


  23713215.375    23713214.629   124613797.625 6        36.000
  23713214.807    97101665.30842        16.250


  23980777.333    23980777.302   126019866.275 6        41.000    23980778.129
  23980777.744    98197319.752 6        38.250


  24530191.724    24530191.537   128907037.350 6        36.750    24530194.644
  24530194.684   100447061.766 6        36.750    24530195.319    96261763.331 7
        43.000

  19602842.963                   104751660.000 8        49.750    19602848.208
  19602847.399    81473543.352 8        48.250


  21635028.062    21635027.329   113693197.087 7        47.500
  21635026.407    88592015.53946        39.000


  23955475.986    23955475.951   125886915.453 6        39.750    23955478.513
  23955478.759    98093761.268 6        38.250    23955477.203    94006522.094 7
        42.000

  22863351.649    22863350.988   120147783.778 7        43.750
  22863349.592    93621666.07244        27.000


  20273803.637                   108489568.505 8        49.500    20273807.300
  20273805.958    84380544.926 5        33.000


  23618445.832                   126032564.099 6        40.750    23618450.272
  23618450.442    98025334.379 6        39.250


  24620549.941    24620550.017   129382124.716 6        37.250    24620549.440
  24620549.409   100817361.091 5        33.000


  24283009.314                   130034443.438 5        33.500    24283010.025
  24283011.013   101137892.184 5        31.000


  21029741.734                   112258307.105 8        48.500    21029746.273
  21029746.080    87312086.717 7        44.750


  22956831.536                   122717410.236 7        42.000    22956835.717
  22956836.231    95446912.512 5        35.250


  20654008.836    20654008.769   108537592.609 8        50.500
  20654007.168    84574764.67947        42.250


 16  2 18  0  0 42.0000000  0 19G27G26R14G16R24G20G31G08R15G21G10G18
                                R17R02G29R08R18R01G04
  21902679.414    21902679.084   115099413.071 7        47.250    21902680.376
  21902680.125    89687887.647 7        45.000    21902681.444    85950898.493 8
        51.000

  20337394.468    20337394.249   106873764.346 8        51.250    20337396.615
  20337396.767    83278296.513 8        49.250    20337396.682    79808366.021 9
        55.500

  21767742.026                   116034332.245 6        39.750    21767749.811
  21767749.400    90248971.783 6        38.750


  20544890.171    20544889.599   107964163.698 8        50.500
  20544888.409    84127929.80547        45.000


  22506264.922                   120351435.558 6        38.500    22506266.425
  22506265.790    93606464.453 5        31.000


  23713453.807    23713453.070   124615053.089 6        36.000
  23713453.704    97102643.59842        16.500


  23981440.457    23981440.422   126023350.571 6        41.000    23981441.069
  23981440.796    98200034.797 6        38.000


  24529672.340    24529672.166   128904305.821 6        37.000    24529674.652
  24529674.911   100444933.311 6        36.250    24529675.452    96259723.563 7
        42.750

  19603136.829                   104753230.920 8        49.750    19603142.110
  19603141.422    81474765.179 8        48.250


  21635315.055    21635314.322   113694705.306 7        47.500
  21635313.409    88593190.77346        39.000


  23954858.375    23954858.340   125883670.069 6        39.750    23954860.919
  23954861.169    98091232.401 6        38.000    23954859.510    94004098.598 6
        41.750

  22863035.635    22863034.969   120146123.552 7        43.500
  22863033.658    93620372.39044        27.000


  20274186.636                   108491618.481 8        49.500    20274191.949
  20274188.979    84382139.366 5        32.750


  23617791.280                   126029069.161 6        40.750    23617795.604
  23617795.224    98022616.085 6        39.500


  24621090.122    24621090.193   129384963.167 6        37.250    24621089.286
  24621089.500   100819572.859 5        32.750


  24283332.903                   130036175.258 5        33.750    24283334.262
  24283334.821   101139239.194 5        32.500


  21029357.943                   112256259.120 8        48.250    21029362.223
  21029362.411    87310493.844 7        45.000


  22956624.048                   122716302.985 6        41.500    22956628.100
  22956629.486    95446051.323 5        35.500


  20654288.554    20654288.487   108539062.525 8        50.500
  20654286.890    84575910.06847        42.250


 16  2 18  0  0 43.0000000  0 19G27G26R14G16R24G20G31G08R15G21G10G18
                                R17R02G29R08R18R01G04
  21902297.784    21902297.454   115097407.185 7        47.500    21902298.669
  21902298.414    89686324.620 7        45.000    21902299.724    85949400.588 8
        51.000

  20337512.144    20337511.921   106874382.944 8        51.250    20337514.348
  20337514.487    83278778.535 8        49.250    20337514.388    79808827.961 9
        55.500

  21768539.406                   116038582.107 6        39.750    21768547.079
  21768546.864    90252277.227 6        38.500


  20544662.476    20544661.904   107962967.401 8        50.500
  20544660.759    84126997.62747        44.750


  22506857.600                   120354605.420 6        38.750    22506860.480
  22506858.199    93608929.882 5        31.750


  23713692.913    23713692.171   124616309.116 5        35.750
  23713692.712    97103622.31842        16.500


  23982103.567    23982103.527   126026834.940 6        41.000    23982104.144
  23982103.853    98202749.886 6        38.000


  24529152.876    24529152.698   128901574.375 6        37.250    24529155.340
  24529155.130   100442804.895 6        36.500    24529155.631    96257683.844 7
        42.750

  19603431.044                   104754802.704 8        49.750    19603436.200
  19603435.538    81475987.677 8        48.500


  21635602.093    21635601.360   113696213.892 7        47.500
  21635600.470    88594366.29646        39.000


  23954241.014    23954240.974   125880424.763 6        40.000    23954242.972
  23954243.612    98088703.590 6        38.000    23954241.890    94001675.173 6
        41.750

  22862719.862    22862719.201   120144463.711 7        43.500
  22862717.774    93619079.00644        27.250


  20274569.872                   108493668.720 8        49.500    20274574.912
  20274571.920    84383733.988 5        32.500


  23617136.550                   126025574.357 6        40.750    23617140.109
  23617140.118    98019897.933 6        38.750


  24621630.280    24621630.356   129387801.608 6        37.250    24621629.547
  24621629.623   100821784.638 5        32.750


  24283656.376                   130037907.787 5        33.500    24283656.662
  24283658.106   101140586.657 5        32.500


  21028974.381                   112254211.495 8        48.250    21028978.361
  21028978.866    87308901.256 7        45.000


  22956416.601                   122715196.495 6        41.500    22956421.059
  22956422.678    95445190.721 6        36.000


  20654568.397    20654568.330   108540532.934 8        50.500
  20654566.707    84577055.84047        42.250


 16  2 18  0  0 44.0000000  0 19G27G26R14G16R24G20G31G08R15G21G10G18
                                R17R02G29R08R18R01G04
  21901916.122    21901915.792   115095401.516 7        47.500    21901916.918
  21901916.757    89684761.755 7        45.000    21901918.062    85947902.847 8
        51.000

  20337629.935    20337629.716   106875002.071 8        51.250    20337632.225
  20337632.305    83279260.970 8        49.250    20337632.207    79809290.296 9
        55.500

  21769337.045                   116042832.313 6        39.750    21769344.387
  21769344.155    90255582.948 6        38.750


  20544434.839    20544434.263   107961771.551 8        50.500
  20544433.198    84126065.79447        44.750


  22507450.246                   120357775.280 6        38.500    22507454.105
  22507450.582    93611395.372 5        32.000


  23713932.083    23713931.337   124617565.723 5        35.500
  23713931.814    97104601.50242        16.750


  23982766.708    23982766.668   126030319.338 6        41.000    23982767.428
  23982766.919    98205465.013 6        37.750


  24528633.292    24528633.123   128898843.014 6        37.750    24528635.174
  24528635.281   100440676.541 6        36.500    24528635.863    96255644.181 7
        43.000

  19603725.317                   104756375.343 8        50.000    19603730.428
  19603729.829    81477210.838 8        48.250


  21635889.372    21635888.644   113697722.865 7        47.750
  21635887.611    88595542.12046        39.000


  23953623.505    23953623.470   125877179.558 6        40.000    23953625.669
  23953626.027    98086174.845 6        38.250    23953624.314    93999251.785 6
        41.750

  22862403.902    22862403.241   120142804.261 7        43.750
  22862402.019    93617785.92944        27.250


  20274953.180                   108495719.247 8        49.500    20274957.826
  20274955.098    84385328.869 5        32.500


  23616481.672                   126022079.719 6        40.500    23616485.271
  23616485.173    98017179.862 6        38.750


  24622170.488    24622170.555   129390640.041 6        37.250    24622169.160
  24622169.746   100823996.386 5        32.250


  24283979.401                   130039640.992 5        33.500    24283979.991
  24283982.017   101141934.716 5        31.000


  21028590.886                   112252164.240 8        48.250    21028595.210
  21028595.460    87307308.942 7        45.000


  22956209.462                   122714090.776 6        41.500    22956214.045
  22956215.865    95444330.725 6        36.000


  20654848.307    20654848.240   108542003.848 8        50.500
  20654846.621    84578202.00847        42.250


 16  2 18  0  0 45.0000000  0 19G27G26R14G16R24G20G31G08R15G21G10G18
                                R17R02G29R08R18R01G04
  21901534.545    21901534.210   115093396.053 7        47.500    21901535.233
  21901535.126    89683199.063 7        45.000    21901536.463    85946405.267 8
        51.000

  20337747.852    20337747.633   106875621.729 8        51.500    20337750.191
  20337750.226    83279743.823 8        49.250    20337750.106    79809753.029 9
        55.500

  21770134.599                   116047082.868 6        40.000    21770142.107
  21770141.512    90258888.931 6        38.500


  20544207.251    20544206.675   107960576.143 8        50.500
  20544205.718    84125134.30847        44.750


  22508043.273                   120360945.176 6        38.500    22508044.552
  22508043.497    93613860.791 5        32.500


  23714171.417    23714170.666   124618822.945 5        35.500
  23714171.091    97105581.15642        16.500


  23983429.805    23983429.765   126033803.789 6        41.250    23983430.311
  23983429.966    98208180.156 6        37.750


  24528113.725    24528113.551   128896111.728 6        38.000    24528115.612
  24528115.531   100438548.283 6        36.250    24528116.113    96253604.575 7
        42.750

  19604019.854                   104757948.828 8        50.000    19604024.706
  19604024.285    81478434.664 8        48.250


  21636176.603    21636175.875   113699232.203 7        47.750
  21636174.818    88596718.22946        39.000


  23953005.938    23953005.907   125873934.377 6        40.000    23953007.990
  23953008.460    98083646.152 6        38.000    23953006.725    93996828.444 6
        41.750

  22862088.125    22862087.459   120141145.212 7        43.750
  22862086.300    93616493.15944        27.250


  20275336.451                   108497770.054 8        49.500    20275340.445
  20275338.280    84386923.941 5        33.250


  23615826.565                   126018585.217 6        40.500    23615830.898
  23615830.313    98014461.912 6        38.750


  24622710.687    24622710.749   129393478.485 6        37.250    24622708.782
  24622709.869   100826208.116 5        31.750


  24284301.725                   130041374.930 5        33.750    24284304.886
  24284305.955   101143283.343 5        32.000


  21028207.596                   112250117.351 8        48.500    21028211.393
  21028212.054    87305716.926 7        45.000


  22956002.520                   122712985.819 6        41.500    22956007.818
  22956009.200    95443471.312 6        36.500


  20655128.334    20655128.267   108543475.257 8        50.750
  20655126.630    84579348.55847        42.250


 16  2 18  0  0 46.0000000  0 19G27G26R14G16R24G20G31G08R15G21G10G18
                                R17R02G29R08R18R01G04
  21901152.990    21901152.655   115091390.811 7        47.500    21901153.567
  21901153.545    89681636.527 7        45.000    21901154.855    85944907.843 8
        51.000

  20337865.845    20337865.626   106876241.921 8        51.500    20337868.335
  20337868.241    83280227.085 8        49.500    20337868.116    79810216.155 9
        55.500

  21770932.381                   116051333.767 6        40.250    21770939.200
  21770938.919    90262195.196 6        38.500


  20543979.816    20543979.240   107959381.179 8        50.500
  20543978.322    84124203.16647        44.750


  22508635.794                   120364115.085 6        38.250    22508637.650
  22508636.291    93616326.309 5        32.500


  23714410.886    23714410.140   124620080.754 5        35.750
  23714410.479    97106561.27042        16.500


  23984092.978    23984092.938   126037288.311 6        41.000    23984092.755
  23984093.041    98210895.367 6        37.500


  24527594.149    24527593.975   128893380.488 6        37.750    24527596.067
  24527595.728   100436420.053 6        36.500    24527596.371    96251565.018 7
        42.750

  19604314.471                   104759523.177 8        50.000    19604319.377
  19604318.912    81479659.154 8        48.250


  21636464.043    21636463.315   113700741.928 7        47.750
  21636462.102    88597894.63946        39.250


  23952388.510    23952388.484   125870689.284 6        40.000    23952390.209
  23952390.907    98081117.496 6        38.000    23952389.265    93994405.181 6
        41.500

  22861772.473    22861771.812   120139486.544 7        43.750
  22861770.671    93615200.69344        27.250


  20275719.795                   108499821.137 8        49.500    20275723.363
  20275721.619    84388519.192 5        33.000


  23615171.245                   126015090.907 6        40.500    23615175.900
  23615175.466    98011744.119 6        39.250


  24623250.407    24623250.474   129396316.914 6        37.500    24623248.784
  24623250.009   100828419.907 5        32.000


  24284626.127                   130043109.613 5        34.000    24284628.882
  24284629.660   101144632.514 5        31.500


  21027824.378                   112248070.856 8        48.750    21027828.121
  21027828.604    87304125.198 7        45.250


  22955796.114                   122711881.608 6        41.500    22955802.280
  22955802.812    95442612.484 6        36.000


  20655408.423    20655408.356   108544947.164 8        50.500
  20655406.728    84580495.49847        42.250


 16  2 18  0  0 47.0000000  0 19G27G26R14G16R24G20G31G08R15G21G10G18
                                R17R02G29R08R18R01G04
  21900771.409    21900771.074   115089385.755 7        47.500    21900772.030
  21900771.994    89680074.159 7        45.000    21900773.264    85943410.566 8
        51.000

  20337984.025    20337983.802   106876862.641 8        51.500    20337986.373
  20337986.364    83280710.765 8        49.500    20337986.239    79810679.683 9
        55.500

  21771730.503                   116055584.997 6        40.000    21771736.754
  21771736.343    90265501.726 6        38.500


  20543752.487    20543751.911   107958186.655 8        50.500
  20543751.012    84123272.36947        44.750


  22509228.678                   120367285.019 6        38.250    22509229.653
  22509229.165    93618791.800 5        32.500


  23714650.471    23714649.720   124621339.116 5        35.750
  23714649.921    97107541.82442        16.500


  23984755.843    23984755.799   126040772.862 6        41.000    23984755.633
  23984756.138    98213610.609 6        37.500


  24527074.529    24527074.360   128890649.320 6        37.750    24527076.255
  24527076.071   100434291.855 6        36.500    24527076.608    96249525.513 7
        42.750

  19604609.254                   104761098.380 8        50.000    19604614.061
  19604613.645    81480884.311 8        48.250


  21636751.555    21636750.827   113702252.028 7        47.750
  21636749.467    88599071.34046        39.250


  23951771.256    23951771.230   125867444.296 6        40.250    23951772.423
  23951773.384    98078588.930 6        38.000    23951771.734    93991981.951 6
        41.750

  22861457.054    22861456.393   120137828.261 7        43.750
  22861455.077    93613908.52744        27.250


  20276103.089                   108501872.497 8        49.500    20276105.848
  20276105.025    84390114.728 5        33.500


  23614516.308                   126011596.795 6        40.500    23614521.634
  23614520.735    98009026.480 6        39.250


  24623790.271    24623790.333   129399155.344 6        37.250    24623789.010
  24623790.101   100830631.676 5        31.500


  24284950.119                   130044844.993 5        34.250    24284953.034
  24284953.616   101145982.252 5        31.000


  21027441.223                   112246024.744 8        48.750    21027445.073
  21027445.198    87302533.778 7        45.250


  22955589.301                   122710778.170 6        41.500    22955596.519
  22955596.644    95441754.265 6        36.000


  20655688.521    20655688.454   108546419.562 8        50.500
  20655686.915    84581642.82347        42.250


 16  2 18  0  0 48.0000000  0 19G27G26R14G16R24G20G31G08R15G21G10G18
                                R17R02G29R08R18R01G04
  21900389.845    21900389.506   115087380.925 7        47.500    21900390.592
  21900390.485    89678511.952 7        45.000    21900391.750    85941913.455 8
        51.000

  20338102.300    20338102.077   106877483.901 8        51.500    20338104.598
  20338104.589    83281194.866 8        49.500    20338104.459    79811143.614 9
        55.500

  21772528.129                   116059836.575 6        40.250    21772534.259
  21772533.937    90268808.500 6        39.000


  20543525.280    20543524.708   107956992.580 8        50.500
  20543523.791    84122341.92047        44.750


  22509820.832                   120370454.979 6        38.250    22509821.740
  22509822.509    93621257.335 5        32.250


  23714890.570    23714889.819   124622598.085 6        36.000
  23714889.443    97108522.83042        16.750


  23985418.940    23985418.891   126044257.478 6        41.000    23985419.127
  23985419.244    98216325.894 6        37.500


  24526554.957    24526554.779   128887918.207 6        37.750    24526556.522
  24526556.303   100432163.731 6        36.750    24526556.956    96247486.046 7
        42.750

  19604904.283                   104762674.444 8        50.000    19604908.875
  19604908.620    81482110.136 8        48.250


  21637039.076    21637038.352   113703762.508 8        48.000
  21637036.898    88600248.33646        39.250


  23951154.069    23951154.038   125864199.366 6        40.250    23951155.330
  23951155.889    98076060.410 6        38.000    23951154.244    93989558.790 6
        41.750

  22861141.522    22861140.865   120136170.360 7        44.000
  22861139.582    93612616.65544        27.250


  20276486.512                   108503924.140 8        49.500    20276489.441
  20276488.672    84391710.424 5        32.250


  23613861.328                   126008102.867 6        40.500    23613866.546
  23613866.076    98006308.978 6        39.250


  24624330.461    24624330.519   129401993.767 6        36.750    24624329.924
  24624330.255   100832843.466 5        31.500


  24285274.906                   130046581.048 5        33.750    24285278.197
  24285277.415   101147332.487 5        31.250


  21027058.259                   112243978.985 8        48.750    21027061.327
  21027061.962    87300942.642 7        45.000


  22955383.137                   122709675.478 6        41.750    22955390.569
  22955390.591    95440896.600 6        36.000


  20655968.793    20655968.726   108547892.461 8        50.500
  20655967.201    84582790.53747        42.250


 16  2 18  0  0 49.0000000  0 19G27G26R14G16R24G20G31G08R15G21G10G18
                                R17R02G29R08R18R01G04
  21900008.317    21900007.982   115085376.302 7        47.250    21900009.118
  21900009.028    89676949.900 7        45.000    21900010.312    85940416.494 8
        51.000

  20338220.677    20338220.458   106878105.691 8        51.500    20338222.792
  20338222.913    83281679.375 8        49.500    20338222.792    79811607.934 9
        55.250

  21773325.804                   116064088.517 6        40.250    21773331.872
  21773331.661    90272115.567 6        38.750


  20543298.211    20543297.635   107955798.944 8        50.500
  20543296.655    84121411.81447        44.750


  22510413.081                   120373624.986 6        38.250    22510414.780
  22510415.303    93623722.849 5        31.750


  23715130.191    23715129.431   124623857.646 5        35.750
  23715129.064    97109504.30142        16.500


  23986081.835    23986081.791   126047742.136 6        41.000    23986082.162
  23986082.341    98219041.209 6        37.500


  24526035.234    24526035.051   128885187.158 6        38.000    24526037.045
  24526036.638   100430035.645 6        36.500    24526037.291    96245446.634 7
        42.750

  19605199.432                   104764251.366 8        49.750    19605204.239
  19605203.707    81483336.630 8        48.250


  21637326.583    21637325.855   113705273.363 8        48.000
  21637324.397    88601425.62646        39.250


  23950536.467    23950536.441   125860954.496 6        40.250    23950537.969
  23950538.425    98073531.952 6        37.750    23950536.753    93987135.684 6
        41.500

  22860826.233    22860825.576   120134512.849 7        43.750
  22860824.167    93611325.08844        27.500


  20276869.999                   108505976.041 8        49.500    20276872.114
  20276872.288    84393306.335 5        32.750


  23613206.776                   126004609.134 6        40.500    23613211.574
  23613211.623    98003591.631 6        39.500


  24624870.686    24624870.744   129404832.203 6        36.500    24624870.016
  24624870.342   100835055.182 5        31.000


  24285600.239                   130048317.800 5        33.750    24285603.047
  24285601.567   101148683.304 5        31.250


  21026675.149                   112241933.574 8        48.750    21026678.104
  21026678.753    87299351.764 7        45.000


  22955177.465                   122708573.561 7        42.000    22955184.074
  22955184.311    95440039.582 6        36.750


  20656249.047    20656248.980   108549365.855 8        50.500
  20656247.581    84583938.63647        42.500


 16  2 18  0  0 50.0000000  0 19G27G26R14G16R24G20G31G08R15G21G10G18
                                R17R02G29R08R18R01G04
  21899626.942    21899626.603   115083371.892 7        47.250    21899627.559
  21899627.608    89675388.026 7        45.000    21899628.891    85938919.691 8
        51.000

  20338339.094    20338338.875   106878728.011 8        51.500    20338341.156
  20338341.335    83282164.298 8        49.500    20338341.214    79812072.657 9
        55.500

  21774123.367                   116068340.779 6        40.000    21774129.935
  21774129.332    90275422.871 6        38.750


  20543071.186    20543070.614   107954605.748 8        50.500
  20543069.590    84120482.05047        44.750


  22511006.429                   120376794.949 6        38.500    22511007.878
  22511008.115    93626188.432 5        32.000


  23715370.103    23715369.330   124625117.776 5        35.750
  23715368.842    97110486.21142        16.250


  23986744.776    23986744.732   126051226.836 6        41.000    23986745.469
  23986745.438    98221756.552 6        37.250


  24525515.457    24525515.265   128882456.192 6        38.000    24525517.197
  24525516.879   100427907.626 6        36.750    24525517.662    96243407.277 7
        42.750

  19605494.649                   104765829.150 8        49.750    19605499.653
  19605498.942    81484563.798 8        48.250


  21637614.194    21637613.466   113706784.601 8        48.250
  21637611.971    88602603.21446        39.250


  23949918.721    23949918.686   125857709.716 6        40.500    23949920.630
  23949920.974    98071003.542 6        38.000    23949919.244    93984712.618 6
        41.750

  22860510.921    22860510.264   120132855.730 7        44.000
  22860508.828    93610033.82444        27.250


  20277253.664                   108508028.206 8        49.500    20277254.397
  20277255.922    84394902.483 5        32.500


  23612552.238                   126001115.545 6        40.750    23612556.463
  23612556.991    98000874.394 6        39.500


  24625410.742    24625410.800   129407670.617 6        36.750    24625410.058
  24625410.501   100837266.955 5        30.750


  24285924.472                   130050055.271 5        34.000    24285926.591
  24285926.207   101150034.646 5        30.250


  21026292.118                   112239888.532 8        48.750    21026295.495
  21026295.669    87297761.176 7        45.000


  22954971.480                   122707472.387 7        42.250    22954978.098
  22954978.183    95439183.090 6        36.500


  20656529.463    20656529.396   108550839.752 8        50.500
  20656528.059    84585087.12847        42.500


 16  2 18  0  0 51.0000000  0 19G27G26R14G16R24G20G31G08R15G21G10G18
                                R17R02G29R08R18R01G04
  21899245.499    21899245.160   115081367.690 7        47.250    21899246.232
  21899246.223    89673826.313 7        45.000    21899247.502    85937423.049 8
        51.000

  20338457.637    20338457.418   106879350.869 8        51.500    20338459.645
  20338459.859    83282649.642 8        49.500    20338459.743    79812537.778 9
        55.500

  21774920.872                   116072593.410 6        39.750    21774927.995
  21774927.141    90278730.467 6        38.500


  20542844.292    20542843.720   107953412.997 8        50.500
  20542842.615    84119552.63347        44.750


  22511599.300                   120379964.966 6        38.500    22511602.398
  22511601.048    93628653.979 5        32.250


  23715609.943    23715609.152   124626378.524 5        35.750
  23715608.784    97111468.61142        16.500


  23987407.944    23987407.900   126054711.611 6        41.000    23987408.593
  23987408.561    98224471.955 6        37.750


  24524995.698    24524995.497   128879725.315 6        38.000    24524997.160
  24524997.151   100425779.663 6        36.750    24524997.947    96241367.976 7
        42.750

  19605789.995                   104767407.804 8        49.750    19605795.017
  19605794.355    81485791.638 8        48.250


  21637901.934    21637901.206   113708296.212 8        48.250
  21637899.617    88603781.09246        39.500


  23949300.997    23949300.957   125854464.994 6        40.500    23949302.974
  23949303.560    98068475.203 6        38.250    23949301.852    93982289.621 6
        41.750

  22860195.752    22860195.095   120131199.017 7        44.000
  22860193.565    93608742.88344        27.500


  20277637.177                   108510080.625 8        49.500    20277638.411
  20277639.203    84396498.798 5        33.250


  23611897.668                   125997622.130 6        40.750    23611901.974
  23611902.337    97998157.293 6        39.250


  24625950.901    24625950.963   129410509.055 6        36.750    24625949.577
  24625950.583   100839478.727 5        31.000


  24286248.660                   130051793.527 5        34.250    24286250.887
  24286250.637   101151386.653 4        29.000


  21025909.088                   112237843.867 8        49.000    21025912.375
  21025912.634    87296170.876 7        45.000


  22954766.120                   122706371.935 7        42.000    22954772.157
  22954772.081    95438327.188 6        36.500


  20656810.008    20656809.941   108552314.149 8        50.500
  20656808.626    84586236.00847        42.500


 16  2 18  0  0 52.0000000  0 19G27G26R14G16R24G20G31G08R15G21G10G18
                                R17R02G29R08R18R01G04
  21898864.016    21898863.677   115079363.700 7        47.250    21898864.906
  21898864.870    89672264.759 7        45.000    21898866.180    85935926.564 8
        51.000

  20338576.269    20338576.050   106879974.251 8        51.500    20338578.290
  20338578.487    83283135.395 8        49.500    20338578.366    79813003.288 9
        55.500

  21775718.287                   116076846.373 6        39.750    21775725.835
  21775725.004    90282038.319 6        38.750


  20542617.348    20542616.776   107952220.690 8        50.500
  20542615.720    84118623.56147        44.750


  22512192.514                   120383134.958 6        38.500    22512194.947
  22512194.119    93631119.513 5        31.250


  23715849.912    23715849.125   124627639.858 5        35.750
  23715848.812    97112451.47842        16.500


  23988070.871    23988070.827   126058196.420 6        41.000    23988071.681
  23988071.663    98227187.382 6        37.500


  24524476.033    24524475.823   128876994.484 6        37.750    24524477.254
  24524477.464   100423651.734 6        37.000    24524478.282    96239328.720 7
        42.750

  19606085.663                   104768987.321 8        49.750    19606090.649
  19606089.938    81487020.155 8        48.250


  21638189.723    21638188.990   113709808.201 8        48.250
  21638187.339    88604959.26646        39.500


  23948683.748    23948683.708   125851220.346 6        40.500    23948685.586
  23948686.163    98065946.909 6        38.000    23948684.459    93979866.670 6
        41.750

  22859880.587    22859879.926   120129542.676 7        44.000
  22859878.405    93607452.22344        27.500


  20278020.825                   108512133.296 8        49.500    20278021.245
  20278023.145    84398095.317 5        33.000


  23611243.465                   125994128.878 6        40.750    23611247.298
  23611247.803    97995440.319 6        39.500


  24626490.889    24626490.956   129413347.477 6        36.500    24626488.899
  24626490.625   100841690.508 5        30.500


  24286574.038                   130053532.435 5        34.250    24286576.166
  24286574.677   101152739.136 4        28.500


  21025526.000                   112235799.558 8        48.750    21025529.586
  21025529.693    87294580.853 7        44.750


  22954560.573                   122705272.233 7        42.250    22954566.530
  22954566.342    95437471.881 6        36.500


  20657090.647    20657090.585   108553789.040 8        50.500
  20657089.297    84587385.27247        42.500


 16  2 18  0  0 53.0000000  0 19G27G26R14G16R24G20G31G08R15G21G10G18
                                R17R02G29R08R18R01G04
  21898482.658    21898482.319   115077359.917 7        47.250    21898483.606
  21898483.561    89670703.365 7        45.000    21898484.898    85934430.233 8
        51.000

  20338694.946    20338694.727   106880598.179 8        51.500    20338697.043
  20338697.222    83283621.569 8        49.250    20338697.083    79813469.204 9
        55.500

  21776516.306                   116081099.690 6        39.500    21776523.939
  21776523.081    90285346.472 6        38.500


  20542390.641    20542390.069   107951028.830 8        50.500
  20542388.911    84117694.83947        44.750


  22512785.760                   120386304.983 6        39.000    22512788.036
  22512786.721    93633585.111 5        32.250


  23716089.860    23716089.069   124628901.774 6        36.000
  23716088.934    97113434.80442        16.750


  23988734.227    23988734.183   126061681.284 6        40.750    23988734.643
  23988734.795    98229902.870 6        37.250


  24523956.444    24523956.234   128874263.738 6        37.750    24523958.438
  24523957.857   100421523.862 6        37.250    24523958.631    96237289.527 7
        43.000

  19606381.291                   104770567.709 8        49.750    19606386.545
  19606385.705    81488249.340 8        48.250


  21638477.583    21638476.850   113711320.577 8        48.250
  21638475.133    88606137.74146        39.500


  23948066.114    23948066.074   125847975.790 6        40.500    23948067.965
  23948068.721    98063418.662 6        38.000    23948067.147    93977443.775 7
        42.000

  22859565.472    22859564.806   120127886.728 7        44.000
  22859563.304    93606161.87444        27.500


  20278404.244                   108514186.236 8        49.500    20278405.482
  20278406.788    84399692.075 5        32.500


  23610589.012                   125990635.827 6        41.000    23610592.907
  23610593.296    97992723.498 6        39.500


  24627030.632    24627030.699   129416185.899 6        36.000    24627028.454
  24627030.668   100843902.231 5        30.250


  24286899.335                   130055272.052 5        34.000    24286900.372
  24286900.037   101154092.163 4        28.750


  21025143.157                   112233755.646 8        48.750    21025146.775
  21025146.717    87292991.143 7        45.000


  22954355.120                   122704173.298 7        42.500    22954361.206
  22954360.933    95436617.136 6        36.750


  20657371.434    20657371.367   108555264.434 8        50.500
  20657370.052    84588534.92947        42.500


 16  2 18  0  0 54.0000000  0 19G27G26R14G16R24G20G31G08R15G21G10G18
                                R17R02G29R08R18R01G04
  21898101.251    21898100.912   115075356.352 7        47.250    21898102.337
  21898102.297    89669142.152 7        45.000    21898103.598    85932934.063 8
        51.000

  20338813.761    20338813.542   106881222.639 8        51.500    20338815.841
  20338816.051    83284108.164 8        49.250    20338815.899    79813935.525 9
        55.500

  21777313.614                   116085353.350 6        39.500    21777322.128
  21777321.055    90288654.852 6        38.250


  20542163.988    20542163.416   107949837.411 8        50.500
  20542162.190    84116766.46147        44.750


  22513378.428                   120389475.056 6        38.750    22513381.697
  22513379.994    93636050.722 5        31.250


  23716329.860    23716329.069   124630164.289 6        36.000
  23716329.158    97114418.58642        16.750


  23989397.387    23989397.343   126065166.193 6        41.000    23989397.740
  23989397.946    98232618.378 6        37.500


  24523436.689    24523436.466   128871533.041 6        37.500    24523439.167
  24523438.241   100419396.079 6        37.250    24523438.854    96235250.376 7
        43.000

  19606677.120                   104772148.956 8        49.750    19606682.267
  19606681.628    81489479.198 8        48.250


  21638765.502    21638764.769   113712833.321 8        48.250
  21638762.989    88607316.50346        39.250


  23947448.579    23947448.539   125844731.311 6        40.500    23947450.644
  23947451.297    98060890.496 6        38.000    23947449.723    93975020.956 7
        42.000

  22859250.353    22859249.692   120126231.185 7        44.000
  22859248.278    93604871.84444        27.500


  20278787.909                   108516239.441 8        49.500    20278790.122
  20278790.163    84401289.024 5        32.750


  23609934.130                   125987142.955 6        40.750    23609938.418
  23609938.610    97990006.832 6        39.250


  24627570.665    24627570.723   129419024.323 6        36.000    24627568.608
  24627570.755   100846113.974 5        30.500


  24287224.900                   130057012.418 5        34.000    24287225.330
  24287225.061   101155445.737 5        30.000


  21024760.136                   112231712.107 8        48.750    21024763.879
  21024763.897    87291401.726 7        45.250


  22954149.519                   122703075.110 7        42.750    22954155.668
  22954155.735    95435762.983 6        36.500


  20657652.287    20657652.220   108556740.325 8        50.500
  20657650.910    84589684.97447        42.250


 16  2 18  0  0 55.0000000  0 19G27G26R14G16R24G20G31G08R15G21G10G18
                                R17R02G29R08R18R01G04
  21897720.108    21897719.769   115073352.978 7        47.250    21897721.145
  21897721.073    89667581.087 7        45.000    21897722.348    85931438.046 8
        51.000

  20338932.675    20338932.456   106881847.620 8        51.500    20338934.813
  20338934.983    83284595.162 8        49.500    20338934.813    79814402.231 9
        55.500

  21778111.719                   116089607.354 6        39.500    21778119.356
  21778118.985    90291963.532 6        38.250


  20541937.362    20541936.790   107948646.439 8        50.500
  20541935.555    84115838.43247        44.750


  22513971.339                   120392645.103 6        38.750    22513973.423
  22513972.519    93638516.307 5        32.000


  23716569.996    23716569.196   124631427.378 5        35.750
  23716569.477    97115402.80842        16.500


  23990060.591    23990060.551   126068651.162 6        40.750    23990061.280
  23990061.105    98235333.934 6        37.500


  24522916.568    24522916.340   128868802.425 6        37.500    24522919.828
  24522918.634   100417268.323 6        37.250    24522919.247    96233211.286 7
        42.750

  19606973.057                   104773731.057 8        49.750    19606978.338
  19606977.694    81490709.724 8        48.250


  21639053.417    21639052.684   113714346.433 8        48.250
  21639050.908    88608495.55146        39.250


  23946831.226    23946831.186   125841486.876 6        40.250    23946833.382
  23946833.887    98058362.385 6        37.750    23946832.282    93972598.170 7
        42.000

  22858935.439    22858934.773   120124575.996 7        44.000
  22858933.323    93603582.08644        27.500


  20279171.673                   108518292.914 8        49.500    20279174.521
  20279174.083    84402886.155 5        33.000


  23609279.327                   125983650.275 6        41.000    23609283.240
  23609284.027    97987290.295 6        39.750


  24628110.712    24628110.779   129421862.734 5        35.750    24628108.561
  24628110.855   100848325.740 5        30.000


  24287549.697                   130058753.428 5        33.750    24287550.940
  24287550.001   101156799.912 4        28.250


  21024377.307                   112229668.931 8        48.750    21024381.251
  21024381.126    87289812.591 7        45.250


  22953944.294                   122701977.672 7        42.500    22953949.718
  22953950.622    95434909.415 6        36.500


  20657933.235    20657933.168   108558216.705 8        50.500
  20657931.853    84590835.40047        42.250


 16  2 18  0  0 56.0000000  0 19G27G26R14G16R24G20G31G08R15G21G10G18
                                R17R02G29R08R18R01G04
  21897338.853    21897338.514   115071349.833 7        47.000    21897339.756
  21897339.908    89666020.190 7        45.000    21897341.142    85929942.189 8
        51.000

  20339051.674    20339051.455   106882473.134 8        51.500    20339053.829
  20339054.017    83285082.575 8        49.500    20339053.847    79814869.338 9
        55.500

  21778909.702                   116093861.680 6        39.500    21778917.237
  21778916.973    90295272.458 6        38.500


  20541710.794    20541710.222   107947455.913 8        50.500
  20541709.000    84114910.74947        44.750


  22514563.601                   120395815.195 6        38.750    22514566.449
  22514565.550    93640981.950 5        30.250


  23716810.502    23716809.698   124632691.075 5        35.500
  23716809.929    97116387.50442        16.500


  23990723.804    23990723.760   126072136.163 6        40.750    23990724.734
  23990724.301    98238049.519 6        37.250


  24522396.934    24522396.711   128866071.873 6        37.500    24522400.257
  24522398.960   100415140.615 6        37.250    24522399.689    96231172.242 7
        42.750

  19607269.203                   104775314.021 8        49.500    19607274.520
  19607273.961    81491940.914 8        48.250


  21639341.452    21639340.719   113715859.929 8        48.500
  21639338.903    88609674.89946        39.250


  23946213.910    23946213.870   125838242.529 6        40.250    23946216.195
  23946216.495    98055834.324 6        37.750    23946214.974    93970175.449 7
        42.000

  22858620.466    22858619.805   120122921.209 7        44.000
  22858618.450    93602292.64244        27.250


  20279555.472                   108520346.656 8        49.750    20279558.195
  20279557.542    84404483.510 5        32.750


  23608625.151                   125980157.766 6        41.000    23608629.404
  23608629.695    97984573.901 6        39.500


  24628650.772    24628650.830   129424701.156 5        35.500    24628648.805
  24628650.978   100850537.479 5        30.250


  24287874.868                   130060495.116 5        34.000    24287875.673
  24287874.980   101158154.513 4        28.750


  21023994.706                   112227626.108 8        48.750    21023998.655
  21023998.485    87288223.725 7        45.000


  22953739.275                   122700881.005 7        42.500    22953744.592
  22953745.473    95434056.455 6        36.750


  20658214.303    20658214.236   108559693.593 8        50.500
  20658212.895    84591986.22047        42.250


 16  2 18  0  0 57.0000000  0 19G27G26R14G16R24G20G31G08R15G21G10G18
                                R17R02G29R08R18R01G04
  21896957.606    21896957.267   115069346.893 7        47.250    21896958.724
  21896958.769    89664459.467 7        45.000    21896959.967    85928446.490 8
        51.000

  20339170.834    20339170.615   106883099.190 8        51.500    20339172.949
  20339173.155    83285570.414 8        49.500    20339172.967    79815336.845 9
        55.500

  21779708.405                   116098116.376 6        39.500    21779715.319
  21779715.090    90298581.636 6        38.500


  20541484.328    20541483.756   107946265.836 8        50.750
  20541482.535    84113983.41747        44.750


  22515155.706                   120398985.314 6        38.000    22515159.078
  22515158.286    93643447.565 5        31.250


  23717050.690    23717049.895   124633955.366 5        35.000
  23717050.538    97117372.66342        16.250


  23991386.821    23991386.781   126075621.227 6        40.750    23991387.997
  23991387.527    98240765.163 6        37.250


  24521877.126    24521876.903   128863341.396 6        37.500    24521881.110
  24521879.317   100413012.966 6        37.250    24521880.059    96229133.237 7
        42.750

  19607565.542                   104776897.838 8        49.750    19607570.814
  19607570.380    81493172.773 8        48.250


  21639629.518    21639628.785   113717373.803 8        48.500
  21639626.974    88610854.53846        39.250


  23945596.504    23945596.464   125834998.263 6        40.250    23945598.525
  23945599.156    98053306.322 6        38.000    23945597.644    93967752.777 7
        42.000

  22858305.669    22858305.008   120121266.816 7        44.000
  22858303.625    93601003.50644        27.250


  20279939.218                   108522400.682 8        49.500    20279942.558
  20279941.078    84406081.074 5        32.750


  23607971.092                   125976665.444 6        41.000    23607974.969
  23607975.179    97981857.645 6        39.750


  24629190.721    24629190.783   129427539.576 5        35.250    24629189.142
  24629191.074   100852749.221 5        30.250


  24288199.504                   130062237.564 5        33.000    24288201.690
  24288200.143   101159509.784 4        28.750


  21023611.998                   112225583.668 8        48.500    21023615.928
  21023615.848    87286635.160 7        45.000


  22953534.327                   122699785.095 7        42.250    22953540.270
  22953540.475    95433204.093 6        36.750


  20658495.506    20658495.439   108561170.969 8        50.750
  20658494.026    84593137.42347        42.250


 16  2 18  0  0 58.0000000  0 19G27G26R14G16R24G20G31G08R15G21G10G18
                                R17R02G29R08R18R01G04
  21896576.284    21896575.945   115067344.167 7        47.000    21896577.684
  21896577.671    89662898.890 7        45.000    21896578.865    85926950.942 8
        51.000

  20339290.119    20339289.896   106883725.779 8        51.750    20339292.216
  20339292.395    83286058.661 8        49.500    20339292.203    79815804.754 9
        55.500

  21780507.006                   116102371.395 6        39.750    21780512.716
  21780513.517    90301891.106 6        38.250


  20541258.006    20541257.434   107945076.197 8        50.500
  20541256.150    84113056.42747        44.750


  22515748.263                   120402155.456 6        37.750    22515752.042
  22515750.678    93645913.239 5        31.500


  23717291.112    23717290.325   124635220.243 5        35.000
  23717291.259    97118358.28642        16.250


  23992049.797    23992049.762   126079106.334 6        40.500    23992051.322
  23992050.736    98243480.821 6        37.000


  24521357.577    24521357.354   128860610.987 6        37.500    24521360.984
  24521359.777   100410885.382 6        37.250    24521360.475    96227094.298 7
        42.750

  19607861.935                   104778482.521 8        49.500    19607867.332
  19607866.925    81494405.302 8        48.250


  21639917.701    21639916.964   113718888.052 8        48.500
  21639915.125    88612034.47346        39.250


  23944979.143    23944979.108   125831754.076 6        40.250    23944981.415
  23944981.839    98050778.385 6        37.750    23944980.346    93965330.165 7
        42.000

  22857990.911    22857990.250   120119612.815 7        44.000
  22857988.885    93599714.67344        27.250


  20280323.044                   108524454.979 8        49.500    20280327.010
  20280325.029    84407678.871 5        32.750


  23607316.719                   125973173.266 6        41.000    23607320.515
  23607320.708    97979141.511 6        39.500


  24629730.991    24629731.053   129430377.972 5        35.000    24629729.681
  24629731.152   100854961.012 5        30.250


  24288524.694                   130063980.734 5        33.250    24288528.016
  24288525.834   101160865.599 4        29.250


  21023229.500                   112223541.618 8        48.500    21023233.122
  21023233.354    87285046.900 7        45.000


  22953329.388                   122698689.941 7        42.000    22953335.174
  22953335.680    95432352.297 6        37.000


  20658776.730    20658776.663   108562648.849 8        50.500
  20658775.250    84594289.01947        42.250


 16  2 18  0  0 59.0000000  0 19G27G26R14G16R24G20G31G08R15G21G10G18
                                R17R02G29R08R18R01G04
  21896195.244    21896194.905   115065341.644 7        47.250    21896196.527
  21896196.594    89661338.493 7        45.000    21896197.784    85925455.556 8
        51.000

  20339409.453    20339409.234   106884352.899 8        51.750    20339411.559
  20339411.729    83286547.327 8        49.250    20339411.532    79816273.056 9
        55.500

  21781305.383                   116106626.760 6        39.750    21781311.424
  21781311.800    90305200.843 6        38.500


  20541031.706    20541031.134   107943887.005 8        50.750
  20541029.855    84112129.78447        44.750


  22516341.004                   120405325.595 6        37.500    22516344.599
  22516343.418    93648378.947 5        32.000


  23717532.096    23717531.301   124636485.684 5        35.750
  23717532.043    97119344.34542        16.250


  23992713.176    23992713.136   126082591.486 6        40.750    23992714.074
  23992713.958    98246196.524 6        37.000


  24520838.149    24520837.930   128857880.626 6        37.750    24520841.543
  24520840.125   100408757.841 6        37.250    24520840.921    96225055.406 7
        42.750

  19608158.694                   104780068.056 8        49.750    19608164.288
  19608163.622    81495638.494 8        48.250


  21640205.848    21640205.111   113720402.673 8        48.500
  21640203.357    88613214.69746        39.250


  23944361.733    23944361.702   125828509.935 6        40.250    23944364.080
  23944364.483    98048250.487 6        37.500    23944363.016    93962907.602 7
        42.000

  22857676.104    22857675.443   120117959.191 7        44.000
  22857674.249    93598426.13044        27.500


  20280706.986                   108526509.545 8        49.500    20280710.613
  20280709.191    84409276.882 5        33.000


  23606662.310                   125969681.239 6        40.750    23606666.196
  23606666.232    97976425.486 6        39.250


  24630270.868    24630270.926   129433216.406 5        35.500    24630270.023
  24630271.181   100857172.766 5        30.500


  24288849.991                   130065724.638 5        32.750    24288852.625
  24288851.802   101162222.010 4        28.750


  21022846.827                   112221499.930 8        48.500    21022850.463
  21022850.981    87283458.920 7        45.000


  22953124.472                   122697595.545 6        41.750    22953130.057
  22953130.794    95431501.102 6        36.750


  20659058.125    20659058.058   108564127.220 8        50.500
  20659056.565    84595440.99547        42.250


 16  2 18  0  1  0.0000000  0 19G27G26R14G16R24G20G31G08R15G21G10G18
                                R17R02G29R08R18R01G04
  21895814.217    21895813.878   115063339.332 7        47.000    21895815.268
  21895815.567    89659778.250 7        45.000    21895816.761    85923960.324 8
        51.000

  20339528.895    20339528.676   106884980.549 8        51.750    20339530.920
  20339531.166    83287036.406 8        49.250    20339530.992    79816741.754 9
        55.500

  21782103.603                   116110882.489 6        39.750    21782110.346
  21782110.315    90308510.834 6        38.250


  20540805.491    20540804.919   107942698.258 8        50.750
  20540803.644    84111203.48947        44.750


  22516933.078                   120408495.774 6        36.750    22516937.804
  22516935.998    93650844.610 5        31.500


  23717773.595    23717772.800   124637751.757 5        35.500
  23717772.942    97120330.87642        16.250


  23993376.344    23993376.304   126086076.703 6        40.750    23993377.390
  23993377.176    98248912.273 6        37.000


  24520318.587    24520318.382   128855150.363 6        37.250    24520321.842
  24520320.536   100406630.363 6        37.250    24520321.310    96223016.565 7
        42.750

  19608455.561                   104781654.451 8        49.750    19608461.056
  19608460.457    81496872.359 8        48.250


  21640493.959    21640493.217   113721917.674 8        48.250
  21640491.656    88614395.21746        39.250


  23943744.139    23943744.108   125825265.905 6        40.000    23943746.616
  23943747.139    98045722.671 6        38.000    23943745.713    93960485.112 7
        42.250

  22857361.486    22857360.829   120116305.965 7        44.250
  22857359.666    93597137.90244        27.500


  20281091.009                   108528564.366 8        49.500    20281094.493
  20281092.986    84410875.033 5        33.250


  23606007.321                   125966189.404 6        40.750    23606012.029
  23606011.940    97973709.618 6        39.750


  24630810.141    24630810.194   129436054.818 5        35.250    24630810.240
  24630811.246   100859384.471 5        30.250


  24289176.643                   130067469.269 5        33.500    24289177.573
  24289177.407   101163578.860 4        29.250


  21022464.360                   112219458.601 8        48.250    21022468.255
  21022468.635    87281871.223 7        45.250


  22952919.756                   122696501.898 6        41.750    22952925.413
  22952926.218    95430650.487 6        36.500


  20659339.484    20659339.417   108565606.093 8        50.500
  20659337.986    84596593.36347        42.250


 16  2 18  0  1  1.0000000  0 19G27G26R14G16R24G20G31G08R15G21G10G18
                                R17R02G29R08R18R01G04
  21895433.329    21895432.994   115061337.239 7        47.000    21895434.134
  21895434.590    89658218.176 7        45.000    21895435.784    85922465.252 8
        51.250

  20339648.399    20339648.180   106885608.731 8        51.500    20339650.474
  20339650.706    83287525.898 8        49.250    20339650.509    79817210.852 9
        55.500

  21782902.356                   116115138.540 6        39.500    21782909.166
  21782908.857    90311821.104 6        38.250


  20540579.352    20540578.780   107941509.952 8        50.750
  20540577.519    84110277.53647        44.750


  22517525.273                   120411665.963 6        37.000    22517531.162
  22517529.078    93653310.296 5        32.000


  23718014.911    23718014.111   124639018.393 5        35.750
  23718013.963    97121317.85942        16.750


  23994039.562    23994039.522   126089561.960 6        40.750    23994040.465
  23994040.384    98251628.037 6        36.750


  24519798.899    24519798.689   128852420.157 6        37.000    24519802.070
  24519801.014   100404502.924 6        37.000    24519801.752    96220977.775 7
        42.750

  19608752.776                   104783241.710 8        49.750    19608758.012
  19608757.480    81498106.891 8        48.250


  21640782.276    21640781.534   113723433.045 8        48.250
  21640780.013    88615576.02446        39.250


  23943126.890    23943126.859   125822021.913 6        39.750    23943129.112
  23943129.832    98043194.885 6        37.750    23943128.383    93958062.652 7
        42.000

  22857047.050    22857046.398   120114653.130 7        44.250
  22857045.141    93595849.98244        27.500


  20281475.059                   108530619.451 8        49.500    20281478.587
  20281476.951    84412473.459 5        33.000


  23605352.733                   125962697.736 6        41.000    23605357.728
  23605357.688    97970993.867 6        39.750


  24631350.237    24631350.281   129438893.233 5        35.500    24631350.622
  24631351.297   100861596.252 5        30.250


  24289502.110                   130069214.533 5        33.000    24289503.666
  24289503.559   101164936.331 4        29.000


  21022082.059                   112217417.646 8        48.250    21022085.784
  21022086.258    87280283.809 7        45.250


  22952715.309                   122695408.996 6        41.750    22952720.948
  22952721.511    95429800.463 6        36.250


  20659620.906    20659620.839   108567085.448 8        50.500
  20659619.497    84597746.10747        42.250


 16  2 18  0  1  2.0000000  0 19G27G26R14G16R24G20G31G08R15G21G10G18
                                R17R02G29R08R18R01G04
  21895052.288    21895051.953   115059335.348 7        47.250    21895053.353
  21895053.648    89656658.264 7        44.750    21895054.855    85920970.333 8
        51.250

  20339768.010    20339767.791   106886237.442 8        51.500    20339770.094
  20339770.344    83288015.801 8        49.250    20339770.152    79817680.343 9
        55.500

  21783700.844                   116119394.946 6        39.750    21783707.355
  21783707.342    90315131.648 6        38.750


  20540353.218    20540352.646   107940322.093 8        50.750
  20540351.470    84109351.93347        44.750


  22518117.883                   120414836.118 6        37.000    22518124.555
  22518121.970    93655775.977 5        31.750


  23718256.079    23718255.275   124640285.624 5        35.750
  23718255.091    97122305.32042        16.750


  23994702.761    23994702.730   126093047.267 6        40.500    23994703.928
  23994703.607    98254343.848 6        37.000


  24519279.154    24519278.940   128849690.011 6        37.250    24519282.154
  24519281.497   100402375.560 6        37.250    24519282.297    96218939.036 7
        43.000

  19609050.206                   104784829.828 8        49.750    19609055.129
  19609054.691    81499342.097 8        48.250


  21641070.700    21641069.958   113724948.790 8        48.250
  21641068.450    88616757.12446        39.250


  23942509.667    23942509.641   125818778.024 6        39.750    23942511.787
  23942512.547    98040667.179 6        38.000    23942511.120    93955640.276 7
        42.250

  22856732.731    22856732.079   120113000.667 7        44.000
  22856730.696    93594562.35044        27.750


  20281859.216                   108532674.798 8        49.500    20281861.550
  20281861.202    84414072.060 5        33.250


  23604698.369                   125959206.273 6        41.000    23604703.203
  23604703.386    97968278.294 6        39.500


  24631890.543    24631890.596   129441731.610 5        35.250    24631890.517
  24631891.380   100863807.997 5        30.250


  24289828.024                   130070960.509 5        33.000    24289831.552
  24289829.625   101166294.302 4        29.250


  21021699.628                   112215377.071 8        48.250    21021703.746
  21021704.010    87278696.705 7        45.000


  22952510.844                   122694316.861 6        41.500    22952516.630
  22952516.984    95428951.015 6        36.750


  20659902.488    20659902.421   108568565.313 8        50.500
  20659901.102    84598899.24947        42.250


 16  2 18  0  1  3.0000000  0 19G27G26R14G16R24G20G31G08R15G21G10G18
                                R17R02G29R08R18R01G04
  21894671.485    21894671.155   115057333.663 7        47.250    21894672.522
  21894672.741    89655098.508 7        45.000    21894673.949    85919475.575 8
        51.250

  20339887.720    20339887.501   106886866.695 8        51.500    20339889.938
  20339890.090    83288506.130 8        49.250    20339889.880    79818150.241 9
        55.500

  21784499.159                   116123651.709 6        39.750    21784506.058
  21784505.862    90318442.464 6        38.250


  20540127.236    20540126.664   107939134.680 8        50.750
  20540125.514    84108426.67847        44.750


  22518710.543                   120418006.318 6        37.000    22518716.558
  22518714.545    93658241.726 5        31.500


  23718497.229    23718496.420   124641553.420 5        35.750
  23718496.326    97123293.21342        16.500


  23995365.858    23995365.832   126096532.619 6        40.750    23995366.829
  23995366.864    98257059.728 6        36.750


  24518758.983    24518758.778   128846959.953 6        37.000    24518762.936
  24518761.948   100400248.229 6        37.000    24518762.815    96216900.349 7
        43.000

  19609347.663                   104786418.821 8        49.750    19609352.550
  19609352.027    81500577.983 8        48.250


  21641359.209    21641358.467   113726464.923 8        48.000
  21641356.960    88617938.52446        39.500


  23941892.449    23941892.427   125815534.200 6        39.750    23941894.412
  23941895.262    98038139.522 6        37.750    23941893.862    93953217.941 7
        42.250

  22856418.344    22856417.696   120111348.598 7        44.250
  22856416.319    93593275.02344        27.750


  20282243.293                   108534730.414 8        49.500    20282245.081
  20282245.488    84415670.878 5        32.250


  23604044.175                   125955715.024 6        41.250    23604049.009
  23604049.032    97965562.873 6        39.750


  24632431.011    24632431.078   129444570.047 5        35.500    24632430.344
  24632431.489   100866019.708 5        30.000


  24290153.956                   130072707.215 5        33.250    24290155.901
  24290155.539   101167652.825 5        31.000


  21021317.497                   112213336.879 8        48.500    21021321.624
  21021321.789    87277109.883 7        45.250


  22952306.375                   122693225.473 6        41.750    22952313.096
  22952312.474    95428102.166 6        36.500


  20660184.133    20660184.066   108570045.678 8        50.500
  20660182.796    84600052.78047        42.250


 16  2 18  0  1  4.0000000  0 19G27G26R14G16R24G20G31G08R15G21G10G18
                                R17R02G29R08R18R01G04
  21894290.538    21894290.208   115055332.194 7        47.250    21894291.585
  21894291.876    89653538.916 7        45.000    21894293.087    85917980.968 8
        51.250

  20340007.560    20340007.337   106887496.485 8        51.500    20340009.733
  20340009.934    83288996.868 8        49.250    20340009.719    79818620.536 9
        55.500

  21785298.247                   116127908.806 6        39.750    21785304.104
  21785304.301    90321753.540 6        38.000


  20539901.320    20539900.748   107937947.708 8        50.750
  20539899.639    84107501.76347        44.750


  22519303.950                   120421176.559 6        37.000    22519308.793
  22519307.380    93660707.406 5        32.000


  23718738.285    23718737.476   124642821.839 5        35.250
  23718737.722    97124281.59642        16.750


  23996029.192    23996029.161   126100018.014 6        40.750    23996030.256
  23996030.113    98259775.625 6        36.750


  24518239.492    24518239.287   128844229.952 6        37.000    24518243.700
  24518242.448   100398120.971 6        37.000    24518243.311    96214861.716 7
        43.000

  19609645.227                   104788008.681 8        49.750    19609650.096
  19609649.506    81501814.533 8        48.250


  21641647.709    21641646.972   113727981.421 8        48.000
  21641645.536    88619120.21146        39.250


  23941274.797    23941274.771   125812290.446 6        39.750    23941277.319
  23941277.985    98035611.945 6        37.750    23941276.631    93950795.656 7
        42.250

  22856104.199    22856103.551   120109696.923 7        44.250
  22856102.017    93591988.00344        27.500


  20282627.566                   108536786.284 8        49.500    20282628.926
  20282629.775    84417269.871 5        33.500


  23603389.973                   125952223.934 6        41.500    23603394.780
  23603394.851    97962847.606 6        39.750


  24632971.272    24632971.339   129447408.455 5        35.500    24632970.141
  24632971.616   100868231.479 4        29.750


  24290481.163                   130074454.633 5        33.500    24290482.737
  24290481.959   101169011.876 4        29.750


  21020935.298                   112211297.032 8        48.500    21020939.434
  21020939.667    87275523.346 7        45.000


  22952102.276                   122692134.832 6        41.750    22952108.452
  22952108.255    95427253.889 6        36.250


  20660465.962    20660465.895   108571526.541 8        50.500
  20660464.594    84601206.69747        42.250


 16  2 18  0  1  5.0000000  0 19G27G26R14G16R24G20G31G08R15G21G10G18
                                R17R02G29R08R18R01G04
  21893909.798    21893909.468   115053330.933 7        47.250    21893910.920
  21893911.059    89651979.496 7        45.000    21893912.275    85916486.522 8
        51.250

  20340127.533    20340127.314   106888126.782 8        51.500    20340129.626
  20340129.881    83289488.019 8        49.250    20340129.657    79819091.216 9
        55.500

  21786097.071                   116132166.251 6        39.750    21786102.870
  21786102.924    90325064.885 6        38.250


  20539675.561    20539674.989   107936761.177 8        50.750
  20539673.849    84106577.19347        44.750


  22519896.985                   120424346.801 6        37.500    22519902.633
  22519900.706    93663173.168 5        32.000


  23718979.525    23718978.707   124644090.814 5        34.750
  23718979.194    97125270.40342        16.500


  23996692.817    23996692.791   126103503.468 6        40.750    23996693.268
  23996693.318    98262491.558 6        36.750


  24517719.917    24517719.707   128841500.042 6        37.250    24517724.191
  24517722.962   100395993.762 6        36.750    24517723.847    96212823.154 7
        43.000

  19609942.710                   104789599.393 8        49.750    19609947.750
  19609947.222    81503051.761 8        48.250


  21641936.339    21641935.597   113729498.282 8        48.000
  21641934.179    88620302.18246        39.500


  23940657.570    23940657.548   125809046.775 6        40.000    23940660.191
  23940660.723    98033084.403 6        37.750    23940659.395    93948373.448 7
        42.250

  22855789.934    22855789.286   120108045.641 7        44.250
  22855787.769    93590701.29044        27.500


  20283011.831                   108538842.422 8        49.500    20283012.993
  20283014.227    84418869.112 5        33.500


  23602736.226                   125948732.996 6        41.500    23602740.183
  23602740.836    97960132.408 6        39.500


  24633511.605    24633511.681   129450246.856 5        35.500    24633509.794
  24633511.744   100870443.201 4        29.500


  24290808.839                   130076202.789 5        34.250    24290809.009
  24290808.807   101170371.532 5        30.500


  21020553.319                   112209257.542 8        48.500    21020557.111
  21020557.562    87273937.075 7        45.250


  22951898.187                   122691044.954 6        41.250    22951904.090
  22951904.318    95426406.211 6        36.250


  20660747.889    20660747.822   108573007.901 8        50.500
  20660746.485    84602361.00447        42.250


 16  2 18  0  1  6.0000000  0 19G27G26R14G16R24G20G31G08R15G21G10G18
                                R17R02G29R08R18R01G04
  21893528.985    21893528.659   115051329.887 7        47.250    21893530.068
  21893530.273    89650420.241 7        45.000    21893531.472    85914992.233 8
        51.250

  20340247.574    20340247.351   106888757.634 8        51.750    20340249.653
  20340249.930    83289979.586 8        49.000    20340249.698    79819562.305 9
        55.500

  21786895.519                   116136424.057 6        39.750    21786901.444
  21786901.462    90328376.511 6        38.000


  20539449.856    20539449.284   107935575.095 8        50.750
  20539448.144    84105652.97447        45.000


  22520489.967                   120427517.056 6        37.250    22520495.365
  22520493.661    93665638.917 5        31.750


  23719221.238    23719220.411   124645360.396 5        34.750
  23719220.773    97126259.69142        16.250


  23997356.186    23997356.164   126106988.966 6        41.000    23997356.231
  23997356.558    98265207.535 6        36.500


  24517200.623    24517200.427   128838770.207 6        37.250    24517204.410
  24517203.449   100393866.605 6        37.000    24517204.365    96210784.641 7
        43.000

  19610240.444                   104791190.976 8        49.750    19610245.663
  19610245.077    81504289.658 8        48.250


  21642224.960    21642224.218   113731015.525 8        48.000
  21642222.903    88621484.45246        39.500


  23940040.580    23940040.558   125805803.174 6        40.000    23940043.268
  23940043.473    98030556.916 6        37.750    23940042.194    93945951.267 7
        42.250

  22855475.820    22855475.172   120106394.731 7        44.250
  22855473.598    93589414.86144        27.500


  20283396.149                   108540898.824 8        49.500    20283397.097
  20283398.107    84420468.510 5        32.000


  23602082.103                   125945242.205 6        41.750    23602086.329
  23602086.512    97957417.378 6        39.750


  24634052.050    24634052.143   129453085.256 5        35.750    24634049.349
  24634051.858   100872654.943 4        29.750


  24291136.152                   130077951.649 5        34.250    24291135.580
  24291134.994   101171731.764 5        30.000


  21020171.415                   112207218.414 8        48.500    21020174.738
  21020175.627    87272351.092 7        45.250


  22951693.789                   122689955.846 6        41.250    22951699.687
  22951700.564    95425559.126 6        36.500


  20661029.901    20661029.834   108574489.757 8        50.500
  20661028.461    84603515.69547        42.250


 16  2 18  0  1  7.0000000  0 19G27G26R14G16R24G20G31G08R15G21G10G18
                                R17R02G29R08R18R01G04
  21893148.343    21893148.017   115049329.054 7        47.500    21893149.166
  21893149.528    89648861.145 7        45.000    21893150.700    85913498.103 8
        51.250

  20340367.700    20340367.481   106889389.022 8        51.500    20340369.770
  20340370.078    83290471.577 8        49.250    20340369.837    79820033.796 9
        55.500

  21787694.026                   116140682.198 6        39.750    21787700.438
  21787700.223    90331688.393 6        38.250


  20539224.263    20539223.691   107934389.462 8        50.750
  20539222.528    84104729.10447        45.000


  22521083.222                   120430687.308 6        37.250    22521088.011
  22521086.433    93668104.694 5        31.250


  23719462.889    23719462.049   124646630.559 5        34.500
  23719462.469    97127249.43442        16.000


  23998019.690    23998019.668   126110474.522 6        41.000    23998019.328
  23998019.829    98267923.546 6        36.750


  24516681.387    24516681.195   128836040.442 6        37.000    24516684.870
  24516683.958   100391739.530 6        37.000    24516684.924    96208746.193 7
        43.000

  19610538.447                   104792783.423 8        49.750    19610543.728
  19610543.039    81505528.222 8        48.000


  21642513.630    21642512.888   113732533.139 8        48.000
  21642511.698    88622667.00846        39.500


  23939423.443    23939423.421   125802559.657 6        40.000    23939426.148
  23939426.233    98028029.513 6        37.500    23939425.052    93943529.159 7
        42.250

  22855161.742    22855161.094   120104744.222 7        44.250
  22855159.489    93588128.75244        27.500


  20283780.413                   108542955.488 8        49.250    20283782.470
  20283782.443    84422068.165 5        32.000


  23601428.473                   125941751.597 6        41.750    23601431.612
  23601432.421    97954702.432 6        39.500


  24634592.155    24634592.248   129455923.694 5        35.500    24634590.693
  24634591.985   100874866.695 4        29.750


  24291463.824                   130079701.192 5        34.750    24291463.323
  24291461.588   101173092.539 5        30.250


  21019789.659                   112205179.677 8        48.750    21019792.995
  21019793.670    87270765.411 7        45.250


  22951490.022                   122688867.479 6        41.500    22951496.318
  22951496.899    95424712.612 6        36.250


  20661312.002    20661311.935   108575972.110 8        50.500
  20661310.540    84604670.77447        42.250


 16  2 18  0  1  8.0000000  0 19G27G26R14G16R24G20G31G08R15G21G10G18
                                R17R02G29R08R18R01G04
  21892767.696    21892767.370   115047328.423 7        47.250    21892768.666
  21892768.827    89647302.205 7        45.000    21892769.990    85912004.127 8
        51.250

  20340487.982    20340487.759   106890020.929 8        51.750    20340489.851
  20340490.329    83290963.969 8        49.000    20340490.088    79820505.671 9
        55.500

  21788492.975                   116144940.686 6        40.000    21788498.784
  21788499.182    90335000.539 6        38.000


  20538998.759    20538998.183   107933204.272 8        50.750
  20538996.993    84103805.57947        45.000


  22521676.544                   120433857.615 6        37.750    22521680.769
  22521679.508    93670570.454 5        31.000


  23719704.344    23719703.504   124647901.324 5        34.250
  23719704.263    97128239.64742        16.000


  23998682.908    23998682.886   126113960.125 6        40.750    23998683.140
  23998683.082    98270639.581 6        36.750


  24516162.316    24516162.120   128833310.742 6        37.250    24516165.509
  24516164.503   100389612.498 6        37.000    24516165.464    96206707.779 7
        43.000

  19610836.565                   104794376.722 8        49.750    19610841.882
  19610841.198    81506767.454 8        48.250


  21642802.376    21642801.639   113734051.137 8        48.000
  21642800.569    88623849.86346        39.500


  23938806.207    23938806.190   125799316.214 6        40.250    23938808.863
  23938808.997    98025502.146 6        38.000    23938807.933    93941107.115 7
        42.250

  22854847.691    22854847.043   120103094.107 7        44.250
  22854845.473    93586842.95044        27.500


  20284164.677                   108545012.406 8        49.250    20284168.384
  20284166.784    84423667.987 5        32.250


  23600774.628                   125938261.207 6        41.750    23600777.302
  23600778.241    97951987.708 6        39.750


  24635132.546    24635132.644   129458762.068 6        36.000    24635130.708
  24635132.085   100877078.426 5        30.000


  24291791.598                   130081451.399 5        35.000    24291790.302
  24291788.616   101174453.844 5        30.500


  21019407.863                   112203141.326 8        48.500    21019411.517
  21019411.865    87269180.016 7        45.250


  22951286.715                   122687779.882 6        41.500    22951292.783
  22951293.606    95423866.709 6        36.250


  20661594.179    20661594.112   108577454.969 8        50.750
  20661592.721    84605826.24847        42.250


 16  2 18  0  1  9.0000000  0 19G27G26R14G16R24G20G31G08R15G21G10G18
                                R17R02G29R08R18R01G04
  21892387.009    21892386.683   115045328.001 7        47.500    21892388.221
  21892388.163    89645743.444 7        45.000    21892389.312    85910510.302 8
        51.250

  20340608.344    20340608.125   106890653.374 8        51.750    20340610.249
  20340610.674    83291456.789 8        49.250    20340610.442    79820977.955 9
        55.500

  21789291.553                   116149199.510 6        40.000    21789298.234
  21789298.095    90338312.959 6        38.000


  20538773.313    20538772.741   107932019.524 8        50.750
  20538771.538    84102882.39847        45.000


  22522269.400                   120437027.901 6        37.500    22522273.183
  22522272.352    93673036.292 5        31.250


  23719945.865    23719945.016   124649172.664 5        34.250
  23719946.173    97129230.29742        16.250


  23999346.135    23999346.113   126117445.760 6        41.000    23999346.801
  23999346.349    98273355.689 6        36.750


  24515643.268    24515643.081   128830581.117 6        37.500    24515646.032
  24515645.039   100387485.523 6        36.750    24515646.076    96204669.422 7
        43.000

  19611134.881                   104795970.878 8        49.750    19611140.390
  19611139.527    81508007.352 8        48.250


  21643091.359    21643090.617   113735569.505 8        48.000
  21643089.499    88625033.00746        39.500


  23938188.845    23938188.823   125796072.838 6        40.250    23938191.350
  23938191.815    98022974.856 6        37.750    23938190.755    93938685.128 7
        42.250

  22854533.842    22854533.194   120101444.372 7        44.250
  22854531.570    93585557.44544        27.750


  20284549.112                   108547069.577 8        49.250    20284552.063
  20284551.088    84425268.026 5        32.250


  23600120.684                   125934771.037 7        42.000    23600124.114
  23600124.110    97949273.123 6        40.000


  24635672.664    24635672.757   129461600.484 6        36.250    24635671.819
  24635672.186   100879290.164 5        30.000


  24292120.468                   130083202.315 5        35.250    24292117.410
  24292116.243   101175815.633 5        30.500


  21019026.206                   112201103.361 8        48.750    21019029.457
  21019030.087    87267594.935 7        45.000


  22951084.106                   122686693.023 6        41.750    22951089.771
  22951090.420    95423021.390 6        36.500


  20661876.446    20661876.379   108578938.317 8        50.500
  20661874.988    84606982.10447        42.250


 16  2 18  0  1 10.0000000  0 19G27G26R14G16R24G20G31G08R15G21G10G18
                                R17R02G29R08R18R01G04
  21892006.438    21892006.112   115043327.795 7        47.500    21892007.659
  21892007.543    89644184.839 7        45.250    21892008.692    85909016.644 8
        51.250

  20340728.788    20340728.569   106891286.357 8        51.500    20340730.818
  20340731.131    83291950.022 8        49.250    20340730.862    79821450.637 9
        55.500

  21790090.762                   116153458.686 6        40.000    21790096.633
  21790097.174    90341625.652 6        38.250


  20538547.970    20538547.398   107930835.226 8        50.750
  20538546.177    84101959.56947        45.000


  22522862.467                   120440198.241 6        37.250    22522865.754
  22522864.913    93675502.038 5        31.250


  23720187.476    23720186.627   124650444.615 5        34.250
  23720188.245    97130221.41742        16.000


  24000009.339    24000009.317   126120931.461 6        41.250    24000010.130
  24000009.665    98276071.810 6        36.750


  24515123.827    24515123.631   128827851.572 6        37.750    24515126.894
  24515125.665   100385358.588 6        37.000    24515126.711    96202631.114 7
        43.250

  19611433.406                   104797565.884 8        49.750    19611438.750
  19611438.057    81509247.911 8        48.250


  21643380.382    21643379.645   113737088.253 8        48.000
  21643378.509    88626216.44946        39.500


  23937571.923    23937571.892   125792829.557 6        40.250    23937574.069
  23937574.659    98020447.608 6        37.750    23937573.626    93936263.181 7
        42.500

  22854220.099    22854219.447   120099795.036 7        44.250
  22854217.734    93584272.24844        27.750


  20284933.492                   108549127.016 8        49.250    20284935.675
  20284935.402    84426868.225 5        32.500


  23599466.741                   125931281.039 7        42.250    23599470.788
  23599470.287    97946558.676 6        39.750


  24636213.261    24636213.359   129464438.866 6        36.250    24636211.665
  24636212.277   100881501.918 5        30.000


  24292448.632                   130084953.952 5        35.000    24292443.771
  24292442.984   101177177.984 4        29.500


  21018644.490                   112199065.750 8        48.750    21018647.804
  21018648.407    87266010.129 7        45.000


  22950880.875                   122685606.935 7        42.250    22950886.496
  22950887.292    95422176.649 6        36.250


  20662158.842    20662158.775   108580422.174 8        50.500
  20662157.349    84608138.35647        42.250


 16  2 18  0  1 11.0000000  0 19G27G26R14G16R24G20G31G08R15G21G10G18
                                R17R02G29R08R18R01G04
  21891625.952    21891625.626   115041327.805 7        47.250    21891627.079
  21891626.949    89642626.406 7        45.250    21891628.094    85907523.141 8
        51.250

  20340849.387    20340849.164   106891919.870 8        51.500    20340851.386
  20340851.686    83292443.664 8        49.250    20340851.417    79821923.710 9
        55.500

  21790889.693                   116157718.220 6        40.250    21790896.119
  21790896.217    90344938.603 6        38.000


  20538322.761    20538322.189   107929651.375 8        50.750
  20538320.901    84101037.08747        45.000


  22523455.386                   120443368.576 6        37.750    22523458.297
  22523457.725    93677967.882 5        31.750


  23720429.766    23720428.926   124651717.134 5        34.500
  23720430.388    97131212.98242        16.250


  24000672.628    24000672.602   126124417.201 6        41.500    24000673.563
  24000672.945    98278787.969 6        36.750


  24514604.457    24514604.261   128825122.097 6        37.500    24514607.471
  24514606.321   100383231.723 6        37.000    24514607.350    96200592.873 7
        43.000

  19611731.972                   104799161.749 8        49.750    19611737.164
  19611736.721    81510489.139 8        48.250


  21643669.477    21643668.740   113738607.379 8        48.000
  21643667.594    88627400.18346        39.500


  23936954.803    23936954.772   125789586.328 6        40.250    23936957.003
  23936957.472    98017920.433 6        37.750    23936956.533    93933841.292 7
        42.250

  22853906.437    22853905.785   120098146.091 7        44.250
  22853903.951    93582987.35944        27.750


  20285317.837                   108551184.721 8        49.250    20285321.652
  20285320.078    84428468.690 5        32.750


  23598812.914                   125927791.208 7        42.000    23598816.361
  23598816.294    97943844.348 6        39.750


  24636753.706    24636753.808   129467277.241 6        36.250    24636751.908
  24636752.387   100883713.635 5        30.250


  24292776.956                   130086706.257 5        34.500    24292771.720
  24292770.302   101178540.904 5        30.750


  21018262.842                   112197028.510 8        49.000    21018266.316
  21018266.741    87264425.609 7        45.250


  22950677.917                   122684521.585 7        42.500    22950683.538
  22950684.271    95421332.461 6        36.500


  20662441.265    20662441.198   108581906.528 8        50.500
  20662439.808    84609294.99647        42.250


 16  2 18  0  1 12.0000000  0 19G27G26R14G16R24G20G31G08R15G21G10G18
                                R17R02G29R08R18R01G04
  21891245.395    21891245.069   115039328.015 7        47.250    21891246.566
  21891246.410    89641068.137 7        45.250    21891247.550    85906029.795 8
        51.250

  20340970.054    20340969.831   106892553.916 8        51.750    20340971.959
  20340972.339    83292937.729 8        49.250    20340972.057    79822397.188 9
        55.500

  21791688.853                   116161978.080 6        40.250    21791695.614
  21791695.444    90348251.851 6        38.250


  20538097.571    20538096.999   107928467.963 8        50.750
  20538095.706    84100114.94747        45.000


  22524048.288                   120446538.936 6        37.250    22524051.498
  22524050.519    93680433.716 5        32.000


  23720672.356    23720671.520   124652990.232 5        35.000
  23720672.647    97132204.99942        16.250


  24001335.935    24001335.918   126127902.991 6        41.000    24001336.342
  24001336.248    98281504.178 6        36.750


  24514085.185    24514084.984   128822392.667 6        37.500    24514088.056
  24514086.933   100381104.914 6        37.000    24514087.953    96198554.677 7
        43.000

  19612030.878                   104800758.460 8        50.000    19612036.114
  19612035.474    81511731.030 8        48.250


  21643958.648    21643957.911   113740126.870 8        48.000
  21643956.739    88628584.20346        39.500


  23936337.786    23936337.755   125786343.186 6        40.500    23936339.601
  23936340.277    98015393.316 6        37.750    23936339.373    93931419.471 7
        42.500

  22853592.744    22853592.092   120096497.530 7        44.250
  22853590.244    93581702.76344        27.750


  20285702.316                   108553242.689 8        49.250    20285705.845
  20285704.494    84430069.284 5        32.750


  23598158.782                   125924301.508 7        42.000    23598162.400
  23598162.409    97941130.144 6        39.750


  24637293.967    24637294.060   129470115.670 6        36.000    24637292.156
  24637292.492   100885925.362 5        30.250


  24293105.558                   130088459.334 5        34.750    24293100.281
  24293098.086   101179904.400 4        29.750


  21017881.220                   112194991.623 8        48.750    21017884.681
  21017885.142    87262841.372 7        45.250


  22950475.160                   122683436.993 7        42.750    22950480.893
  22950481.573    95420488.901 6        36.500


  20662723.818    20662723.751   108583391.374 8        50.500
  20662722.360    84610452.01947        42.250


 16  2 18  0  1 13.0000000  0 19G27G26R14G16R24G20G31G08R15G21G10G18
                                R17R02G29R08R18R01G04
  21890864.882    21890864.552   115037328.455 7        47.500    21890866.067
  21890865.906    89639510.031 7        45.250    21890867.037    85904536.614 8
        51.250

  20341090.806    20341090.587   106893188.496 8        51.750    20341092.675
  20341093.100    83293432.201 8        49.250    20341092.795    79822871.058 9
        55.500

  21792488.043                   116166238.282 6        40.250    21792494.885
  21792494.594    90351565.326 6        38.000


  20537872.491    20537871.919   107927285.005 8        50.750
  20537870.600    84099193.16347        45.000


  22524640.675                   120449709.316 6        37.000    22524644.847
  22524643.170    93682899.562 5        30.750


  23720915.344    23720914.513   124654263.958 5        35.250
  23720915.053    97133197.52542        16.250


  24001999.144    24001999.122   126131388.831 6        41.000    24001999.645
  24001999.577    98284220.401 6        36.750


  24513565.811    24513565.610   128819663.326 6        37.750    24513568.771
  24513567.572   100378978.151 6        37.000    24513568.552    96196516.525 7
        43.000

  19612329.832                   104802356.035 8        50.000    19612335.015
  19612334.420    81512973.584 8        48.250


  21644248.011    21644247.278   113741646.745 8        48.000
  21644245.963    88629768.52246        39.500


  23935720.800    23935720.774   125783100.137 6        40.500    23935722.580
  23935723.126    98012866.243 6        37.500    23935722.209    93928997.714 7
        42.500

  22853279.086    22853278.425   120094849.355 7        44.500
  22853276.627    93580418.47244        27.500


  20286086.813                   108555300.925 8        49.250    20286089.563
  20286089.201    84431670.199 5        32.750


  23597504.526                   125920812.006 7        42.250    23597508.340
  23597508.358    97938416.094 6        39.750


  24637833.978    24637834.062   129472954.022 6        36.750    24637832.252
  24637832.601   100888137.129 5        30.250


  24293432.885                   130090213.128 5        34.750    24293427.327
  24293425.310   101181268.441 5        30.750


  21017499.871                   112192955.130 8        49.000    21017503.399
  21017503.520    87261257.421 7        45.000


  22950272.721                   122682353.164 7        42.500    22950278.494
  22950278.749    95419645.926 6        36.500


  20663006.447    20663006.380   108584876.719 8        50.500
  20663005.007    84611609.43047        42.250


 16  2 18  0  1 14.0000000  0 19G27G26R14G16R24G20G31G08R15G21G10G18
                                R17R02G29R08R18R01G04
  21890484.414    21890484.084   115035329.085 7        47.250    21890485.666
  21890485.434    89637952.086 7        45.250    21890486.556    85903043.582 8
        51.000

  20341211.772    20341211.553   106893823.601 8        51.750    20341213.574
  20341213.954    83293927.094 8        49.250    20341213.668    79823345.329 9
        55.500

  21793287.431                   116170498.825 6        40.250    21793293.955
  21793293.946    90354879.100 6        38.250


  20537647.475    20537646.903   107926102.483 8        50.750
  20537645.574    84098271.71647        45.000


  22525233.040                   120452879.719 6        37.000    22525237.154
  22525236.094    93685365.454 5        31.500


  23721158.636    23721157.814   124655538.242 5        35.750
  23721157.590    97134190.46942        16.250


  24002662.612    24002662.595   126134874.722 6        41.000    24002662.920
  24002662.916    98286936.680 6        36.500


  24513046.745    24513046.544   128816934.051 6        37.500    24513049.347
  24513048.287   100376851.439 6        37.000    24513049.132    96194478.440 7
        42.750

  19612629.042                   104803954.463 8        50.000    19612634.055
  19612633.523    81514216.808 8        48.250


  21644537.271    21644536.538   113743166.991 8        48.000
  21644535.264    88630953.12946        39.500


  23935103.851    23935103.825   125779857.140 6        40.750    23935105.434
  23935106.002    98010339.238 6        37.500    23935105.147    93926575.998 7
        42.500

  22852965.509    22852964.852   120093201.573 7        44.500
  22852963.059    93579134.48744        27.500


  20286471.731                   108557359.421 8        49.250    20286474.472
  20286474.320    84433271.217 5        32.000


  23596850.904                   125917322.689 7        42.250    23596854.629
  23596854.410    97935702.193 6        39.500


  24638374.043    24638374.132   129475792.407 6        36.750    24638371.664
  24638372.684   100890348.840 5        30.500


  24293761.075                   130091967.599 5        34.750    24293752.669
  24293752.789   101182633.029 5        31.000


  21017118.124                   112190918.984 8        48.750    21017122.126
  21017122.023    87259673.761 7        45.000


  22950070.595                   122681270.075 7        42.750    22950075.786
  22950076.439    95418803.525 6        36.750


  20663289.148    20663289.081   108586362.560 8        50.500
  20663287.752    84612767.22747        42.250


 16  2 18  0  1 15.0000000  0 19G27G26R14G16R24G20G31G08R15G21G10G18
                                R17R02G29R08R18R01G04
  21890103.946    21890103.620   115033329.927 7        47.250    21890105.279
  21890105.010    89636394.311 7        45.250    21890106.146    85901550.708 8
        51.250

  20341332.720    20341332.497   106894459.241 8        51.750    20341334.607
  20341334.911    83294422.390 8        49.250    20341334.621    79823819.994 9
        55.250

  21794086.997                   116174759.708 6        40.250    21794092.529
  21794093.114    90358193.116 6        38.000


  20537422.534    20537421.962   107924920.410 8        50.750
  20537420.629    84097350.62147        45.000


  22525826.420                   120456050.126 6        36.750    22525829.483
  22525828.745    93687831.317 5        31.750


  23721401.391    23721400.569   124656813.118 5        35.750
  23721400.215    97135183.88042        16.250


  24003325.995    24003325.982   126138360.638 6        41.000    24003326.728
  24003326.245    98289652.987 6        36.750


  24512527.361    24512527.160   128814204.871 6        37.500    24512529.950
  24512528.940   100374724.816 6        36.750    24512529.753    96192440.402 7
        43.000

  19612928.386                   104805553.751 8        49.750    19612933.349
  19612932.808    81515460.700 8        48.250


  21644826.675    21644825.942   113744687.618 8        48.250
  21644824.636    88632138.03446        39.250


  23934486.704    23934486.678   125776614.225 6        40.750    23934488.359
  23934488.904    98007812.302 6        37.500    23934488.014    93924154.340 7
        42.500

  22852652.031    22852651.374   120091554.196 7        44.500
  22852649.589    93577850.81944        27.500


  20286856.532                   108559418.170 8        49.000    20286859.961
  20286859.179    84434872.463 5        32.750


  23596196.952                   125913833.557 7        42.250    23596200.632
  23596200.422    97932988.419 6        39.750


  24638914.430    24638914.510   129478630.798 6        37.000    24638912.234
  24638912.753   100892560.557 5        30.500


  24294088.099                   130093722.784 5        34.750    24294081.315
  24294080.720   101183998.168 4        29.750


  21016736.695                   112188883.198 8        49.000    21016740.733
  21016740.625    87258090.370 7        45.250


  22949868.272                   122680187.753 7        43.000    22949872.864
  22949873.991    95417961.726 6        36.500


  20663571.973    20663571.906   108587848.901 8        50.500
  20663570.592    84613925.41647        42.250


 16  2 18  0  1 16.0000000  0 19G27G26R14G16R24G20G31G08R15G21G10G18
                                R17R02G29R08R18R01G04
  21889723.612    21889723.282   115031330.987 7        47.500    21889724.699
  21889724.623    89634836.694 7        45.250    21889725.759    85900057.990 8
        51.000

  20341453.776    20341453.553   106895095.422 8        51.750    20341455.654
  20341455.967    83294918.118 8        49.250    20341455.668    79824295.064 9
        55.250

  21794886.184                   116179020.936 6        40.250    21794891.800
  21794892.435    90361507.412 6        38.500


  20537197.652    20537197.080   107923738.785 8        51.000
  20537195.769    84096429.87547        45.000


  22526419.670                   120459220.589 6        37.250    22526423.055
  22526421.906    93690297.207 4        29.750


  23721644.285    23721643.454   124658088.606 5        35.750
  23721642.895    97136177.76242        15.750


  24003989.029    24003989.016   126141846.613 6        40.750    24003990.192
  24003989.579    98292369.336 6        36.500


  24512007.598    24512007.397   128811475.751 6        37.500    24512010.531
  24512009.623   100372598.216 6        36.500    24512010.388    96190402.430 7
        43.000

  19613227.842                   104807153.906 8        50.000    19613232.720
  19613232.260    81516705.263 8        48.250


  21645116.141    21645115.408   113746208.621 8        48.250
  21645114.079    88633323.23146        39.500


  23933869.728    23933869.697   125773371.397 6        40.750    23933871.105
  23933871.820    98005285.422 6        37.500    23933870.998    93921732.748 7
        42.500

  22852338.552    22852337.891   120089907.188 7        44.500
  22852336.218    93576567.44044        27.750


  20287241.324                   108561477.183 8        49.250    20287244.583
  20287243.998    84436473.914 5        32.750


  23595543.089                   125910344.586 7        42.250    23595546.885
  23595546.773    97930274.795 6        39.500


  24639454.767    24639454.843   129481469.169 6        37.500    24639452.974
  24639452.858   100894772.277 5        30.500


  24294415.940                   130095478.660 5        34.500    24294407.784
  24294408.821   101185363.850 5        30.250


  21016355.324                   112186847.785 8        48.750    21016359.254
  21016359.366    87256507.269 7        45.000


  22949666.262                   122679106.193 7        43.000    22949670.080
  22949671.628    95417120.494 6        36.500


  20663854.862    20663854.795   108589335.742 8        50.500
  20663853.529    84615083.99347        42.250


 16  2 18  0  1 17.0000000  0 19G27G26R14G16R24G20G31G08R15G21G10G18
                                R17R02G29R08R18R01G04
  21889343.234    21889342.908   115029332.246 7        47.250    21889344.392
  21889344.280    89633279.229 7        45.250    21889345.380    85898565.428 8
        51.000

  20341574.948    20341574.729   106895732.130 8        51.750    20341576.862
  20341577.130    83295414.257 8        49.250    20341576.804    79824770.528 9
        55.500

  21795685.839                   116183282.511 6        40.000    21795691.496
  21795691.854    90364821.961 6        38.000


  20536972.868    20536972.296   107922557.604 8        51.000
  20536970.994    84095509.47547        45.000


  22527013.313                   120462391.048 6        37.250    22527015.200
  22527014.776    93692763.141 5        30.750


  23721887.211    23721886.362   124659364.664 5        35.250
  23721885.744    97137172.08442        16.000


  24004652.399    24004652.386   126145332.643 6        40.750    24004653.316
  24004652.940    98295085.708 6        36.500


  24511488.339    24511488.138   128808746.715 6        37.750    24511490.776
  24511490.289   100370471.674 6        36.500    24511491.067    96188364.496 7
        43.000

  19613527.472                   104808754.919 8        49.750    19613532.198
  19613531.885    81517950.499 8        48.000


  21645405.741    21645405.008   113747730.008 8        48.250
  21645403.590    88634508.72846        39.500


  23933252.657    23933252.631   125770128.635 6        40.750    23933254.204
  23933254.718    98002758.586 6        37.500    23933253.936    93919311.208 7
        42.250

  22852025.105    22852024.439   120088260.585 7        44.500
  22852022.865    93575284.37244        27.750


  20287626.178                   108563536.438 8        49.250    20287629.617
  20287628.732    84438075.550 5        32.250


  23594888.957                   125906855.811 7        42.000    23594892.906
  23594892.848    97927561.281 6        39.750


  24639994.957    24639995.028   129484307.537 6        37.750    24639992.663
  24639992.936   100896984.012 5        30.500


  24294742.149                   130097235.254 5        34.000    24294735.804
  24294737.141   101186730.060 5        30.000


  21015974.230                   112184812.745 8        49.000    21015978.021
  21015978.057    87254924.466 7        45.000


  22949464.140                   122678025.380 7        43.000    22949468.348
  22949469.314    95416279.884 6        36.750


  20664137.866    20664137.799   108590823.072 8        50.500
  20664136.560    84616242.95147        42.250


 16  2 18  0  1 18.0000000  0 19G27G26R14G16R24G20G31G08R15G21G10G18
                                R17R02G29R08R18R01G04
  21888962.940    21888962.610   115027333.729 7        47.500    21888964.197
  21888963.969    89631721.947 7        45.500    21888965.073    85897073.034 8
        51.250

  20341696.219    20341696.000   106896369.375 8        51.750    20341698.106
  20341698.387    83295910.811 8        49.250    20341698.070    79825246.393 9
        55.250

  21796485.397                   116187544.403 6        40.000    21796490.731
  21796491.246    90368136.766 6        37.750


  20536748.223    20536747.651   107921376.869 8        51.000
  20536746.304    84094589.42147        45.000


  22527606.818                   120465561.505 6        37.750    22527607.744
  22527607.543    93695229.027 5        31.250


  23722129.796    23722128.942   124660641.322 5        35.000
  23722128.737    97138166.87342        15.500


  24005315.478    24005315.465   126148818.724 6        40.500    24005316.542
  24005316.332    98297802.128 6        36.500


  24510969.019    24510968.823   128806017.713 6        37.750    24510971.527
  24510970.941   100368345.185 6        36.750    24510971.804    96186326.615 7
        43.000

  19613827.231                   104810356.801 8        49.750    19613831.779
  19613831.618    81519196.404 8        48.000


  21645695.381    21645694.648   113749251.762 8        48.250
  21645693.177    88635694.51146        39.500


  23932635.631    23932635.609   125766885.967 6        40.750    23932637.196
  23932637.639    98000231.824 6        37.500    23932636.830    93916889.728 7
        42.500

  22851711.693    22851711.027   120086614.373 7        44.250
  22851709.614    93574001.61044        27.750


  20288011.207                   108565595.949 8        49.250    20288014.355
  20288013.363    84439677.390 5        32.250


  23594235.381                   125903367.220 7        42.000    23594239.240
  23594239.056    97924847.931 6        39.250


  24640534.905    24640534.976   129487145.920 6        37.250    24640532.960
  24640533.090   100899195.734 5        30.500


  24295069.222                   130098992.552 5        33.750    24295064.048
  24295065.184   101188096.882 5        31.250


  21015593.167                   112182778.098 8        49.000    21015596.766
  21015596.905    87253341.961 7        45.000


  22949261.906                   122676945.313 7        43.000    22949266.096
  22949266.986    95415439.820 6        37.000


  20664421.032    20664420.965   108592310.909 8        50.500
  20664419.690    84617402.30347        42.250


 16  2 18  0  1 19.0000000  0 19G27G26R14G16R24G20G31G08R15G21G10G18
                                R17R02G29R08R18R01G04
  21888582.597    21888582.271   115025335.424 7        47.500    21888583.921
  21888583.702    89630164.823 7        45.500    21888584.815    85895580.785 8
        51.250

  20341817.574    20341817.355   106897007.145 8        51.750    20341819.421
  20341819.752    83296407.775 8        49.250    20341819.421    79825722.649 9
        55.500

  21797284.802                   116191806.667 6        40.000    21797290.280
  21797290.718    90371451.854 6        38.000


  20536523.618    20536523.046   107920196.579 8        51.000
  20536521.699    84093669.71447        45.000


  22528200.274                   120468731.959 6        38.250    22528201.714
  22528200.476    93697694.954 5        31.750


  23722372.735    23722371.877   124661918.582 5        34.750
  23722371.836    97139162.12142        15.750


  24005978.772    24005978.764   126152304.844 6        40.500    24005980.256
  24005979.688    98300518.584 6        36.250


  24510449.872    24510449.671   128803288.788 6        37.750    24510452.305
  24510451.665   100366218.754 6        37.000    24510452.586    96184288.786 7
        43.250

  19614127.228                   104811959.545 8        49.750    19614131.834
  19614131.548    81520442.982 8        48.250


  21645985.013    21645984.280   113750773.866 8        48.250
  21645982.831    88636880.56546        39.500


  23932018.418    23932018.396   125763643.359 6        40.750    23932019.893
  23932020.609    97997705.132 6        37.250    23932019.719    93914468.300 7
        42.500

  22851398.326    22851397.656   120084968.542 7        44.250
  22851396.435    93572719.14344        27.750


  20288396.125                   108567655.719 8        49.250    20288399.344
  20288398.079    84441279.423 5        32.250


  23593581.804                   125899878.807 7        42.250    23593585.600
  23593585.390    97922134.708 6        39.500


  24641075.055    24641075.126   129489984.302 6        37.500    24641074.111
  24641073.186   100901407.438 5        31.000


  24295395.386                   130100750.549 5        33.500    24295392.073
  24295393.486   101189464.182 5        31.250


  21015212.073                   112180743.821 8        49.000    21015215.655
  21015215.927    87251759.742 7        45.000


  22949059.968                   122675866.000 7        42.500    22949064.033
  22949065.030    95414600.354 6        37.000


  20664704.282    20664704.215   108593799.236 8        50.500
  20664702.909    84618562.03847        42.250


 16  2 18  0  1 20.0000000  0 19G27G26R14G16R24G20G31G08R15G21G10G18
                                R17R02G29R08R18R01G04
  21888202.406    21888202.080   115023337.313 7        47.500    21888203.811
  21888203.480    89628607.862 7        45.250    21888204.593    85894088.696 8
        51.000

  20341938.996    20341938.773   106897645.456 8        51.750    20341940.861
  20341941.219    83296905.160 8        49.250    20341940.879    79826199.312 9
        55.250

  21798084.664                   116196069.256 6        40.000    21798090.311
  21798090.365    90374767.194 6        38.000


  20536299.084    20536298.512   107919016.732 8        51.000
  20536297.179    84092750.35247        45.000


  22528793.650                   120471902.443 6        38.250    22528795.161
  22528793.601    93700160.860 5        31.750


  23722615.629    23722614.775   124663196.397 5        34.500
  23722615.030    97140157.82042        15.750


  24006642.213    24006642.209   126155790.999 6        40.250    24006643.165
  24006643.013    98303235.095 6        36.250


  24509930.636    24509930.440   128800559.942 6        37.750    24509932.970
  24509932.376   100364092.381 6        36.750    24509933.391    96182251.014 7
        43.000

  19614427.274                   104813563.138 8        49.750    19614432.045
  19614431.665    81521690.222 8        48.250


  21646274.770    21646274.037   113752296.346 8        48.250
  21646272.547    88638066.91346        39.500


  23931401.405    23931401.383   125760400.826 6        40.750    23931402.823
  23931403.565    97995178.475 6        37.250    23931402.680    93912046.947 7
        42.500

  22851085.138    22851084.463   120083323.100 7        44.250
  22851083.332    93571436.98344        27.750


  20288780.953                   108569715.749 8        49.000    20288783.917
  20288782.987    84442881.672 5        32.750


  23592927.816                   125896390.552 7        42.000    23592931.898
  23592931.585    97919421.627 6        39.250


  24641615.044    24641615.111   129492822.671 6        38.000    24641614.158
  24641613.331   100903619.149 5        31.000


                                                                  24295721.909
  24295721.882   101190832.089 5        31.500


  21014831.104                   112178709.894 8        49.000    21014834.802
  21014834.900    87250177.801 7        45.000


  22948857.994                   122674787.448 7        42.500    22948861.897
  22948863.279    95413761.475 6        37.000


  20664987.635    20664987.568   108595288.062 8        50.500
  20664986.213    84619722.16147        42.250


 16  2 18  0  1 21.0000000  0 19G27G26R14G16R24G20G31G08R15G21G10G18
                                R17R02G29R08R18R01G04
  21887822.082    21887821.752   115021339.419 7        47.250    21887823.700
  21887823.293    89627051.060 7        45.250    21887824.398    85892596.759 8
        51.000

  20342060.513    20342060.290   106898284.297 8        51.750    20342062.418
  20342062.780    83297402.963 8        49.250    20342062.440    79826676.368 9
        55.250

  21798884.816                   116200332.199 6        40.000    21798890.003
  21798889.967    90378082.831 6        38.000


  20536074.577    20536074.005   107917837.333 8        50.750
  20536072.744    84091831.34147        45.000


  22529385.724                   120475072.915 6        38.250    22529387.615
  22529386.292    93702626.816 5        30.750


  23722858.850    23722858.001   124664474.814 5        34.500
  23722858.304    97141153.97942        15.750


  24007305.690    24007305.682   126159277.223 6        40.250    24007306.575
  24007306.383    98305951.604 5        35.750


  24509411.128    24509410.936   128797831.149 6        37.500    24509413.583
  24509413.135   100361966.046 6        36.750    24509414.137    96180213.285 7
        43.000

  19614727.373                   104815167.597 8        49.750    19614732.198
  19614731.894    81522938.129 8        48.250


  21646564.481    21646563.748   113753819.212 8        48.250
  21646562.340    88639253.56246        39.500


  23930784.469    23930784.447   125757158.371 6        40.500    23930785.551
  23930786.495    97992651.889 6        37.000    23930785.699    93909625.622 7
        42.500

  22850772.125    22850771.455   120081678.058 7        44.250
  22850770.314    93570155.13344        27.750


  20289166.031                   108571776.046 8        49.250    20289169.004
  20289168.141    84444484.103 5        32.250


  23592274.172                   125892902.473 7        42.250    23592278.339
  23592277.995    97916708.674 6        39.500


  24642155.256    24642155.323   129495661.039 6        38.000    24642153.798
  24642153.436   100905830.899 5        30.500


  24296047.693                   130104268.612 5        33.500    24296050.385
  24296050.689   101192200.526 5        32.000


  21014450.296                   112176676.335 8        49.250    21014453.864
  21014453.976    87248596.146 7        45.000


  22948656.037                   122673709.652 7        42.250    22948660.335
  22948661.542    95412923.202 6        36.750


  20665271.114    20665271.047   108596777.382 8        50.500
  20665269.620    84620882.66947        42.250


 16  2 18  0  1 22.0000000  0 19G27G26R14G16R24G20G31G08R15G21G10G18
                                R17R02G29R08R18R01G04
  21887442.012    21887441.686   115019341.730 7        47.500    21887443.438
  21887443.152    89625494.410 7        45.250    21887444.247    85891104.980 8
        51.000

  20342182.110    20342181.887   106898923.673 8        51.750    20342184.095
  20342184.444    83297901.169 8        49.250    20342184.108    79827153.819 9
        55.500

  21799684.311                   116204595.476 6        40.000    21799690.222
  21799689.748    90381398.696 6        38.000


  20535850.191    20535849.619   107916658.380 8        50.750
  20535848.398    84090912.67647        45.000


  22529978.983                   120478243.393 6        38.000    22529980.682
  22529978.947    93705092.744 5        31.000


  23723101.999    23723101.159   124665753.813 5        34.750
  23723101.677    97142150.61442        15.750


  24007969.158    24007969.158   126162763.484 6        40.000    24007970.097
  24007969.784    98308668.178 6        36.000


  24508891.789    24508891.579   128795102.425 6        37.500    24508894.056
  24508893.864   100359839.786 6        36.500    24508894.870    96178175.599 7
        43.000

  19615027.683                   104816772.908 8        49.750    19615032.651
  19615032.244    81524186.703 8        48.250


  21646854.368    21646853.631   113755342.445 8        48.250
  21646852.208    88640440.49746        39.500


  23930167.555    23930167.533   125753916.003 6        40.500    23930168.203
  23930169.446    97990125.361 6        36.750    23930168.740    93907204.376 7
        42.750

  22850459.093    22850458.423   120080033.406 7        44.250
  22850457.354    93568873.58444        27.750


  20289550.957                   108573836.620 8        49.000    20289554.583
  20289552.969    84446086.796 5        32.750


  23591620.711                   125889414.573 7        42.000    23591624.624
  23591624.311    97913995.862 6        39.250


  24642695.535    24642695.606   129498499.411 6        37.750    24642693.621
  24642693.527   100908042.621 5        30.500


  24296374.913                   130106028.740 5        33.000    24296378.468
  24296379.819   101193569.472 5        32.000


  21014069.502                   112174643.158 8        49.250    21014072.922
  21014073.119    87247014.779 7        45.000


  22948454.108                   122672632.632 7        42.500    22948458.942
  22948460.028    95412085.520 6        37.000


  20665554.628    20665554.561   108598267.208 8        50.500
  20665553.126    84622043.57147        42.250


 16  2 18  0  1 23.0000000  0 19G27G26R14G16R24G20G31G08R15G21G10G18
                                R17R02G29R08R18R01G04
  21887061.964    21887061.638   115017344.261 7        47.500    21887063.229
  21887063.055    89623937.948 7        45.250    21887064.128    85889613.362 8
        51.000

  20342303.872    20342303.649   106899563.578 8        51.750    20342305.880
  20342306.215    83298399.795 8        49.000    20342305.884    79827631.674 9
        55.250

  21800484.020                   116208859.086 6        40.000    21800490.240
  21800489.574    90384714.843 6        37.500


  20535625.895    20535625.323   107915479.871 8        50.750
  20535624.133    84089994.35747        45.000


  22530571.290                   120481413.892 6        37.750    22530573.834
  22530571.835    93707558.668 5        31.000


  23723345.385    23723344.540   124667033.388 5        34.250
  23723345.170    97143147.69142        15.750


  24008632.492    24008632.492   126166249.791 6        40.000    24008633.860
  24008633.198    98311384.780 5        35.750


  24508372.374    24508372.151   128792373.764 6        37.250    24508375.218
  24508374.543   100357713.554 6        36.750    24508375.580    96176137.962 7
        43.000

  19615328.212                   104818379.069 8        49.750    19615333.350
  19615332.791    81525435.945 8        48.250


  21647144.397    21647143.664   113756866.054 8        48.250
  21647142.144    88641627.72246        39.500


  23929550.458    23929550.441   125750673.709 6        40.250    23929551.585
  23929552.421    97987598.887 6        37.000    23929551.705    93904783.175 7
        42.500

  22850146.286    22850145.620   120078389.150 7        44.250
  22850144.483    93567592.35144        27.750


  20289936.107                   108575897.455 8        49.000    20289939.617
  20289938.463    84447689.671 5        32.500


  23590967.215                   125885926.859 7        42.250    23590970.949
  23590970.729    97911283.208 6        39.500


  24643235.649    24643235.725   129501337.778 6        37.500    24643234.062
  24643233.637   100910254.305 5        30.750


  24296702.710                   130107789.500 5        33.750    24296708.215
  24296708.675   101194938.978 5        32.250


  21013688.658                   112172610.359 8        49.250    21013691.837
  21013692.311    87245433.728 7        45.000


  22948252.947                   122671556.376 7        42.500    22948258.380
  22948258.944    95411248.430 6        37.250


  20665838.201    20665838.134   108599757.525 8        50.500
  20665836.720    84623204.85747        42.000


 16  2 18  0  1 24.0000000  0 19G27G26R14G16R24G20G31G08R15G21G10G18
                                R17R02G29R08R18R01G04
  21886681.831    21886681.501   115015346.991 7        47.500    21886683.182
  21886682.994    89622381.641 7        45.250    21886684.045    85888121.897 8
        51.000

  20342425.777    20342425.554   106900204.020 8        51.750    20342427.794
  20342428.089    83298898.841 8        49.000    20342427.731    79828109.924 9
        55.250

  21801283.568                   116213123.023 6        40.000    21801289.976
  21801289.516    90388031.244 6        38.000


  20535401.678    20535401.106   107914301.802 8        50.750
  20535399.952    84089076.38247        45.000


  22531163.914                   120484584.388 6        38.000    22531166.342
  22531164.607    93710024.612 5        32.000


  23723588.216    23723587.371   124668313.553 5        34.250
  23723588.784    97144145.22842        15.500


  24009295.973    24009295.977   126169736.160 6        40.000    24009297.082
  24009296.617    98314101.438 5        35.750


  24507853.214    24507852.991   128789645.195 6        37.250    24507856.121
  24507855.280   100355587.412 6        36.750    24507856.322    96174100.397 7
        43.000

  19615629.116                   104819986.103 8        49.750    19615634.218
  19615633.521    81526685.866 8        48.000


  21647434.351    21647433.618   113758390.039 8        48.250
  21647432.155    88642815.24346        39.500


  23928933.289    23928933.272   125747431.474 6        40.250    23928934.773
  23928935.390    97985072.498 6        36.500    23928934.715    93902362.042 7
        42.500

  22849833.536    22849832.875   120076745.282 7        44.250
  22849831.649    93566311.41444        27.750


  20290321.324                   108577958.557 8        49.000    20290323.729
  20290323.314    84449292.760 5        33.000


  23590313.504                   125882439.342 7        42.000    23590316.978
  23590317.264    97908570.686 6        39.500


  24643775.687    24643775.763   129504176.147 6        37.750    24643773.970
  24643773.719   100912466.036 5        31.250


  24297031.151                   130109550.976 5        33.000    24297037.058
  24297037.344   101196309.040 5        32.000


  21013308.056                   112170577.921 8        49.250    21013310.900
  21013311.517    87243852.928 7        44.750


  22948051.787                   122670480.892 7        42.750    22948057.515
  22948058.083    95410411.962 6        37.000


  20666121.961    20666121.894   108601248.341 8        50.500
  20666120.409    84624366.53247        42.000


 16  2 18  0  1 25.0000000  0 19G27G26R14G16R24G20G31G08R15G21G10G18
                                R17R02G29R08R18R01G04
  21886301.712    21886301.386   115013349.938 7        47.500    21886303.067
  21886302.969    89620825.493 7        45.250    21886304.006    85886630.593 8
        51.000

  20342547.660    20342547.437   106900844.994 8        51.750    20342549.780
  20342550.061    83299398.301 8        49.000    20342549.686    79828588.572 9
        55.250

  21802083.528                   116217387.313 6        40.000    21802089.999
  21802089.650    90391347.911 6        37.750


  20535177.579    20535177.007   107913124.189 8        50.750
  20535175.857    84088158.76047        45.000


  22531757.146                   120487754.945 6        37.750    22531758.747
  22531757.884    93712490.605 5        31.750


  23723831.575    23723830.735   124669594.315 5        34.500
  23723832.514    97145143.23042        16.000


  24009959.486    24009959.490   126173222.570 6        40.000    24009960.358
  24009960.067    98316818.106 5        35.750


  24507333.983    24507333.769   128786916.678 6        37.000    24507336.952
  24507336.049   100353461.273 6        37.000    24507337.086    96172062.867 7
        43.000

  19615930.057                   104821594.000 8        50.000    19615935.087
  19615934.412    81527936.448 8        48.000


  21647724.519    21647723.786   113759914.400 8        48.000
  21647722.238    88644003.05646        39.500


  23928316.008    23928315.995   125744189.340 6        40.250    23928317.864
  23928318.360    97982546.142 6        36.500    23928317.770    93899940.958 7
        42.500

  22849520.826    22849520.165   120075101.804 7        44.250
  22849518.899    93565030.78044        27.750


  20290706.509                   108580019.925 8        49.000    20290708.647
  20290708.468    84450896.040 5        32.500


  23589659.766                   125878952.029 6        41.750    23589663.732
  23589663.732    97905858.321 6        39.250


  24644315.626    24644315.697   129507014.521 6        37.750    24644313.377
  24644313.900   100914677.769 5        31.000


  24297361.317                   130111313.138 5        33.000    24297366.697
  24297366.844   101197679.611 5        32.750


  21012927.355                   112168545.817 8        49.000    21012930.164
  21012930.875    87242272.411 7        44.750


  22947851.083                   122669406.164 7        43.000    22947856.668
  22947857.030    95409576.058 6        36.750


  20666405.743    20666405.676   108602739.649 8        50.500
  20666404.196    84625528.59047        42.000


 16  2 18  0  1 26.0000000  0 19G27G26R14G16R24G20G31G08R15G21G10G18
                                R17R02G29R08R18R01G04
  21885921.830    21885921.504   115011353.102 7        47.250    21885923.109
  21885922.988    89619269.517 7        45.000    21885923.999    85885139.447 8
        51.000

  20342669.785    20342669.562   106901486.501 8        51.750    20342671.886
  20342672.137    83299898.175 8        49.000    20342671.752    79829067.618 9
        55.250

  21802883.578                   116221651.944 6        40.000    21802889.556
  21802889.780    90394664.851 6        38.000


  20534953.573    20534953.001   107911947.019 8        50.750
  20534951.851    84087241.48347        45.000


  22532349.497                   120490925.523 6        37.500    22532352.086
  22532350.593    93714956.619 5        31.000


  23724075.641    23724074.805   124670875.653 5        34.500
  23724076.329    97146141.68242        15.250


  24010622.838    24010622.846   126176709.018 6        40.000    24010623.777
  24010623.535    98319534.824 5        35.750


  24506814.251    24506814.041   128784188.241 6        37.000    24506817.797
  24506816.885   100351335.245 6        37.000    24506817.935    96170025.411 7
        43.000

  19616231.332                   104823202.758 8        50.000    19616236.099
  19616235.491    81529187.705 8        48.250


  21648014.579    21648013.846   113761439.136 8        48.000
  21648012.402    88645191.16346        39.500


  23927698.826    23927698.813   125740947.276 6        40.000    23927700.941
  23927701.339    97980019.862 6        36.500    23927700.767    93897519.947 7
        42.500

  22849208.094    22849207.428   120073458.713 7        44.250
  22849206.257    93563750.44844        27.750


  20291091.686                   108582081.557 8        49.000    20291092.992
  20291093.913    84452499.522 5        32.000


  23589006.028                   125875464.895 6        41.750    23589009.628
  23589010.379    97903146.102 6        39.750


  24644855.754    24644855.825   129509852.886 6        37.750    24644853.089
  24644854.014   100916889.459 5        31.250


  24297690.796                   130113076.053 5        34.250    24297696.828
  24297696.779   101199050.787 5        33.500


  21012546.615                   112166514.092 8        49.000    21012549.839
  21012550.178    87240692.177 7        45.000


  22947650.486                   122668332.197 7        43.250    22947656.500
  22947656.165    95408740.733 6        37.000


  20666689.620    20666689.553   108604231.465 8        50.500
  20666688.073    84626691.04447        42.000


 16  2 18  0  1 27.0000000  0 19G27G26R14G16R24G20G31G08R15G21G10G18
                                R17R02G29R08R18R01G04
  21885541.881    21885541.555   115009356.472 7        47.250    21885543.039
  21885543.043    89617713.711 7        45.000    21885544.049    85883648.461 8
        51.000

  20342791.981    20342791.762   106902128.545 8        51.750    20342793.993
  20342794.315    83300398.472 8        49.000    20342793.917    79829547.067 9
        55.250

  21803683.529                   116225916.913 6        40.000    21803690.079
  21803690.062    90397982.035 6        38.000


  20534729.670    20534729.098   107910770.295 8        50.750
  20534727.930    84086324.55647        45.000


  22532941.594                   120494096.133 6        38.000    22532945.945
  22532943.700    93717422.632 5        31.750


  23724319.765    23724318.947   124672157.582 5        34.500
  23724320.265    97147140.58642        15.250


  24011286.328    24011286.341   126180195.532 6        40.000    24011286.708
  24011287.035    98322251.592 5        35.750


  24506295.019    24506294.818   128781459.885 6        37.000    24506298.945
  24506297.693   100349209.234 6        37.000    24506298.798    96167987.990 7
        43.000

  19616532.576                   104824812.368 8        50.000    19616537.231
  19616536.722    81530439.625 8        48.250


  21648304.689    21648303.952   113762964.247 8        48.000
  21648302.632    88646379.56246        39.500


  23927081.746    23927081.729   125737705.276 6        40.000    23927083.696
  23927084.358    97977493.649 6        36.750    23927083.821    93895098.978 7
        42.500

  22848895.528    22848894.862   120071816.023 7        44.250
  22848893.663    93562470.43344        27.750


  20291476.943                   108584143.465 8        49.000    20291477.319
  20291479.299    84454103.231 5        32.500


  23588352.237                   125871977.905 6        41.500    23588355.953
  23588356.896    97900434.001 6        39.250


  24645395.801    24645395.877   129512691.236 6        37.750    24645394.021
  24645394.074   100919101.158 5        31.250


  24298021.436                   130114839.692 5        34.500    24298026.941
  24298026.216   101200422.475 5        33.250


  21012166.075                   112164482.761 8        48.750    21012169.567
  21012169.608    87239112.262 7        45.000


  22947450.050                   122667258.966 7        43.500    22947455.340
  22947455.518    95407906.014 6        36.500


  20666973.595    20666973.528   108605723.772 8        50.500
  20666972.052    84627853.88147        42.000


 16  2 18  0  1 28.0000000  0 19G27G26R14G16R24G20G31G08R15G21G10G18
                                R17R02G29R08R18R01G04
  21885161.949    21885161.623   115007360.061 7        47.250    21885163.291
  21885163.139    89616158.053 7        45.000    21885164.140    85882157.632 8
        51.000

  20342914.306    20342914.087   106902771.121 8        51.750    20342916.310
  20342916.596    83300899.175 8        49.000    20342916.193    79830026.912 9
        55.250

  21804483.815                   116230182.224 6        39.750    21804490.173
  21804490.232    90401299.503 6        38.000


  20534505.887    20534505.311   107909594.014 8        51.000
  20534504.090    84085407.97347        45.000


  22533534.231                   120497266.761 6        37.500    22533536.731
  22533536.360    93719888.698 5        32.000


  23724563.848    23724563.035   124673440.102 5        35.000
  23724564.295    97148139.95642        15.500


  24011949.774    24011949.787   126183682.076 6        40.250    24011950.078
  24011950.512    98324968.361 5        35.500


  24505775.949    24505775.757   128778731.572 6        37.000    24505780.027
  24505778.578   100347083.298 6        37.250    24505779.598    96165950.617 7
        42.750

  19616833.830                   104826422.839 8        50.000    19616838.511
  19616838.091    81531692.207 8        48.000


  21648594.884    21648594.147   113764489.737 8        48.000
  21648592.930    88647568.25446        39.500


  23926464.958    23926464.941   125734463.370 6        40.000    23926466.970
  23926467.372    97974967.490 6        36.500    23926466.952    93892678.079 7
        42.500

  22848582.912    22848582.251   120070173.724 7        44.250
  22848581.142    93561190.72244        28.000


  20291862.325                   108586205.648 8        49.000    20291862.562
  20291865.031    84455707.163 5        32.750


  23587698.803                   125868491.094 6        41.500    23587702.698
  23587703.382    97897722.049 6        39.500


  24645935.910    24645935.990   129515529.587 6        38.000    24645934.215
  24645934.193   100921312.895 5        31.250


  24298351.254                   130116604.023 5        34.500    24298356.996
  24298355.390   101201794.753 5        33.250


  21011785.509                   112162451.821 8        48.750    21011789.278
  21011789.166    87237532.638 7        45.000


  22947249.524                   122666186.484 7        43.750    22947254.868
  22947254.837    95407071.858 6        37.000


  20667257.614    20667257.547   108607216.579 8        50.500
  20667256.121    84629017.10747        42.000


 16  2 18  0  1 29.0000000  0 19G27G26R14G16R24G20G31G08R15G21G10G18
                                R17R02G29R08R18R01G04
  21884782.085    21884781.759   115005363.850 7        47.500    21884783.225
  21884783.279    89614602.567 7        45.000    21884784.258    85880666.958 8
        51.000

  20343036.722    20343036.503   106903414.221 8        51.750    20343038.716
  20343038.971    83301400.291 8        49.000    20343038.568    79830507.150 9
        55.250

  21805284.231                   116234447.888 6        40.000    21805290.384
  21805290.473    90404617.228 6        37.500


  20534282.150    20534281.578   107908418.173 8        51.000
  20534280.334    84084491.73347        45.000


  22534127.338                   120500437.403 6        37.500    22534130.330
  22534129.776    93722354.762 5        31.500


  23724808.446    23724807.633   124674723.210 5        35.000
  23724808.464    97149139.80142        15.500


  24012613.135    24012613.157   126187168.659 6        40.250    24012613.819
  24012613.953    98327685.217 6        36.000


  24505256.959    24505256.758   128776003.343 6        37.000    24505261.189
  24505259.396   100344957.401 6        36.750    24505260.335    96163913.296 7
        43.000

  19617135.262                   104828034.167 8        50.000    19617140.060
  19617139.599    81532945.464 8        48.250


  21648885.218    21648884.485   113766015.593 8        48.000
  21648883.299    88648757.23246        39.500


  23925848.062    23925848.049   125731221.544 6        40.250    23925850.194
  23925850.423    97972441.385 6        36.750    23925850.007    93890257.230 7
        42.500

  22848270.520    22848269.859   120068531.803 7        44.250
  22848268.727    93559911.30944        28.000


  20292247.819                   108588268.117 8        49.000    20292248.946
  20292250.341    84457311.302 5        32.500


  23587045.383                   125865004.466 6        41.500    23587050.011
  23587049.863    97895010.225 6        39.500


  24646476.060    24646476.131   129518367.970 6        37.750    24646474.499
  24646474.329   100923524.589 5        31.500


  24298681.045                   130118369.049 5        34.500    24298686.608
  24298684.551   101203167.539 5        33.250


  21011404.960                   112160421.236 8        48.750    21011408.774
  21011408.770    87235953.299 7        44.750


  22947049.383                   122665114.748 7        43.750    22947054.266
  22947054.427    95406238.272 6        36.750


  20667541.764    20667541.697   108608709.881 8        50.500
  20667540.288    84630180.71747        42.000


 16  2 18  0  1 30.0000000  0 19G27G26R14G16R24G20G31G08R15G21G10G18
                                R17R02G29R08R18R01G04
  21884402.207    21884401.877   115003367.842 7        47.500    21884403.392
  21884403.455    89613047.239 7        45.000    21884404.429    85879176.433 8
        51.000

  20343159.249    20343159.026   106904057.863 8        51.750    20343161.068
  20343161.444    83301901.831 8        49.000    20343161.046    79830987.794 9
        55.250

  21806084.271                   116238713.880 6        40.000    21806090.728
  21806090.701    90407935.248 6        37.750


  20534058.493    20534057.921   107907242.783 8        51.000
  20534056.668    84083575.84547        45.000


  22534719.672                   120503608.030 6        37.250    22534723.772
  22534722.444    93724820.792 5        31.500


  23725052.842    23725052.029   124676006.915 5        34.750
  23725052.766    97150140.08642        15.500


  24013276.594    24013276.620   126190655.287 6        40.250    24013277.492
  24013277.443    98330402.057 5        35.750


  24504737.714    24504737.518   128773275.193 6        36.750    24504741.681
  24504740.259   100342831.559 6        36.750    24504741.050    96161876.055 7
        42.750

  19617436.926                   104829646.357 8        49.750    19617441.814
  19617441.282    81534199.388 8        48.250


  21649175.600    21649174.863   113767541.834 8        48.000
  21649173.731    88649946.51046        39.500


  23925231.228    23925231.220   125727979.796 6        40.000    23925232.860
  23925233.500    97969915.348 6        36.500    23925233.164    93887836.455 7
        42.500

  22847958.133    22847957.472   120066890.279 7        44.250
  22847956.384    93558632.20144        28.000


  20292633.193                   108590330.877 8        49.000    20292635.880
  20292635.603    84458915.675 5        32.750


  23586391.940                   125861518.065 6        41.500    23586396.836
  23586396.577    97892298.576 6        39.750


  24647015.852    24647015.928   129521206.298 6        37.750    24647015.141
  24647014.470   100925736.281 5        31.750


  24299011.699                   130120134.790 5        35.250    24299016.149
  24299014.168   101204540.881 5        33.500


  21011024.510                   112158390.994 8        48.750    21011028.373
  21011028.418    87234374.218 7        45.000


  22946849.256                   122664043.776 7        43.750    22946853.830
  22946853.951    95405405.287 6        36.500


  20667825.971    20667825.904   108610203.686 8        50.500
  20667824.544    84631344.72147        42.000


 16  2 18  0  1 31.0000000  0 19G27G26R14G16R24G20G31G08R15G21G10G18
                                R17R02G29R08R18R01G04
  21884022.396    21884022.070   115001372.056 7        47.500    21884023.537
  21884023.666    89611492.074 7        45.000    21884024.632    85877686.070 8
        51.000

  20343281.793    20343281.570   106904702.040 8        51.750    20343283.685
  20343284.025    83302403.792 8        49.000    20343283.627    79831468.833 9
        55.000

  21806884.812                   116242980.217 6        40.000    21806891.439
  21806891.238    90411253.504 6        38.000


  20533834.970    20533834.398   107906067.835 8        51.000
  20533833.078    84082660.30047        45.000


  22535313.316                   120506778.673 6        37.250    22535316.316
  22535315.015    93727286.838 5        31.500


  23725297.704    23725296.895   124677291.198 5        34.500
  23725297.163    97151140.82542        15.500


  24013940.258    24013940.289   126194141.974 6        40.250    24013941.050
  24013940.974    98333118.931 5        35.500


  24504218.832    24504218.636   128770547.089 6        36.750    24504222.360
  24504221.143   100340705.764 6        36.750    24504221.738    96159838.838 7
        43.000

  19617738.814                   104831259.403 8        50.000    19617743.604
  19617743.219    81535453.978 8        48.250


  21649466.113    21649465.376   113769068.440 8        48.000
  21649464.244    88651136.07346        39.500


  23924614.354    23924614.350   125724738.108 6        40.250    23924615.803
  23924616.595    97967389.372 6        36.750    23924616.313    93885415.710 7
        42.500

  22847645.875    22847645.214   120065249.137 7        44.250
  22847644.100    93557353.38744        28.000


  20293018.799                   108592393.902 8        49.000    20293021.146
  20293021.017    84460520.249 5        33.000


  23585738.220                   125858031.837 6        41.500    23585743.510
  23585743.179    97889587.070 6        39.500


  24647555.751    24647555.827   129524044.673 6        37.500    24647555.380
  24647554.633   100927947.992 5        31.750


  24299342.877                   130121901.229 5        35.250    24299345.323
  24299343.704   101205914.740 5        32.500


  21010644.154                   112156361.097 8        48.750    21010648.192
  21010648.107    87232795.420 7        45.000


  22946649.097                   122662973.553 7        43.500    22946653.537
  22946653.734    95404572.897 6        36.750


  20668110.308    20668110.246   108611697.978 8        50.250
  20668108.895    84632509.10547        42.000


 16  2 18  0  1 32.0000000  0 19G27G26R14G16R24G20G31G08R15G21G10G18
                                R17R02G29R08R18R01G04
  21883642.648    21883642.318   114999376.473 7        47.500    21883643.704
  21883643.909    89609937.083 7        45.000    21883644.884    85876195.864 8
        51.000

  20343404.495    20343404.276   106905346.739 8        51.750    20343406.435
  20343406.699    83302906.158 8        49.250    20343406.288    79831950.266 9
        55.250

  21807685.273                   116247246.888 6        39.750    21807691.828
  21807691.712    90414572.008 6        38.000


  20533611.505    20533610.933   107904893.337 8        51.000
  20533609.577    84081745.10747        45.000


  22535906.190                   120509949.296 6        37.750    22535909.052
  22535907.961    93729752.865 5        31.500


  23725541.984    23725541.180   124678576.073 5        35.000
  23725541.689    97152142.01742        15.500


  24014603.829    24014603.855   126197628.695 6        40.250    24014604.706
  24014604.455    98335835.864 5        35.750


  24503699.784    24503699.579   128767819.094 6        36.750    24503703.186
  24503702.051   100338580.060 6        36.750    24503702.543    96157801.695 7
        43.000

  19618040.908                   104832873.311 8        50.000    19618045.688
  19618045.165    81536709.243 8        48.000


  21649756.688    21649755.951   113770595.419 8        48.000
  21649754.828    88652325.92746        39.500


  23923997.646    23923997.642   125721496.496 6        40.000    23923999.032
  23923999.716    97964863.441 6        36.750    23923999.511    93882995.035 7
        42.750

  22847333.653    22847332.996   120063608.392 7        44.250
  22847331.895    93556074.88844        28.000


  20293404.320                   108594457.192 8        49.250    20293406.788
  20293406.698    84462125.031 5        32.750


  23585085.180                   125854545.755 6        41.500    23585089.781
  23585089.938    97886875.678 6        39.500


  24648095.583    24648095.659   129526883.034 6        37.500    24648095.552
  24648094.823   100930159.665 5        31.750


  24299674.135                   130123668.357 5        35.250    24299675.436
  24299673.915   101207289.166 5        33.750


  21010264.088                   112154331.603 8        48.750    21010267.822
  21010267.844    87231216.923 7        44.750


  22946448.759                   122661904.084 7        43.500    22946452.377
  22946453.723    95403741.079 6        36.500


  20668394.739    20668394.672   108613192.775 8        50.250
  20668393.344    84633673.88147        42.000


 16  2 18  0  1 33.0000000  0 19G27G26R14G16R24G20G31G08R15G21G10G18
                                R17R02G29R08R18R01G04
  21883262.838    21883262.512   114997381.113 7        47.500    21883263.897
  21883264.201    89608382.252 7        45.000    21883265.167    85874705.821 8
        51.000

  20343527.254    20343527.035   106905991.987 8        51.500    20343529.199
  20343529.485    83303408.947 8        49.250    20343529.061    79832432.106 9
        55.250

  21808485.975                   116251513.903 6        40.000    21808492.459
  21808492.106    90417890.803 6        38.000


  20533388.089    20533387.517   107903719.287 8        51.000
  20533386.162    84080830.26347        45.000


  22536499.230                   120513119.976 6        38.000    22536501.336
  22536501.037    93732218.988 5        30.750


  23725786.698    23725785.894   124679861.548 5        34.750
  23725786.327    97153143.67942        15.250


  24015267.382    24015267.404   126201115.471 6        40.000    24015268.084
  24015267.928    98338552.830 5        35.750


  24503180.677    24503180.467   128765091.166 6        36.750    24503183.986
  24503182.918   100336454.387 6        37.000    24503183.494    96155764.612 7
        43.000

  19618343.029                   104834488.084 8        50.000    19618347.818
  19618347.358    81537965.171 8        48.000


  21650047.272    21650046.535   113772122.786 8        48.000
  21650045.492    88653516.08346        39.500


  23923380.835    23923380.835   125718254.990 6        40.250    23923381.899
  23923382.843    97962337.558 6        36.500    23923382.731    93880574.435 7
        42.500

  22847021.605    22847020.948   120061968.045 7        44.250
  22847019.772    93554796.69644        28.000


  20293789.970                   108596520.749 8        49.250    20293792.761
  20293792.595    84463730.038 5        32.250


  23584432.068                   125851059.862 6        41.500    23584436.562
  23584436.567    97884164.420 6        39.750


  24648635.630    24648635.706   129529721.392 6        37.500    24648636.157
  24648635.008   100932371.391 5        31.750


  24300005.817                   130125436.183 5        34.750    24300006.747
  24300004.118   101208664.166 5        33.250


  21009884.067                   112152302.512 8        48.750    21009887.596
  21009887.734    87229638.731 7        44.750


  22946248.511                   122660835.370 7        43.000    22946252.039
  22946253.497    95402909.880 6        36.500


  20668679.255    20668679.188   108614688.073 8        50.250
  20668677.891    84634839.04847        42.000


 16  2 18  0  1 34.0000000  0 19G27G26R14G16R24G20G31G08R15G21G10G18
                                R17R02G29R08R18R01G04
  21882883.188    21882882.862   114995385.953 7        47.500    21882884.274
  21882884.534    89606827.579 7        45.000    21882885.509    85873215.927 8
        51.000

  20343650.121    20343649.902   106906637.761 8        51.500    20343652.039
  20343652.370    83303912.145 8        49.250    20343651.954    79832914.337 9
        55.250

  21809286.892                   116255781.249 6        40.250    21809292.973
  21809292.656    90421209.850 6        37.750


  20533164.839    20533164.267   107902545.681 8        51.000
  20533162.831    84079915.76647        45.000


  22537092.659                   120516290.672 6        37.750    22537093.178
  22537093.665    93734685.090 5        31.000


  23726031.614    23726030.801   124681147.600 5        35.250
  23726031.073    97154145.80642        15.000


  24015931.029    24015931.051   126204602.288 6        40.000    24015931.441
  24015931.383    98341269.834 5        35.500


  24502661.392    24502661.191   128762363.313 6        36.500    24502664.420
  24502663.861   100334328.777 6        37.000    24502664.527    96153727.561 7
        43.000

  19618645.382                   104836103.714 8        50.000    19618650.314
  19618649.711    81539221.777 8        48.250


  21650338.039    21650337.306   113773650.521 8        48.000
  21650336.224    88654706.52546        39.500


  23922763.966    23922763.966   125715013.539 6        40.000    23922765.003
  23922766.005    97959811.793 6        36.750    23922765.893    93878153.880 7
        42.750

  22846709.544    22846708.887   120060328.096 7        44.000
  22846707.742    93553518.81344        28.000


  20294175.683                   108598584.557 8        49.250    20294179.498
  20294178.134    84465335.215 5        32.750


  23583779.166                   125847574.156 6        41.750    23583782.681
  23583783.254    97881453.321 6        39.500


  24649176.043    24649176.123   129532559.731 6        37.750    24649176.066
  24649175.144   100934583.093 5        32.000


  24300336.547                   130127204.794 5        33.750    24300337.768
  24300334.548   101210039.699 5        33.000


  21009504.047                   112150273.781 8        48.750    21009507.548
  21009507.642    87228060.838 7        45.000


  22946048.455                   122659767.414 7        43.000    22946051.872
  22946053.790    95402079.235 6        36.750


  20668963.905    20668963.838   108616183.870 8        50.250
  20668962.532    84636004.60647        42.000


 16  2 18  0  1 35.0000000  0 19G27G26R14G16R24G20G31G08R15G21G10G18
                                R17R02G29R08R18R01G04
  21882503.529    21882503.203   114993391.005 7        47.250    21882504.549
  21882504.911    89605273.079 7        45.000    21882505.854    85871726.200 8
        51.000

  20343773.091    20343772.872   106907284.068 8        51.500    20343775.067
  20343775.358    83304415.759 8        49.250    20343774.928    79833396.970 9
        55.250

  21810087.858                   116260048.929 6        40.000    21810093.640
  21810093.202    90424529.164 6        38.000


  20532941.539    20532940.967   107901372.520 8        50.750
  20532939.585    84079001.61647        45.000


  22537685.793                   120519461.426 6        38.000    22537686.643
  22537686.763    93737151.222 5        31.500


  23726276.976    23726276.154   124682434.251 5        35.500
  23726275.903    97155148.39042        15.000


  24016594.515    24016594.541   126208089.140 6        40.000    24016594.605
  24016594.877    98343986.871 5        35.750


  24502141.669    24502141.468   128759635.501 6        36.250    24502145.282
  24502144.804   100332203.249 6        37.250    24502145.582    96151690.572 7
        43.250

  19618947.896                   104837720.195 8        50.000    19618952.820
  19618952.238    81540479.041 8        48.000


  21650628.833    21650628.100   113775178.627 8        48.000
  21650627.018    88655897.25746        39.500


  23922147.253    23922147.253   125711772.178 6        40.500    23922148.787
  23922149.167    97957286.051 6        37.000    23922149.167    93875733.387 7
        42.750

  22846397.456    22846396.795   120058688.534 7        44.000
  22846395.779    93552241.23244        28.000


  20294561.499                   108600648.619 8        49.250    20294565.166
  20294564.035    84466940.585 5        32.000


  23583125.983                   125844088.658 6        41.750    23583129.744
  23583130.066    97878742.387 6        39.500


  24649716.483    24649716.550   129535398.088 6        37.750    24649716.376
  24649715.303   100936794.807 5        32.250


  24300667.210                   130128974.026 5        34.000    24300667.953
  24300664.881   101211415.786 5        33.250


  21009123.999                   112148245.404 8        49.000    21009127.545
  21009127.590    87226483.215 7        45.000


  22945848.502                   122658700.193 7        42.500    22945852.576
  22945854.172    95401249.169 6        36.000


  20669248.577    20669248.510   108617680.160 8        50.250
  20669247.263    84637170.54647        42.000


 16  2 18  0  1 36.0000000  0 19G27G26R14G16R24G20G31G08R15G21G10G18
                                R17R02G29R08R18R01G04
  21882123.893    21882123.567   114991396.265 7        47.250    21882124.971
  21882125.333    89603718.732 7        45.000    21882126.263    85870236.616 8
        51.000

  20343896.109    20343895.890   106907930.897 8        51.500    20343898.224
  20343898.444    83304919.785 8        49.250    20343898.014    79833879.992 9
        55.250

  21810888.453                   116264316.952 6        40.000    21810894.315
  21810893.980    90427848.727 6        38.500


  20532718.374    20532717.798   107900199.801 8        50.750
  20532716.425    84078087.81047        45.000


  22538279.119                   120522632.169 6        37.250    22538280.725
  22538279.960    93739617.357 5        30.000


  23726522.231    23726521.400   124683721.460 5        35.500
  23726520.831    97156151.39542        15.250


  24017258.167    24017258.193   126211576.047 6        40.250    24017258.346
  24017258.386    98346703.956 6        36.000


  24501622.415    24501622.214   128756907.765 6        36.500    24501626.140
  24501625.697   100330077.737 6        37.250    24501626.672    96149653.638 7
        43.000

  19619250.518                   104839337.522 8        50.000    19619255.562
  19619254.923    81541736.961 8        48.250


  21650919.717    21650918.984   113776707.112 8        48.000
  21650917.888    88657088.28446        39.500


  23921530.683    23921530.683   125708530.901 6        40.250    23921531.855
  23921532.338    97954760.367 6        37.250    23921532.409    93873312.946 7
        42.750

  22846085.404    22846084.743   120057049.370 7        44.000
  22846083.892    93550963.96044        28.000


  20294947.329                   108602712.933 8        49.250    20294950.338
  20294949.824    84468546.167 5        32.250


  23582473.050                   125840603.373 6        41.750    23582476.587
  23582476.990    97876031.600 6        39.500


  24650256.723    24650256.776   129538236.445 6        37.750    24650256.785
  24650255.462   100939006.493 5        32.250


  24300998.799                   130130743.985 5        33.750    24300998.736
  24300995.213   101212792.383 5        33.250


  21008744.121                   112146217.380 8        48.750    21008747.685
  21008747.783    87224905.867 7        44.750


  22945648.818                   122657633.739 7        42.250    22945652.587
  22945654.237    95400419.710 6        36.750


  20669533.326    20669533.259   108619176.947 8        50.250
  20669532.092    84638336.87447        42.000


 16  2 18  0  1 37.0000000  0 19G27G26R14G16R24G20G31G08R15G21G10G18
                                R17R02G29R08R18R01G04
  21881744.391    21881744.065   114989401.751 7        47.250    21881745.522
  21881745.786    89602164.558 7        45.000    21881746.716    85868747.206 8
        51.000

  20344019.240    20344019.021   106908578.283 8        51.500    20344021.427
  20344021.628    83305424.237 8        49.250    20344021.203    79834363.427 9
        55.250

  21811688.668                   116268585.324 6        40.000    21811695.151
  21811694.651    90431168.570 6        38.500


  20532495.187    20532494.611   107899027.546 8        50.750
  20532493.353    84077174.36447        45.000


  22538871.734                   120525802.962 6        37.500    22538873.845
  22538872.955    93742083.533 5        32.250


  23726767.048    23726766.208   124685009.283 5        35.250
  23726765.890    97157154.89242        15.250


  24017921.814    24017921.845   126215063.002 6        40.250    24017921.863
  24017921.881    98349421.038 6        36.000


  24501103.506    24501103.305   128754180.113 6        36.250    24501107.427
  24501106.672   100327952.278 6        37.250    24501107.664    96147616.737 7
        43.000

  19619553.350                   104840955.709 8        50.000    19619558.452
  19619557.754    81542995.549 8        48.000


  21651210.703    21651209.970   113778235.976 8        48.000
  21651208.825    88658279.60646        39.500


  23920914.002    23920914.002   125705289.710 6        40.250    23920915.643
  23920915.540    97952234.777 6        37.000    23920915.804    93870892.581 7
        42.750

  22845773.338    22845772.677   120055410.605 7        44.000
  22845772.068    93549687.00044        28.000


  20295333.266                   108604777.504 8        49.250    20295336.490
  20295335.542    84470151.930 5        32.750


  23581819.938                   125837118.229 6        41.750    23581823.771
  23581823.780    97873320.929 6        39.500


  24650796.908    24650796.957   129541074.824 6        37.750    24650796.756
  24650795.660   100941218.193 5        32.000


  24301329.583                   130132514.687 5        33.250    24301328.984
  24301325.809   101214169.563 5        33.000


  21008364.315                   112144189.757 8        49.000    21008367.932
  21008367.915    87223328.818 7        44.750


  22945449.128                   122656568.065 6        41.750    22945453.506
  22945454.619    95399590.846 6        36.250


  20669818.186    20669818.119   108620674.234 8        50.250
  20669817.010    84639503.58947        42.000


 16  2 18  0  1 38.0000000  0 19G27G26R14G16R24G20G31G08R15G21G10G18
                                R17R02G29R08R18R01G04
  21881364.889    21881364.563   114987407.426 7        47.000    21881365.904
  21881366.270    89600610.550 7        45.000    21881367.192    85867257.942 8
        51.000

  20344142.549    20344142.326   106909226.188 8        51.500    20344144.821
  20344144.919    83305929.100 8        49.250    20344144.477    79834847.250 9
        55.250

  21812488.833                   116272854.029 6        40.000    21812495.567
  21812495.348    90434488.670 6        38.250


  20532272.088    20532271.516   107897855.726 8        50.750
  20532270.367    84076261.25747        45.000


  22539464.752                   120528973.746 6        37.000    22539465.459
  22539466.214    93744549.693 5        32.000


  23727011.959    23727011.114   124686297.683 5        35.000
  23727011.069    97158158.83642        15.500


  24018585.367    24018585.402   126218549.993 6        40.000    24018585.769
  24018585.434    98352138.195 6        36.000


  24500584.364    24500584.168   128751452.505 6        36.250    24500588.384
  24500587.592   100325826.925 6        37.250    24500588.598    96145579.919 7
        43.000

  19619856.311                   104842574.746 8        50.000    19619861.288
  19619860.725    81544254.798 8        48.000


  21651501.756    21651501.019   113779765.204 8        48.000
  21651499.834    88659471.21246        39.500


  23920297.132    23920297.124   125702048.584 6        40.250    23920298.751
  23920298.764    97949709.229 6        37.000    23920299.064    93868472.256 7
        43.000

  22845461.532    22845460.875   120053772.222 7        44.000
  22845460.325    93548410.33944        28.000


  20295719.180                   108606842.313 8        49.250    20295721.988
  20295721.327    84471757.888 5        32.750


  23581166.871                   125833633.227 6        41.750    23581170.668
  23581170.762    97870610.369 6        39.750


  24651337.049    24651337.098   129543913.171 6        37.750    24651336.168
  24651335.792   100943429.924 5        32.000


  24301660.228                   130134286.015 5        32.500    24301659.124
  24301656.611   101215547.282 5        33.750


  21007984.571                   112142162.502 8        49.000    21007988.341
  21007988.180    87221752.073 7        44.750


  22945249.435                   122655503.125 6        41.500    22945254.322
  22945255.409    95398762.572 6        36.250


  20670103.131    20670103.064   108622172.012 8        50.000
  20670102.022    84640670.68847        42.000


 16  2 18  0  1 39.0000000  0 19G27G26R14G16R24G20G31G08R15G21G10G18
                                R17R02G29R08R18R01G04
  21880985.427    21880985.106   114985413.325 7        47.250    21880986.500
  21880986.809    89599056.695 7        45.000    21880987.734    85865768.841 8
        51.000

  20344265.828    20344265.609   106909874.626 8        51.500    20344268.256
  20344268.314    83306434.375 8        49.250    20344267.880    79835331.473 9
        55.250

  21813289.884                   116277123.067 6        40.000    21813296.082
  21813296.135    90437809.034 6        38.250


  20532049.124    20532048.552   107896684.349 8        50.500
  20532047.470    84075348.49847        45.000


  22540057.640                   120532144.535 6        37.500    22540058.275
  22540059.594    93747015.839 5        32.250


  23727257.124    23727256.261   124687586.665 5        34.500
  23727256.346    97159163.24942        15.250


  24019248.937    24019248.972   126222037.038 6        40.000    24019249.528
  24019248.969    98354855.364 6        36.250


  24500065.410    24500065.209   128748725.021 6        36.000    24500069.126
  24500068.620   100323701.573 6        37.000    24500069.394    96143543.143 7
        42.750

  19620159.478                   104844194.648 8        50.000    19620164.348
  19620163.909    81545514.719 8        48.250


  21651792.805    21651792.072   113781294.803 8        48.000
  21651790.909    88660663.10846        39.500


  23919680.648    23919680.635   125698807.545 6        40.250    23919682.150
  23919682.020    97947183.729 6        37.250    23919682.324    93866052.006 7
        43.000

  22845149.797    22845149.140   120052134.232 7        44.000
  22845148.603    93547133.98244        28.000


  20296105.144                   108608907.378 8        49.250    20296107.317
  20296106.991    84473364.049 5        32.750


  23580514.006                   125830148.398 6        41.750    23580518.625
  23580517.650    97867899.945 6        40.000


  24651877.270    24651877.310   129546751.505 6        37.500    24651876.367
  24651875.911   100945641.591 5        32.000


  24301990.744                   130136058.148 5        32.250    24301988.682
  24301987.555   101216925.587 5        32.500


  21007604.774                   112140135.626 8        49.250    21007608.678
  21007608.396    87220175.614 7        44.750


  22945050.063                   122654438.963 6        41.750    22945054.557
  22945056.108    95397934.886 6        36.250


  20670388.260    20670388.193   108623670.287 8        50.000
  20670387.133    84641838.17647        42.000


 16  2 18  0  1 40.0000000  0 19G27G26R14G16R24G20G31G08R15G21G10G18
                                R17R02G29R08R18R01G04
  21880605.987    21880605.661   114983419.439 7        47.250    21880607.284
  21880607.382    89597503.015 7        45.000    21880608.290    85864279.896 8
        51.000

  20344389.294    20344389.075   106910523.601 8        51.500    20344391.802
  20344391.802    83306940.065 8        49.250    20344391.382    79835816.096 9
        55.250

  21814090.957                   116281392.462 6        40.000    21814097.222
  21814097.083    90441129.681 6        38.500


  20531826.259    20531825.683   107895513.428 8        50.500
  20531824.649    84074436.09047        45.000


  22540650.819                   120535315.300 6        38.000    22540652.169
  22540652.648    93749481.993 5        31.500


  23727502.438    23727501.567   124688876.244 5        34.500
  23727501.744    97160168.13442        15.250


  24019912.562    24019912.602   126225524.121 6        40.250    24019913.389
  24019912.535    98357572.578 6        36.000


  24499546.500    24499546.308   128745997.570 6        36.250    24499550.167
  24499549.568   100321576.287 6        37.250    24499550.216    96141506.417 7
        43.000

  19620462.806                   104845815.406 8        50.000    19620467.600
  19620467.206    81546775.310 8        48.250


  21652083.989    21652083.256   113782824.783 8        48.000
  21652082.066    88661855.29946        39.500


  23919063.801    23919063.788   125695566.574 6        40.250    23919065.460
  23919065.281    97944658.303 6        37.250    23919065.661    93863631.797 7
        43.000

  22844838.219    22844837.567   120050496.644 7        43.750
  22844836.985    93545857.93744        28.000


  20296491.125                   108610972.697 8        49.250    20296494.135
  20296493.115    84474970.411 5        32.750


  23579860.939                   125826663.794 6        41.500    23579865.307
  23579864.726    97865189.698 6        39.750


  24652417.281    24652417.325   129549589.865 6        37.250    24652416.668
  24652415.962   100947853.310 5        32.250


  24302321.366                   130137830.930 5        32.000    24302318.630
  24302318.540   101218304.386 5        32.750


  21007225.227                   112138109.118 8        49.250    21007228.711
  21007228.800    87218599.432 7        45.000


  22944850.794                   122653375.558 7        42.000    22944855.959
  22944857.309    95397107.800 6        36.000


  20670673.455    20670673.388   108625169.068 8        50.000
  20670672.342    84643006.05647        42.000


 16  2 18  0  1 41.0000000  0 19G27G26R14G16R24G20G31G08R15G21G10G18
                                R17R02G29R08R18R01G04
  21880226.592    21880226.266   114981425.752 7        47.250    21880227.943
  21880227.997    89595949.499 7        45.000    21880228.864    85862791.106 8
        51.000

  20344512.996    20344512.777   106911173.098 8        51.500    20344515.349
  20344515.393    83307446.164 8        49.250    20344514.986    79836301.107 9
        55.250

  21814891.695                   116285662.195 6        40.250    21814898.103
  21814898.090    90444450.567 6        38.250


  20531603.505    20531602.933   107894342.944 8        50.500
  20531601.913    84073524.02447        45.000


  22541243.801                   120538486.101 6        37.750    22541243.827
  22541245.084    93751948.172 5        31.500


  23727747.527    23727746.656   124690166.416 5        34.500
  23727747.286    97161173.46242        15.500


  24020575.985    24020576.029   126229011.262 6        40.000    24020576.862
  24020576.124    98360289.821 6        36.250


  24499027.354    24499027.153   128743270.179 6        36.250    24499031.123
  24499030.578   100319451.057 6        37.000    24499031.029    96139469.725 7
        43.000

  19620766.255                   104847437.027 8        50.000    19620771.214
  19620770.659    81548036.570 8        48.250


  21652375.181    21652374.444   113784355.130 8        48.000
  21652373.289    88663047.77746        39.500


  23918447.133    23918447.125   125692325.679 6        40.250    23918448.926
  23918448.546    97942132.926 6        37.250    23918449.033    93861211.656 7
        43.000

  22844526.601    22844525.949   120048859.433 7        43.750
  22844525.447    93544582.19044        28.000


  20296877.263                   108613038.258 8        49.250    20296879.517
  20296878.869    84476576.941 5        33.000


  23579207.916                   125823179.404 6        41.750    23579212.661
  23579211.896    97862479.617 6        39.750


  24652957.426    24652957.470   129552428.197 6        37.500    24652956.688
  24652956.049   100950064.985 5        32.000


  24302651.479                   130139604.440 5        31.500    24302650.236
  24302649.722   101219683.779 5        32.500


  21006845.806                   112136082.950 8        49.250    21006849.191
  21006849.329    87217023.531 7        44.750


  22944652.021                   122652312.910 6        41.750    22944657.432
  22944658.550    95396281.296 6        36.250


  20670958.834    20670958.772   108626668.340 8        50.250
  20670957.645    84644174.31947        42.000


 16  2 18  0  1 42.0000000  0 19G27G26R14G16R24G20G31G08R15G21G10G18
                                R17R02G29R08R18R01G04
  21879847.327    21879847.006   114979432.277 7        47.250    21879848.597
  21879848.651    89594396.147 7        45.250    21879849.505    85861302.474 8
        51.000

  20344636.668    20344636.454   106911823.138 8        51.500    20344639.025
  20344639.092    83307952.690 8        49.000    20344638.662    79836786.529 9
        55.250

  21815692.549                   116289932.259 6        40.250    21815699.136
  21815699.082    90447771.746 6        38.250


  20531380.876    20531380.304   107893172.911 8        50.500
  20531379.262    84072612.30947        45.000


  22541836.188                   120541656.903 6        37.750    22541838.084
  22541837.672    93754414.360 5        32.250


  23727992.760    23727991.884   124691457.154 5        34.250
  23727992.903    97162179.23042        15.500


  24021239.628    24021239.672   126232498.433 6        40.000    24021241.090
  24021239.713    98363007.105 6        36.500


  24498508.516    24498508.320   128740542.878 6        36.000    24498511.946
  24498511.628   100317325.882 6        36.500    24498511.990    96137433.097 7
        43.000

  19621070.057                   104849059.508 8        50.000    19621074.846
  19621074.274    81549298.501 8        48.250


  21652666.408    21652665.675   113785885.850 8        48.000
  21652664.575    88664240.54646        39.500


  23917830.384    23917830.376   125689084.867 6        40.250    23917832.101
  23917831.846    97939607.648 6        37.000    23917832.352    93858791.579 7
        43.000

  22844215.385    22844214.742   120047222.630 7        44.000
  22844214.030    93543306.76044        28.000


  20297263.281                   108615104.081 8        49.250    20297265.628
  20297265.105    84478183.723 5        33.000


  23578555.444                   125819695.208 6        41.750    23578559.634
  23578558.950    97859769.704 6        39.750


  24653497.370    24653497.414   129555266.544 6        37.500    24653497.428
  24653496.140   100952276.710 5        31.750


  24302982.786                   130141378.589 5        30.750    24302982.080
  24302980.662   101221063.706 5        32.500


  21006466.402                   112134057.154 8        49.250    21006469.626
  21006469.925    87215447.913 7        45.000


  22944453.334                   122651251.023 7        42.000    22944459.348
  22944459.773    95395455.370 6        36.000


  20671244.231    20671244.164   108628168.111 8        50.250
  20671243.051    84645342.97247        42.000


 16  2 18  0  1 43.0000000  0 19G27G26R14G16R24G20G31G08R15G21G10G18
                                R17R02G29R08R18R01G04
  21879468.053    21879467.727   114977439.013 7        47.250    21879469.216
  21879469.346    89592842.954 7        45.250    21879470.204    85859813.994 8
        51.000

  20344760.572    20344760.358   106912473.719 8        51.750    20344762.696
  20344762.893    83308459.635 8        49.000    20344762.455    79837272.353 9
        55.000

  21816493.556                   116294202.687 6        40.250    21816500.670
  21816500.464    90451093.194 6        38.250


  20531158.337    20531157.765   107892003.323 8        50.500
  20531156.696    84071700.94147        45.000


  22542428.910                   120544827.726 6        37.500    22542431.307
  22542430.882    93756880.546 5        31.000


  23728237.997    23728237.126   124692748.495 5        34.000
  23728238.610    97163185.46642        15.500


  24021903.190    24021903.234   126235985.663 6        40.000    24021904.348
  24021903.351    98365724.407 6        36.500


  24497989.423    24497989.227   128737815.632 6        36.250    24497993.036
  24497992.763   100315200.756 6        36.750    24497993.135    96135396.532 7
        43.000

  19621373.828                   104850682.859 8        50.000    19621378.599
  19621378.076    81550561.107 8        48.250


  21652957.726    21652956.993   113787416.950 8        48.000
  21652955.928    88665433.61046        39.500


  23917213.484    23917213.471   125685844.151 6        40.250    23917215.411
  23917215.147    97937082.417 6        37.250    23917215.657    93856371.559 7
        43.000

  22843904.052    22843903.413   120045586.213 7        44.000
  22843902.630    93542031.63044        28.000


  20297649.392                   108617170.168 8        49.500    20297652.379
  20297650.912    84479790.659 5        33.000


  23577903.065                   125816211.198 7        42.000    23577906.898
  23577906.070    97857059.908 6        39.750


  24654037.551    24654037.595   129558104.888 6        37.250    24654037.547
  24654036.299   100954488.413 5        32.000


  24303313.713                   130143153.530 5        30.750    24303313.713
  24303312.153   101222444.194 5        32.000


  21006087.105                   112132031.745 8        49.250    21006090.294
  21006090.432    87213872.597 7        44.750


  22944255.138                   122650189.893 7        42.000    22944260.607
  22944261.340    95394630.065 6        36.750


  20671529.780    20671529.713   108629668.374 8        50.250
  20671528.541    84646512.00647        42.000


 16  2 18  0  1 44.0000000  0 19G27G26R14G16R24G20G31G08R15G21G10G18
                                R17R02G29R08R18R01G04
  21879088.806    21879088.485   114975445.945 7        47.000    21879090.022
  21879090.080    89591289.922 7        45.000    21879090.912    85858325.676 8
        51.000

  20344884.579    20344884.365   106913124.818 8        51.500    20344886.641
  20344886.788    83308966.987 8        49.000    20344886.372    79837758.566 9
        55.250

  21817294.732                   116298473.423 6        40.250    21817302.155
  21817301.663    90454414.874 6        38.500


  20530935.851    20530935.279   107890834.179 8        50.500
  20530934.215    84070789.92047        45.000


  22543021.789                   120547998.577 6        37.750    22543024.432
  22543023.721    93759346.773 5        31.750


  23728482.908    23728482.054   124694040.416 5        33.750
  23728484.428    97164192.16542        15.500


  24022566.828    24022566.877   126239472.915 6        40.000    24022567.776
  24022567.016    98368441.750 6        36.500


  24497470.147    24497469.955   128735088.486 6        36.000    24497474.140
  24497473.787   100313075.689 6        36.750    24497474.265    96133360.016 7
        43.000

  19621677.826                   104852307.063 8        50.000    19621682.553
  19621682.039    81551824.376 8        48.000


  21653249.186    21653248.453   113788948.417 7        47.750
  21653247.357    88666626.96046        39.750


  23916596.610    23916596.593   125682603.489 6        40.000    23916598.550
  23916598.466    97934557.226 6        37.250    23916598.917    93853951.597 7
        43.000

  22843592.836    22843592.193   120043950.185 7        43.750
  22843591.343    93540756.80744        28.000


  20298035.588                   108619236.508 8        49.500    20298038.866
  20298037.055    84481397.810 5        33.250


  23577250.285                   125812727.351 7        42.000    23577253.813
  23577253.330    97854350.260 6        39.750


  24654577.772    24654577.825   129560943.211 6        37.500    24654577.951
  24654576.520   100956700.093 5        32.000


  24303644.622                   130144929.112 5        30.750    24303644.417
  24303644.001   101223825.182 5        31.750


  21005707.666                   112130006.684 8        49.250    21005711.024
  21005711.145    87212297.547 7        44.750


  22944057.322                   122649129.510 7        42.250    22944062.120
  22944062.997    95393805.323 6        36.000


  20671815.445    20671815.378   108631169.135 8        50.250
  20671814.131    84647681.43047        42.250


 16  2 18  0  1 45.0000000  0 19G27G26R14G16R24G20G31G08R15G21G10G18
                                R17R02G29R08R18R01G04
  21878709.590    21878709.264   114973453.131 7        47.250    21878710.762
  21878710.860    89589737.069 7        45.250    21878711.692    85856837.521 8
        51.000

  20345008.609    20345008.395   106913776.457 8        51.500    20345010.630
  20345010.795    83309474.756 8        49.000    20345010.366    79838245.176 9
        55.250

  21818096.364                   116302744.513 6        40.000    21818103.063
  21818102.888    90457736.826 6        38.250


  20530713.567    20530712.995   107889665.483 8        50.750
  20530711.819    84069879.24647        45.000


  22543614.601                   120551169.449 6        37.750    22543617.624
  22543616.685    93761813.004 5        31.500


  23728729.428    23728728.583   124695332.894 5        34.250
  23728730.363    97165199.32242        15.000


  24023230.086    24023230.139   126242960.235 6        40.000    24023231.575
  24023230.676    98371159.147 6        36.750


  24496951.363    24496951.171   128732361.384 6        36.250    24496955.146
  24496954.810   100310950.683 6        37.000    24496955.517    96131323.552 7
        43.250

  19621981.892                   104853932.133 8        50.000    19621986.610
  19621986.185    81553088.321 8        48.250


  21653540.705    21653539.972   113790480.266 7        47.750
  21653538.862    88667820.61046        39.750


  23915979.875    23915979.858   125679362.920 6        40.000    23915982.102
  23915981.847    97932032.100 6        37.250    23915982.200    93851531.691 7
        43.000

  22843281.464    22843280.816   120042314.553 7        44.000
  22843280.122    93539482.28644        28.250


  20298421.748                   108621303.121 8        49.500    20298424.078
  20298423.626    84483005.219 5        32.500


  23576597.338                   125809243.687 7        42.000    23576600.137
  23576600.652    97851640.740 6        40.000


  24655118.172    24655118.221   129563781.556 6        38.000    24655118.324
  24655116.665   100958911.763 5        32.000


  24303975.527                   130146705.455 4        29.250    24303975.268
  24303976.001   101225206.783 5        32.000


  21005328.521                   112127982.003 8        49.250    21005331.799
  21005331.741    87210722.794 7        44.750


  22943858.975                   122648069.888 7        42.500    22943864.157
  22943864.837    95392981.176 6        36.000


  20672101.142    20672101.075   108632670.400 8        50.250
  20672099.818    84648851.24847        42.250


 16  2 18  0  1 46.0000000  0 19G27G26R14G16R24G20G31G08R15G21G10G18
                                R17R02G29R08R18R01G04
  21878330.472    21878330.151   114971460.502 7        47.250    21878331.631
  21878331.680    89588184.369 7        45.250    21878332.494    85855349.526 8
        51.000

  20345132.705    20345132.486   106914428.628 8        51.750    20345134.619
  20345134.896    83309982.942 8        49.250    20345134.463    79838732.187 9
        55.250

  21818897.773                   116307015.946 6        40.000    21818904.122
  21818904.087    90461059.048 6        38.250


  20530491.309    20530490.737   107888497.237 8        50.750
  20530489.507    84068968.92547        44.750


  22544207.149                   120554340.328 6        37.500    22544208.987
  22544209.756    93764279.243 5        31.000


  23728976.275    23728975.439   124696626.005 5        34.000
  23728976.441    97166206.92242        15.000


  24023893.786    24023893.839   126246447.596 6        39.500    24023894.900
  24023894.292    98373876.554 6        36.750


  24496432.807    24496432.624   128729634.358 6        36.500    24496436.460
  24496435.896   100308825.730 6        37.500    24496436.764    96129287.137 7
        43.250

  19622286.106                   104855558.055 8        50.000    19622290.922
  19622290.457    81554352.927 8        48.000


  21653832.254    21653831.521   113792012.489 7        47.750
  21653830.439    88669014.55146        39.750


  23915363.216    23915363.203   125676122.431 6        40.000    23915364.763
  23915365.174    97929507.052 6        37.250    23915365.487    93849111.848 7
        43.000

  22842970.346    22842969.698   120040679.313 7        44.000
  22842968.951    93538208.07544        28.250


  20298808.101                   108623369.985 8        49.750    20298810.659
  20298809.738    84484612.760 5        32.500


  23575944.271                   125805760.196 6        41.750    23575947.638
  23575947.889    97848931.364 6        40.250


  24655658.411    24655658.455   129566619.885 6        38.000    24655657.928
  24655656.770   100961123.468 5        32.250


  24304305.559                   130148482.438 4        28.750    24304305.032
  24304307.840   101226588.920 5        32.250


  21004949.194                   112125957.701 8        49.250    21004952.547
  21004952.503    87209148.341 7        45.000


  22943661.315                   122647011.028 7        42.500    22943666.426
  22943666.816    95392157.604 5        35.500


  20672387.030    20672386.968   108634172.166 8        50.250
  20672385.591    84650021.45447        42.250


 16  2 18  0  1 47.0000000  0 19G27G26R14G16R24G20G31G08R15G21G10G18
                                R17R02G29R08R18R01G04
  21877951.382    21877951.056   114969468.081 7        47.250    21877952.482
  21877952.531    89586631.841 7        45.250    21877953.345    85853861.678 8
        51.000

  20345256.918    20345256.704   106915081.331 8        51.750    20345258.836
  20345259.105    83310491.543 8        49.250    20345258.657    79839219.599 9
        55.250

  21819698.855                   116311287.678 6        39.750    21819705.880
  21819705.701    90464381.524 6        38.500


  20530269.150    20530268.578   107887329.435 8        50.750
  20530267.286    84068058.94947        44.750


  22544800.239                   120557511.286 6        37.500    22544803.534
  22544802.792    93766745.527 5        31.750


  23729222.130    23729221.312   124697919.681 5        34.750
  23729222.622    97167214.97142        15.000


  24024557.236    24024557.289   126249934.981 6        39.750    24024558.480
  24024557.938    98376593.994 6        36.750


  24495914.152    24495913.978   128726907.398 6        36.750    24495917.385
  24495917.014   100306700.830 6        37.250    24495917.926    96127250.785 7
        43.000

  19622590.476                   104857184.834 8        50.000    19622595.444
  19622594.921    81555618.193 8        48.000


  21654123.880    21654123.143   113793545.082 7        47.750
  21654122.087    88670208.77946        39.750


  23914746.583    23914746.570   125672882.028 6        40.000    23914748.153
  23914748.542    97926982.079 6        37.250    23914748.801    93846692.074 7
        43.000

  22842659.211    22842658.563   120039044.462 7        44.000
  22842657.860    93536934.16844        28.250


  20299194.539                   108625437.102 8        49.750    20299197.539
  20299196.216    84486220.484 5        32.750


  23575291.401                   125802276.876 6        41.500    23575295.269
  23575295.273    97846222.113 6        40.000


  24656198.959    24656198.994   129569458.217 6        38.000    24656198.673
  24656196.906   100963335.143 5        32.000


  24304636.951                   130150260.140 4        28.000    24304637.761
  24304639.778   101227971.547 5        32.250


  21004570.076                   112123933.791 8        49.000    21004573.564
  21004573.394    87207574.188 7        45.000


  22943463.612                   122645952.922 7        42.500    22943468.848
  22943468.776    95391334.619 5        35.750


  20672672.941    20672672.874   108635674.424 8        50.250
  20672671.461    84651192.04647        42.250


 16  2 18  0  1 48.0000000  0 19G27G26R14G16R24G20G31G08R15G21G10G18
                                R17R02G29R08R18R01G04
  21877572.193    21877571.872   114967475.878 7        47.500    21877573.310
  21877573.427    89585079.465 7        45.000    21877574.254    85852373.995 8
        51.000

  20345381.251    20345381.037   106915734.566 8        51.750    20345383.201
  20345383.416    83311000.558 8        49.250    20345382.982    79839707.405 9
        55.250

  21820500.657                   116315559.771 6        39.500    21820507.351
  21820507.029    90467704.245 6        38.500


  20530047.067    20530046.495   107886162.075 8        50.750
  20530045.144    84067149.31647        44.750


  22545393.247                   120560682.219 6        37.250    22545396.333
  22545395.362    93769211.837 5        31.000


  23729469.053    23729468.249   124699213.959 5        35.000
  23729468.927    97168223.48942        14.750


  24025220.865    24025220.923   126253422.426 6        39.750    24025222.368
  24025221.626    98379311.487 6        36.750


  24495395.292    24495395.118   128724180.520 6        36.750    24495398.104
  24495398.198   100304575.987 6        37.250    24495398.905    96125214.463 7
        43.000

  19622895.038                   104858812.458 8        50.000    19622900.006
  19622899.532    81556884.127 8        48.000


  21654415.618    21654414.885   113795078.051 7        47.750
  21654413.811    88671403.30046        39.750


  23914129.875    23914129.858   125669641.682 6        40.000    23914131.176
  23914131.950    97924457.129 6        37.000    23914132.124    93844272.326 7
        42.750

  22842347.955    22842347.307   120037410.014 7        44.000
  22842346.841    93535660.57144        28.250


  20299581.061                   108627504.477 8        49.750    20299583.977
  20299582.506    84487828.451 5        32.500


  23574637.985                   125798793.767 6        41.250    23574642.604
  23574642.492    97843513.028 6        40.250


  24656738.957    24656738.988   129572296.574 6        38.000    24656738.576
  24656737.061   100965546.819 5        32.250


                                                                  24304969.126
  24304971.335   101229354.741 5        32.250


  21004190.798                   112121910.244 8        49.000    21004194.496
  21004194.245    87206000.315 7        44.750


  22943266.145                   122644895.563 7        42.500    22943270.666
  22943271.005    95390512.224 6        36.500


  20672958.915    20672958.848   108637177.177 8        50.250
  20672957.431    84652363.02247        42.250


 16  2 18  0  1 49.0000000  0 19G27G26R14G16R24G20G31G08R15G21G10G18
                                R17R02G29R08R18R01G04
  21877193.209    21877192.883   114965483.878 7        47.500    21877194.224
  21877194.367    89583527.266 7        45.250    21877195.163    85850886.465 8
        51.000

  20345505.647    20345505.433   106916388.333 8        51.750    20345507.543
  20345507.825    83311509.987 8        49.000    20345507.378    79840195.607 9
        55.000

  21821301.887                   116319832.203 6        39.750    21821308.997
  21821308.348    90471027.252 6        38.250


  20529825.069    20529824.493   107884995.169 8        51.000
  20529823.088    84066240.04047        45.000


  22545986.278                   120563853.156 6        37.500    22545988.993
  22545988.519    93771678.140 5        32.250


  23729716.137    23729715.337   124700508.803 5        35.250
  23729715.345    97169232.45142        14.750


  24025884.427    24025884.485   126256909.912 6        39.750    24025885.885
  24025885.277    98382028.990 6        36.750


  24494876.776    24494876.602   128721453.690 6        37.000    24494879.226
  24494879.320   100302451.171 6        37.000    24494879.857    96123178.202 7
        43.000

  19623199.757                   104860440.945 8        49.750    19623204.787
  19623204.210    81558150.729 8        48.250


  21654707.320    21654706.587   113796611.386 7        47.750
  21654705.598    88672598.10846        39.750


  23913513.645    23913513.632   125666401.434 6        40.000    23913514.678
  23913515.389    97921932.264 6        37.250    23913515.438    93841852.674 7
        42.750

  22842037.002    22842036.359   120035775.942 7        44.000
  22842035.876    93534387.26944        28.250


  20299967.553                   108629572.113 8        49.750    20299970.267
  20299968.773    84489436.595 5        32.000


  23573985.155                   125795310.840 6        41.000    23573989.685
  23573989.904    97840804.078 6        40.250


  24657278.945    24657278.976   129575134.888 6        38.500    24657278.315
  24657277.242   100967758.541 5        32.500


                                                                  24305300.402
  24305303.487   101230738.520 5        31.750


  21003811.868                   112119887.061 8        49.000    21003815.485
  21003815.280    87204426.728 7        44.750


  22943068.638                   122643838.952 7        42.750    22943072.577
  22943073.351    95389690.435 6        36.000


  20673244.826    20673244.759   108638680.434 8        50.250
  20673243.498    84653534.39247        42.250


 16  2 18  0  1 50.0000000  0 19G27G26R14G16R24G20G31G08R15G21G10G18
                                R17R02G29R08R18R01G04
  21876814.212    21876813.886   114963492.089 7        47.500    21876815.303
  21876815.348    89581975.226 7        45.250    21876816.157    85849399.085 8
        51.000

  20345630.142    20345629.928   106917042.647 8        51.750    20345631.984
  20345632.333    83312019.841 8        49.000    20345631.890    79840684.217 9
        55.000

  21822103.305                   116324104.975 6        39.500    21822110.441
  21822109.967    90474350.514 6        38.250


  20529603.196    20529602.624   107883828.709 8        51.000
  20529601.121    84065331.11247        45.000


  22546579.752                   120567024.095 6        37.500    22546581.970
  22546581.644    93774144.391 5        31.750


  23729962.349    23729961.536   124701804.250 5        35.250
  23729961.852    97170241.89442        15.000


  24026548.124    24026548.182   126260397.428 6        39.500    24026549.152
  24026548.911    98384746.555 6        36.500


  24494357.670    24494357.501   128718726.934 6        37.000    24494360.286
  24494360.420   100300326.441 6        37.000    24494360.760    96121141.992 7
        43.000

  19623504.712                   104862070.284 8        49.750    19623509.703
  19623509.117    81559417.997 8        48.000


  21654999.129    21654998.396   113798145.095 7        47.750
  21654997.456    88673793.20446        39.750


  23912896.888    23912896.875   125663161.262 6        40.000    23912898.466
  23912898.824    97919407.449 6        37.250    23912898.757    93839433.074 7
        42.750

  22841726.113    22841725.470   120034142.276 7        44.000
  22841724.986    93533114.28244        28.250


  20300354.093                   108631640.014 8        49.750    20300356.141
  20300355.265    84491044.987 5        32.500


  23573332.455                   125791828.091 6        41.000    23573337.262
  23573337.092    97838095.257 6        40.250


  24657818.916    24657818.933   129577973.219 6        38.500    24657818.415
  24657817.396   100969970.214 5        32.250


                                                                  24305633.479
  24305635.760   101232122.839 5        32.000


  21003432.884                   112117864.215 8        49.000    21003436.484
  21003436.265    87202853.406 7        45.000


  22942870.996                   122642783.115 7        42.500    22942875.079
  22942876.022    95388869.232 6        36.000


  20673530.934    20673530.867   108640184.186 8        50.250
  20673529.655    84654706.14647        42.250


