     2.11           OBSERVATION DATA    M (MIXED)           RINEX VERSION / TYPE
sbf2rin-9.3.3                           20160218 001903 LCL COMMENT             
gfzrnx-1.02-6427    FILE CONVERSION     20160219 043642 UTC PGM / RUN BY / DATE 
NNOR                                                        MARKER NAME         
50181M001                                                   MARKER NUMBER       
AUTOMATIC           ESA/ESOC                                OBSERVER / AGENCY   
3001353             SEPT POLARX4        2.9.0               REC # / TYPE / VERS 
5122                SEPCHOKE_MC     NONE                    ANT # / TYPE        
 -2414151.4460  4907778.5040 -3270645.1870                  APPROX POSITION XYZ 
        0.1121        0.0000        0.0000                  ANTENNA: DELTA H/E/N
                                                            COMMENT             
**********************************************************  COMMENT             
*              WARNING - FORMAT CONVERSION               *  COMMENT             
*  ----------------------------------------------------  *  COMMENT             
*  The data values (observation, loss of lock indicator  *  COMMENT             
*      (LLI), signal strength) are left as they are.     *  COMMENT             
*  The LLI meaning differs between versions 2 and 3 and  *  COMMENT             
*    the Interpretation of bit 1 and 2 has to be used    *  COMMENT             
*                  with caution !!!                      *  COMMENT             
**********************************************************  COMMENT             
                                                            COMMENT             
RINEX 3 -> 2 TYPE CONVERSION DETAILS:                       COMMENT             
-------------------------------------                       COMMENT             
   G C1C -> C1                                              COMMENT             
   G C2L -> C2                                              COMMENT             
   G D1C -> D1                                              COMMENT             
   G D2L -> D2                                              COMMENT             
   G L1C -> L1                                              COMMENT             
   G L2L -> L2                                              COMMENT             
   G S1C -> S1                                              COMMENT             
   G S2L -> S2                                              COMMENT             
-------------------------------------                       COMMENT             
                                                            COMMENT             
     8    C1    C2    D1    D2    L1    L2    S1    S2      # / TYPES OF OBSERV 
    11                                                      # OF SATELLITES     
   G02   900         900         900         900            PRN / # OF OBS      
   G06   900   900   900   900   900   900   900   900      PRN / # OF OBS      
   G12   900   900   900   900   900   900   900   900      PRN / # OF OBS      
   G13   900         900         900         900            PRN / # OF OBS      
   G15   900   900   900   900   900   900   900   900      PRN / # OF OBS      
   G17   314   295   314   295   313   295   314   295      PRN / # OF OBS      
   G19   900         900         900         900            PRN / # OF OBS      
   G24   900   900   900   900   900   900   900   900      PRN / # OF OBS      
   G25   900   900   900   900   900   900   900   900      PRN / # OF OBS      
   G29   900   900   900   900   900   900   900   900      PRN / # OF OBS      
   G32   900   900   900   900   900   900   900   900      PRN / # OF OBS      
     1.000                                                  INTERVAL            
  2016     2    18     0     0    0.0000000     GPS         TIME OF FIRST OBS   
  2016     2    18     0    14   59.0000000     GPS         TIME OF LAST OBS    
                                                            END OF HEADER      
 16 02 18 00 00 00.0000000  0 11G02G06G12G13G15G17G19G24G25G29G32   
  22236841.603 7                      2788.493 7                 116855388.29007
                        45.250                  
  22668215.533 7  22668218.627 7       565.594 7       440.755 7 119122289.04207
  92822578.28707        44.000          42.000  
  21222710.784 8  21222710.086 7       685.429 8       534.103 7 111526100.15208
  86903455.33707        49.000          43.750  
  24191435.230 6                     -3584.832 6                 127126788.69106
                        39.500                  
  22234122.818 7  22234123.466 6     -2662.658 7     -2074.669 6 116841087.77607
  91044985.35106        46.250          41.750  
  24395642.548 5  24395642.727 5     -3678.473 5     -2866.345 5 128199949.52505
  99896049.69205        33.000          30.250  
  22649320.485 7                     -2575.305 7                 119022985.35007
                        47.500                  
  20258122.606 8  20258124.654 8       978.066 8       762.111 8 106457138.45508
  82953622.39308        51.250          49.250  
  23458388.969 6  23458392.596 6      1902.556 6      1482.666 6 123274677.77006
  96058205.19806        41.500          39.250  
  24664574.019 6  24664576.787 5      3535.927 6      2755.320 5 129613207.88006
 100997303.64905        37.750          33.750  
  22869628.296 7  22869631.936 7     -3056.340 7     -2381.597 7 120180675.21807
  93647276.54007        45.750          42.750  
 16 02 18 00 00 01.0000000  0 11G02G06G12G13G15G17G19G24G25G29G32   
  22236311.000 7                      2788.106 7                 116852599.96407
                        45.250                  
  22668107.968 7  22668111.129 7       565.113 7       440.317 7 119121723.68707
  92822137.74507        44.000          42.000  
  21222580.351 8  21222579.917 7       685.351 8       534.132 7 111525414.78308
  86902921.28007        49.000          43.750  
  24192117.309 6                     -3584.900 6                 127130373.59306
                        39.000                  
  22234629.734 7  22234630.284 6     -2662.948 7     -2075.037 6 116843750.56607
  91047060.25806        46.250          41.750  
  24396342.366 5  24396342.375 5     -3678.648 5     -2866.330 5 128203628.17105
  99898916.15305        33.250          30.000  
  22649810.579 7                     -2575.582 7                 119025560.78007
                        47.500                  
  20257936.515 8  20257938.532 8       977.660 8       761.794 8 106456160.56808
  82952860.39908        51.250          49.250  
  23458027.099 6  23458030.332 6      1902.617 6      1482.410 6 123272775.19706
  96056722.66706        41.500          39.500  
  24663901.103 6  24663904.354 5      3535.942 6      2755.413 5 129609672.03006
 100994548.42005        38.000          33.500  
  22870209.996 7  22870213.560 7     -3056.623 7     -2381.699 7 120183731.74807
  93649658.24107        45.750          42.750  
 16 02 18 00 00 02.0000000  0 11G02G06G12G13G15G17G19G24G25G29G32   
  22235780.322 7                      2787.887 7                 116849811.92707
                        45.000                  
  22668000.582 7  22668003.779 7       564.528 7       439.943 7 119121158.86807
  92821697.63407        44.000          42.000  
  21222449.990 8  21222449.493 7       685.193 8       533.943 7 111524729.53508
  86902387.31007        49.000          43.750  
  24192799.258 6                     -3584.861 6                 127133958.48606
                        38.500                  
  22235136.530 7  22235136.901 6     -2663.249 7     -2075.312 6 116846413.64707
  91049135.38806        46.250          41.750  
  24397041.938 5  24397043.078 5     -3678.570 5     -2866.183 5 128207306.88205
  99901782.64305        33.250          30.500  
  22650300.731 7                     -2575.858 7                 119028136.47807
                        47.250                  
  20257750.545 8  20257752.512 8       977.142 8       761.389 8 106455183.15508
  82952098.78408        51.000          49.250  
  23457664.888 6  23457668.220 6      1902.416 6      1482.420 6 123270872.68106
  96055240.19506        41.000          39.500  
  24663228.378 6  24663231.875 5      3535.727 6      2754.792 5 129606136.30006
 100991793.32805        37.750          34.000  
  22870791.723 7  22870795.305 7     -3056.844 7     -2381.919 7 120186788.46807
  93652040.09907        45.500          42.750  
 16 02 18 00 00 03.0000000  0 11G02G06G12G13G15G17G19G24G25G29G32   
  22235249.799 7                      2787.542 7                 116847024.18707
                        45.000                  
  22667893.209 7  22667896.496 7       564.009 7       439.377 7 119120594.63107
  92821257.97607        44.250          42.000  
  21222319.557 8  21222318.922 7       685.030 8       533.769 7 111524044.43308
  86901853.47007        49.000          43.750  
  24193481.145 6                     -3584.895 6                 127137543.40306
                        38.750                  
  22235643.420 7  22235643.621 6     -2663.554 7     -2075.448 6 116849077.05107
  91051210.76506        46.250          41.500  
  24397741.313 5  24397743.393 4     -3678.564 5     -2866.746 4 128210985.69605
  99904649.30804        32.750          29.750  
  22650790.879 7                     -2576.160 7                 119030712.48007
                        47.250                  
  20257564.561 8  20257566.636 8       976.670 8       761.069 8 106454206.21408
  82951337.52708        51.250          49.250  
  23457302.812 6  23457306.269 6      1902.335 6      1482.376 6 123268970.24006
  96053757.76306        41.250          39.500  
  24662555.422 6  24662559.030 5      3535.535 6      2754.965 5 129602600.69206
 100989038.27905        38.000          33.500  
  22871373.338 7  22871377.090 7     -3057.054 7     -2382.085 7 120189845.39607
  93654422.12507        45.750          42.750  
 16 02 18 00 00 04.0000000  0 11G02G06G12G13G15G17G19G24G25G29G32   
  22234719.223 7                      2787.246 7                 116844236.75607
                        45.000                  
  22667785.939 7  22667789.239 7       563.359 7       439.076 7 119120030.97807
  92820818.75307        44.250          42.000  
  21222189.205 8  21222188.480 7       684.909 8       533.647 7 111523359.47008
  86901319.73807        49.000          44.000  
  24194163.144 6                     -3585.073 6                 127141128.33006
                        38.500                  
  22236150.256 7  22236150.614 6     -2663.894 7     -2075.758 6 116851740.78007
  91053286.39206        46.250          41.750  
  24398441.225 5  24398443.765 5     -3678.956 5     -2866.338 5 128214664.62505
  99907515.95305        33.250          30.250  
  22651281.148 7                     -2576.427 7                 119033288.76607
                        47.500                  
  20257378.725 8  20257380.885 8       976.242 8       760.760 8 106453229.75108
  82950576.64308        51.250          49.250  
  23456940.727 6  23456944.268 6      1902.354 6      1482.450 6 123267067.87206
  96052275.39306        41.000          39.750  
  24661882.438 6  24661886.373 5      3535.296 6      2754.957 5 129599065.21406
 100986283.37105        37.750          33.750  
  22871955.306 7  22871959.013 7     -3057.182 7     -2382.208 7 120192902.53207
  93656804.30907        46.000          42.750  
 16 02 18 00 00 05.0000000  0 11G02G06G12G13G15G17G19G24G25G29G32   
  22234188.974 7                      2786.994 7                 116841449.62007
                        45.000                  
  22667678.813 7  22667682.381 7       562.881 7       438.569 7 119119467.87907
  92820379.97607        44.000          42.000  
  21222058.870 8  21222058.289 7       684.812 8       533.622 7 111522674.64408
  86900786.10407        48.750          43.750  
  24194845.361 6                     -3585.089 6                 127144713.27606
                        38.500                  
  22236657.177 7  22236657.298 6     -2664.148 7     -2075.845 6 116854404.81507
  91055362.25806        46.000          41.500  
  24399141.289 5  24399143.838 5     -3679.164 5     -2866.858 5 128218343.61405
  99910382.74405        33.000          30.750  
  22651771.332 7                     -2576.681 7                 119035865.34507
                        47.250                  
  20257193.014 8  20257195.192 8       975.762 8       760.391 8 106452253.76308
  82949816.13308        51.000          49.250  
  23456578.659 6  23456582.161 6      1902.317 6      1482.113 6 123265165.56806
  96050793.10506        41.250          39.500  
  24661209.660 6  24661212.687 5      3535.310 6      2754.707 5 129595529.86306
 100983528.55805        38.000          33.500  
  22872536.975 7  22872540.700 7     -3057.401 7     -2382.250 7 120195959.88607
  93659186.66407        46.000          42.750  
 16 02 18 00 00 06.0000000  0 11G02G06G12G13G15G17G19G24G25G29G32   
  22233658.648 7                      2786.741 7                 116838662.78407
                        45.000                  
  22667571.838 7  22667575.433 7       562.264 7       438.198 7 119118905.35207
  92819941.63807        44.250          42.000  
  21221928.514 8  21221927.896 7       684.594 8       533.482 7 111521989.95908
  86900252.57407        48.750          43.750  
  24195527.449 6                     -3584.833 6                 127148298.20406
                        38.000                  
  22237164.290 7  22237164.322 6     -2664.562 7     -2076.237 6 116857069.16607
  91057438.38606        46.250          41.500  
  24399841.514 5  24399843.812 5     -3679.137 5     -2866.782 5 128222022.69305
  99913249.54605        32.500          30.000  
  22652261.708 7                     -2577.045 7                 119038442.20807
                        47.500                  
  20257007.325 8  20257009.552 8       975.289 8       759.973 8 106451278.22808
  82949055.97708        51.000          49.250  
  23456216.668 6  23456220.120 6      1902.194 6      1482.124 6 123263263.32806
  96049310.84306        41.000          39.500  
  24660536.918 6  24660540.271 5      3535.197 6      2754.465 5 129591994.65306
 100980773.83305        38.000          33.750  
  22873118.903 7  22873122.301 7     -3057.635 7     -2382.587 7 120199017.43007
  93661569.16807        46.000          42.750  
 16 02 18 00 00 07.0000000  0 11G02G06G12G13G15G17G19G24G25G29G32   
  22233128.126 7                      2786.320 7                 116835876.25807
                        45.000                  
  22667465.015 7  22667468.414 7       561.727 7       437.666 7 119118343.39207
  92819503.74707        44.250          42.000  
  21221798.246 8  21221797.696 7       684.528 8       533.323 7 111521305.40708
  86899719.17307        48.750          43.750  
  24196209.881 6                     -3584.754 6                 127151883.12006
                        38.000                  
  22237671.372 7  22237671.690 6     -2664.836 7     -2076.562 6 116859733.83007
  91059514.74406        46.250          41.500  
  24400542.208 5  24400544.332 5     -3679.289 5     -2866.841 5 128225701.85505
  99916116.45805        32.750          30.250  
  22652752.133 7                     -2577.290 7                 119041019.36307
                        47.500                  
  20256821.789 8  20256824.060 8       974.794 8       759.600 8 106450303.15508
  82948296.18508        51.250          49.250  
  23455854.561 6  23455858.710 6      1902.119 6      1482.110 6 123261361.19106
  96047828.64106        41.250          39.750  
  24659864.439 6  24659867.981 5      3535.017 6      2754.593 5 129588459.54906
 100978019.22505        38.500          33.750  
  22873700.831 7  22873704.207 7     -3057.808 7     -2382.647 7 120202075.20207
  93663951.84407        45.750          42.750  
 16 02 18 00 00 08.0000000  0 11G02G06G12G13G15G17G19G24G25G29G32   
  22232597.921 7                      2786.056 7                 116833090.04507
                        45.000                  
  22667358.121 7  22667361.703 7       561.147 7       437.140 7 119117782.01707
  92819066.32407        44.250          42.250  
  21221668.042 8  21221667.630 7       684.369 8       533.300 7 111520620.99708
  86899185.85907        49.000          44.000  
  24196891.853 6                     -3584.909 6                 127155468.10506
                        37.750                  
  22238178.517 7  22238179.232 6     -2665.056 7     -2076.699 6 116862398.79507
  91061591.33606        46.250          41.750  
  24401242.482 5  24401244.450 5     -3679.460 5     -2866.848 5 128229381.12505
  99918983.36505        32.750          31.000  
  22653242.648 7                     -2577.553 7                 119043596.81107
                        47.500                  
  20256636.337 8  20256638.649 8       974.412 8       759.207 8 106449328.55008
  82947536.75208        51.250          49.250  
  23455492.802 6  23455496.916 6      1901.902 6      1482.016 6 123259459.11306
  96046346.50406        41.500          39.500  
  24659191.728 6  24659194.702 5      3534.884 6      2754.478 5 129584924.59206
 100975264.69505        38.000          33.750  
  22874282.616 7  22874286.126 7     -3058.014 7     -2382.991 7 120205133.18807
  93666334.68607        45.750          42.750  
 16 02 18 00 00 09.0000000  0 11G02G06G12G13G15G17G19G24G25G29G32   
  22232067.641 7                      2785.805 7                 116830304.12107
                        45.000                  
  22667251.245 7  22667254.974 7       560.521 7       436.770 7 119117221.20507
  92818629.32007        44.250          42.000  
  21221537.958 8  21221537.394 7       684.180 8       533.170 7 111519936.73408
  86898652.66507        49.000          43.750  
  24197573.963 6                     -3584.877 6                 127159053.04706
                        38.000                  
  22238685.648 7  22238686.337 6     -2665.448 7     -2076.952 6 116865064.08507
  91063668.18306        46.250          41.500  
  24401942.801 5  24401944.911 5     -3679.127 5     -2866.992 5 128233060.43405
  99921850.37005        33.000          31.000  
  22653733.194 7                     -2577.805 7                 119046174.54507
                        47.500                  
  20256450.966 8  20256453.291 8       973.880 8       758.871 8 106448354.40208
  82946777.67608        51.250          49.250  
  23455131.003 6  23455134.920 6      1901.892 6      1481.992 6 123257557.09506
  96044864.42806        41.500          40.000  
  24658518.946 6  24658521.853 5      3534.707 6      2754.410 5 129581389.75006
 100972510.25805        38.000          34.000  
  22874864.495 7  22874868.063 7     -3058.213 7     -2383.083 7 120208191.36907
  93668717.68407        45.750          42.500  
 16 02 18 00 00 10.0000000  0 11G02G06G12G13G15G17G19G24G25G29G32   
  22231537.668 7                      2785.437 7                 116827518.51707
                        45.000                  
  22667144.481 7  22667148.255 7       559.900 7       436.277 7 119116660.96007
  92818192.76607        44.250          42.000  
  21221407.757 8  21221407.060 7       684.070 8       533.047 7 111519252.61008
  86898119.58407        49.000          43.750  
  24198255.827 6                     -3584.939 6                 127162638.01406
                        38.000                  
  22239192.806 7  22239193.575 6     -2665.774 7     -2077.169 6 116867729.71007
  91065745.28906        46.000          41.500  
  24402642.789 5  24402644.989 5     -3679.619 5     -2867.827 5 128236739.86305
  99924717.50605        32.750          30.750  
  22654223.811 7                     -2578.153 7                 119048752.58607
                        47.500                  
  20256265.787 8  20256267.969 8       973.517 8       758.501 8 106447380.70408
  82946018.95208        51.250          49.250  
  23454769.262 6  23454773.005 6      1901.792 6      1481.989 6 123255655.16706
  96043382.38606        41.750          40.000  
  24657846.302 6  24657849.070 5      3534.685 6      2754.275 5 129577855.04606
 100969755.94905        38.000          34.250  
  22875446.490 7  22875449.973 7     -3058.499 7     -2383.251 7 120211249.77407
  93671100.85207        45.750          42.500  
 16 02 18 00 00 11.0000000  0 11G02G06G12G13G15G17G19G24G25G29G32   
  22231007.835 7                      2785.226 7                 116824733.19807
                        45.000                  
  22667038.043 7  22667041.651 7       559.404 7       435.846 7 119116101.29307
  92817756.66407        44.250          42.000  
  21221277.611 8  21221276.958 7       683.946 8       532.942 7 111518568.62208
  86897586.60507        49.000          43.750  
  24198938.631 6                     -3584.827 6                 127166222.99406
                        37.750                  
  22239700.121 7  22239700.751 6     -2666.065 7     -2077.491 6 116870395.65007
  91067822.64606        46.000          41.250  
  24403343.268 5  24403344.672 5     -3679.185 5     -2867.423 5 128240419.32105
  99927584.63205        32.500          30.250  
  22654714.464 7                     -2578.461 7                 119051330.90607
                        47.500                  
  20256080.573 8  20256082.652 8       972.994 8       758.200 8 106446407.49908
  82945260.60408        51.250          49.250  
  23454407.427 7  23454411.018 6      1901.822 7      1481.834 6 123253753.31207
  96041900.43206        42.000          40.000  
  24657173.757 6  24657176.775 5      3534.546 6      2753.814 5 129574320.45606
 100967001.74305        38.000          34.000  
  22876028.512 7  22876031.919 7     -3058.763 7     -2383.381 7 120214308.38007
  93673484.18107        46.000          42.500  
 16 02 18 00 00 12.0000000  0 11G02G06G12G13G15G17G19G24G25G29G32   
  22230477.952 7                      2784.847 7                 116821948.19907
                        45.250                  
  22666931.806 7  22666935.343 7       558.734 7       435.452 7 119115542.19607
  92817320.99307        44.250          42.000  
  21221147.437 8  21221146.941 7       683.750 8       532.779 7 111517884.78208
  86897053.74607        49.000          43.750  
  24199620.737 6                     -3585.096 6                 127169807.96406
                        37.750                  
  22240207.583 7  22240207.806 6     -2666.444 7     -2077.724 6 116873061.89807
  91069900.23706        46.250          41.500  
  24404043.180 5  24404043.480 4     -3679.926 5     -2867.524 4 128244098.98105
  99930451.86104        32.750          29.750  
  22655205.127 7                     -2578.838 7                 119053909.52707
                        47.500                  
  20255895.483 8  20255897.522 8       972.478 8       757.785 8 106445434.75208
  82944502.62408        51.250          49.000  
  23454045.673 6  23454049.268 6      1901.779 6      1481.864 6 123251851.52006
  96040418.50006        41.750          40.000  
  24656501.506 6  24656504.207 5      3534.237 6      2754.147 5 129570786.00706
 100964247.59705        38.000          34.250  
  22876610.636 7  22876613.798 7     -3058.890 7     -2383.522 7 120217367.18407
  93675867.66807        46.000          42.500  
 16 02 18 00 00 13.0000000  0 11G02G06G12G13G15G17G19G24G25G29G32   
  22229948.172 7                      2784.640 7                 116819163.50907
                        45.250                  
  22666825.341 7  22666829.039 7       558.355 7       435.106 7 119114983.66607
  92816885.77507        44.250          42.000  
  21221017.282 8  21221016.870 7       683.842 8       532.743 7 111517201.07008
  86896520.98807        49.000          43.750  
  24200302.802 6                     -3584.743 6                 127173392.94206
                        38.250                  
  22240715.018 7  22240715.241 6     -2666.571 7     -2077.833 6 116875728.45807
  91071978.07606        46.250          41.250  
  24404743.458 5  24404743.557 5     -3679.503 5     -2867.234 5 128247778.64205
  99933319.12405        32.750          30.750  
  22655695.869 7                     -2578.852 7                 119056488.41307
                        47.500                  
  20255710.456 8  20255712.442 8       972.240 8       757.440 8 106444462.46708
  82943745.00008        51.500          49.000  
  23453683.888 7  23453687.219 6      1901.770 7      1481.844 6 123249949.81407
  96038936.65806        42.250          40.000  
  24655829.046 6  24655831.492 5      3534.412 6      2753.972 5 129567251.67406
 100961493.58205        38.500          34.250  
  22877192.614 7  22877195.967 7     -3058.967 7     -2383.778 7 120220426.20207
  93678251.31707        46.000          42.500  
 16 02 18 00 00 14.0000000  0 11G02G06G12G13G15G17G19G24G25G29G32   
  22229418.303 7                      2784.324 7                 116816379.09907
                        45.250                  
  22666719.216 7  22666723.026 7       557.708 7       434.668 7 119114425.68807
  92816450.99007        44.250          42.000  
  21220887.234 8  21220886.827 7       683.542 8       532.673 7 111516517.48908
  86895988.32007        49.000          43.500  
  24200984.756 6                     -3584.998 6                 127176977.93306
                        37.500                  
  22241222.359 7  22241222.489 6     -2666.991 7     -2078.237 6 116878395.30207
  91074056.14106        46.250          41.500  
  24405442.892 5  24405444.358 5     -3679.482 5     -2867.279 5 128251458.37705
  99936186.46705        32.000          30.000  
  22656186.710 7                     -2579.258 7                 119059067.58607
                        47.750                  
  20255525.510 8  20255527.603 8       971.580 8       757.059 8 106443490.64408
  82942987.73108        51.500          49.000  
  23453322.160 7  23453325.348 6      1901.692 7      1481.749 6 123248048.16207
  96037454.85106        42.250          40.000  
  24655156.214 6  24655158.857 5      3534.238 6      2753.981 5 129563717.45606
 100958739.63305        38.250          33.750  
  22877774.828 7  22877778.114 7     -3059.198 7     -2383.884 7 120223485.40907
  93680635.11907        46.250          42.500  
 16 02 18 00 00 15.0000000  0 11G02G06G12G13G15G17G19G24G25G29G32   
  22228888.487 7                      2783.982 7                 116813595.00507
                        45.500                  
  22666613.082 7  22666616.972 7       557.079 7       434.122 7 119113868.29507
  92816016.66007        44.000          42.000  
  21220757.248 8  21220756.828 7       683.389 8       532.556 7 111515834.05508
  86895455.77007        49.250          43.750  
  24201666.947 6                     -3585.092 6                 127180562.90606
                        38.000                  
  22241730.032 7  22241730.197 6     -2667.330 7     -2078.553 6 116881062.47807
  91076134.46806        46.250          41.250  
  24406142.929 5  24406144.641 5     -3679.806 5     -2867.322 5 128255138.23405
  99939053.89205        32.500          30.250  
  22656677.618 7                     -2579.624 7                 119061647.05907
                        47.750                  
  20255340.671 8  20255342.692 8       971.167 8       756.744 8 106442519.27708
  82942230.82208        51.500          49.000  
  23452960.294 7  23452963.572 6      1901.520 7      1481.718 6 123246146.59007
  96035973.09406        42.500          40.000  
  24654483.597 6  24654486.271 5      3534.074 6      2753.894 5 129560183.37606
 100955985.81305        38.500          34.000  
  22878357.198 7  22878360.208 7     -3059.583 7     -2384.075 7 120226544.84307
  93683019.08207        46.000          42.500  
 16 02 18 00 00 16.0000000  0 11G02G06G12G13G15G17G19G24G25G29G32   
  22228358.850 7                      2783.631 7                 116810811.21407
                        45.500                  
  22666507.055 7  22666510.932 7       556.609 7       433.624 7 119113311.46707
  92815582.76707        44.250          42.000  
  21220627.213 8  21220626.686 7       683.242 8       532.322 7 111515150.75308
  86894923.32807        49.250          43.750  
  24202348.896 6                     -3585.065 6                 127184147.92706
                        37.500                  
  22242237.489 7  22242237.726 6     -2667.604 7     -2078.625 6 116883729.95607
  91078213.01006        46.250          41.250  
  24406843.145 5  24406844.075 5     -3680.006 5     -2868.040 5 128258818.17105
  99941921.36905        31.750          30.250  
  22657168.451 7                     -2579.879 7                 119064226.80907
                        47.500                  
  20255155.904 8  20255157.925 8       970.649 8       756.359 8 106441548.37008
  82941474.27008        51.500          49.000  
  23452598.629 7  23452601.522 6      1901.356 7      1481.661 6 123244245.09107
  96034491.40206        42.250          40.000  
  24653811.222 6  24653813.900 5      3533.890 6      2753.711 5 129556649.41806
 100953232.07105        38.500          34.500  
  22878939.502 7  22878942.319 7     -3059.748 7     -2384.152 7 120229604.47107
  93685403.20507        46.000          42.750  
 16 02 18 00 00 17.0000000  0 11G02G06G12G13G15G17G19G24G25G29G32   
  22227829.294 7                      2783.336 7                 116808027.71307
                        45.500                  
  22666401.091 7  22666404.807 7       556.030 7       433.262 7 119112755.19907
  92815149.30807        44.000          42.000  
  21220497.268 8  21220496.602 7       683.169 8       532.322 7 111514467.58208
  86894390.98507        49.250          43.750  
  24203031.167 6                     -3584.708 6                 127187732.89606
                        37.000                  
  22242745.126 7  22242745.541 6     -2667.875 7     -2078.922 6 116886397.74107
  91080291.79506        46.250          41.250  
  24407543.173 5  24407544.335 5     -3679.936 5     -2867.585 5 128262498.17905
  99944788.90405        31.750          30.250  
  22657659.520 7                     -2580.211 7                 119066806.85207
                        47.750                  
  20254971.279 8  20254973.242 8       970.260 8       755.997 8 106440577.92208
  82940718.07308        51.500          49.000  
  23452236.651 7  23452239.469 6      1901.429 7      1481.505 6 123242343.64407
  96033009.76606        42.250          39.750  
  24653138.860 6  24653141.435 5      3533.886 6      2753.551 5 129553115.58206
 100950478.43305        38.750          34.000  
  22879521.564 7  22879524.672 7     -3059.883 7     -2384.355 7 120232664.31307
  93687787.49107        45.750          42.750  
 16 02 18 00 00 18.0000000  0 11G02G06G12G13G15G17G19G24G25G29G32   
  22227299.845 7                      2783.162 7                 116805244.50507
                        45.750                  
  22666295.257 7  22666299.353 7       555.554 7       432.789 7 119112199.50107
  92814716.30207        43.750          42.000  
  21220367.264 8  21220366.518 7       683.077 8       532.229 7 111513784.54908
  86893858.75507        49.000          43.750  
  24203713.501 6                     -3585.285 6                 127191317.92606
                        37.500                  
  22243252.843 7  22243253.339 6     -2668.101 7     -2079.060 6 116889065.82607
  91082370.82606        46.250          41.500  
  24408243.004 5  24408244.658 5     -3680.356 5     -2867.872 5 128266178.26405
  99947656.49005        32.250          30.000  
  22658150.611 7                     -2580.287 7                 119069387.16107
                        47.750                  
  20254786.686 8  20254788.636 8       969.846 8       755.664 8 106439607.94808
  82939962.25508        51.500          49.250  
  23451874.843 7  23451877.289 6      1901.527 7      1481.602 6 123240442.26607
  96031528.16406        42.250          39.750  
  24652466.176 6  24652469.310 5      3533.856 6      2753.458 5 129549581.86806
 100947724.89405        38.250          34.250  
  22880103.886 7  22880107.204 7     -3060.147 7     -2384.564 7 120235724.35007
  93690171.94507        45.750          42.750  
 16 02 18 00 00 19.0000000  0 11G02G06G12G13G15G17G19G24G25G29G32   
  22226770.431 7                      2782.769 7                 116802461.59507
                        45.500                  
  22666189.409 7  22666193.688 7       554.848 7       432.248 7 119111644.37307
  92814283.72907        43.500          42.250  
  21220237.292 8  21220236.389 7       682.882 8       532.053 7 111513101.65108
  86893326.62807        49.250          44.000  
  24204395.772 6                     -3584.858 6                 127194902.90906
                        36.750                  
  22243760.510 7  22243760.989 6     -2668.492 7     -2079.312 6 116891734.21607
  91084450.09206        46.250          41.500  
  24408943.385 5  24408945.375 5     -3680.332 5     -2867.387 5 128269858.41505
  99950524.12205        32.250          30.000  
  22658641.689 7                     -2580.750 7                 119071967.76007
                        47.750                  
  20254602.277 8  20254604.181 8       969.340 8       755.281 8 106438638.43808
  82939206.79808        51.500          49.250  
  23451512.875 7  23451515.598 6      1901.302 7      1481.578 6 123238540.96307
  96030046.63406        42.250          39.750  
  24651793.603 6  24651797.149 5      3533.622 6      2753.243 5 129546048.27006
 100944971.45305        38.250          34.500  
  22880686.274 7  22880689.637 7     -3060.226 7     -2384.636 7 120238784.57807
  93692556.52907        46.000          43.000  
 16 02 18 00 00 20.0000000  0 11G02G06G12G13G15G17G19G24G25G29G32   
  22226240.669 7                      2782.450 7                 116799678.99807
                        45.500                  
  22666083.593 7  22666088.136 7       554.245 7       431.958 7 119111089.80307
  92813851.60007        43.750          42.250  
  21220107.378 8  21220106.591 7       682.686 8       531.936 7 111512418.89008
  86892794.61307        49.000          44.000  
  24205078.008 6                     -3585.246 6                 127198487.91206
                        37.000                  
  22244268.326 7  22244269.023 6     -2668.863 7     -2079.617 6 116894402.92507
  91086529.59606        46.000          41.750  
  24409644.352 5  24409645.555 5     -3680.346 5     -2867.323 5 128273538.66305
  99953391.85105        31.750          30.000  
  22659132.875 7                     -2581.002 7                 119074548.65307
                        47.750                  
  20254417.956 8  20254419.812 8       968.805 8       754.890 8 106437669.40608
  82938451.70908        51.500          49.250  
  23451150.928 7  23451153.772 6      1901.159 7      1481.475 6 123236639.73107
  96028565.16706        42.250          39.750  
  24651121.290 6  24651124.890 5      3533.350 6      2753.364 5 129542514.83306
 100942218.10405        38.000          34.250  
  22881268.672 7  22881271.976 7     -3060.651 7     -2384.878 7 120241845.03307
  93694941.29007        46.000          42.750  
 16 02 18 00 00 21.0000000  0 11G02G06G12G13G15G17G19G24G25G29G32   
  22225711.234 7                      2782.134 7                 116796896.71007
                        45.250                  
  22665978.299 7  22665982.793 7       553.681 7       431.487 7 119110535.83007
  92813419.93207        43.750          42.250  
  21219977.455 8  21219976.758 7       682.559 8       531.874 7 111511736.28108
  86892262.70207        49.000          44.000  
  24205760.037 6                     -3585.095 6                 127202072.95906
                        37.000                  
  22244776.230 7  22244776.937 6     -2669.165 7     -2079.980 6 116897071.94707
  91088609.36106        46.000          41.750  
  24410344.975 5  24410346.518 4     -3680.592 5     -2867.351 4 128277219.03605
  99956259.59904        32.250          29.750  
  22659623.984 7                     -2581.311 7                 119077129.84407
                        47.500                  
  20254233.627 8  20254235.577 8       968.307 8       754.473 8 106436700.84908
  82937696.98408        51.500          49.250  
  23450789.066 7  23450791.732 6      1901.146 7      1481.292 6 123234738.58207
  96027083.74406        42.000          39.500  
  24650449.076 6  24650452.854 5      3533.342 6      2753.275 5 129538981.51706
 100939464.87205        38.000          34.000  
  22881851.159 7  22881854.284 7     -3060.815 7     -2385.043 7 120244905.69007
  93697326.22807        46.000          42.500  
 16 02 18 00 00 22.0000000  0 11G02G06G12G13G15G17G19G24G25G29G32   
  22225181.802 7                      2781.849 7                 116794114.71907
                        45.500                  
  22665872.979 7  22665877.509 7       553.103 7       431.064 7 119109982.40907
  92812988.69807        43.750          42.250  
  21219847.604 8  21219846.911 7       682.430 8       531.826 7 111511053.80508
  86891730.89507        49.250          43.750  
  24206442.210 6                     -3584.864 6                 127205657.95306
                        36.750                  
  22245284.220 7  22245284.891 6     -2669.468 7     -2080.087 6 116899741.27707
  91090689.34406        46.000          41.750  
  24411045.352 5  24411048.160 5     -3680.557 5     -2868.292 5 128280899.45205
  99959127.54705        32.250          30.000  
  22660115.125 7                     -2581.665 7                 119079711.31707
                        47.500                  
  20254049.360 8  20254051.377 8       967.893 8       754.201 8 106435732.74908
  82936942.61708        51.500          49.250  
  23450427.366 7  23450430.085 6      1901.050 7      1481.372 6 123232837.49907
  96025602.37606        42.000          39.500  
  24649776.647 6  24649780.743 5      3533.239 6      2753.003 5 129535448.31806
 100936711.72505        38.000          33.750  
  22882433.583 7  22882436.910 7     -3061.084 7     -2385.075 7 120247966.56007
  93699711.30507        46.000          42.750  
 16 02 18 00 00 23.0000000  0 11G02G06G12G13G15G17G19G24G25G29G32   
  22224652.550 7                      2781.553 7                 116791333.03107
                        45.500                  
  22665767.748 7  22665772.363 7       552.587 7       430.587 7 119109429.55707
  92812557.90307        43.500          42.250  
  21219717.766 8  21219717.189 7       682.283 8       531.676 7 111510371.46608
  86891199.20707        49.250          44.000  
  24207124.007 6                     -3585.284 6                 127209242.98806
                        37.000                  
  22245792.353 7  22245792.867 6     -2669.748 7     -2080.347 6 116902410.91207
  91092769.57906        46.250          41.500  
  24411745.720 5  24411748.295 5     -3680.746 5     -2867.801 5 128284579.94305
  99961995.43805        32.500          30.250  
  22660606.377 7                     -2581.820 7                 119082293.06607
                        47.750                  
  20253865.179 8  20253867.280 8       967.407 8       753.806 8 106434765.13208
  82936188.63408        51.500          49.250  
  23450065.330 7  23450068.295 6      1901.183 7      1481.343 6 123230936.47807
  96024121.07306        42.000          39.500  
  24649104.311 6  24649107.983 5      3533.212 6      2753.096 5 129531915.22106
 100933958.67205        37.750          33.750  
  22883016.017 7  22883019.495 7     -3061.170 7     -2385.246 7 120251027.60807
  93702096.54207        46.000          42.500  
 16 02 18 00 00 24.0000000  0 11G02G06G12G13G15G17G19G24G25G29G32   
  22224123.065 7                      2781.300 7                 116788551.65207
                        45.500                  
  22665662.773 7  22665667.450 7       552.007 7       430.089 7 119108877.27807
  92812127.56907        43.750          42.250  
  21219587.932 8  21219587.315 7       682.126 8       531.663 7 111509689.27308
  86890667.62707        49.250          44.000  
  24207806.346 6                     -3585.296 6                 127212828.03306
                        37.000                  
  22246300.481 7  22246300.937 6     -2670.084 7     -2080.557 6 116905080.86507
  91094850.06406        46.250          41.500  
  24412446.271 5  24412448.498 4     -3680.421 5     -2868.231 4 128288260.51105
  99964863.43804        32.500          29.750  
  22661097.750 7                     -2582.200 7                 119084875.11507
                        47.750                  
  20253681.149 8  20253683.309 8       966.869 8       753.423 8 106433797.98108
  82935435.00608        51.500          49.250  
  23449703.576 7  23449706.844 6      1900.861 7      1481.162 6 123229035.54307
  96022639.82206        42.000          39.000  
  24648431.708 6  24648435.710 5      3532.938 6      2752.843 5 129528382.29506
 100931205.74305        38.000          33.500  
  22883598.571 7  22883601.875 7     -3061.239 7     -2385.477 7 120254088.87107
  93704481.95707        46.000          42.500  
 16 02 18 00 00 25.0000000  0 11G02G06G12G13G15G17G19G24G25G29G32   
  22223593.862 7                      2780.913 7                 116785770.58607
                        45.500                  
  22665557.877 7  22665562.255 7       551.518 7       429.649 7 119108325.57607
  92811697.67207        43.750          42.250  
  21219458.192 8  21219457.490 7       682.067 8       531.556 7 111509007.20708
  86890136.14707        49.250          44.000  
  24208488.675 6                     -3584.814 6                 127216413.02506
                        37.250                  
  22246808.713 7  22246809.048 6     -2670.315 7     -2080.755 6 116907751.11807
  91096930.77706        46.250          41.500  
  24413147.113 5  24413149.702 5     -3680.439 5     -2867.958 5 128291941.19805
  99967731.47305        32.500          30.500  
  22661589.056 7                     -2582.392 7                 119087457.43307
                        47.500                  
  20253497.213 8  20253499.253 8       966.480 8       753.071 8 106432831.29008
  82934681.73908        51.500          49.250  
  23449341.821 7  23449344.916 6      1900.912 7      1481.086 6 123227134.67407
  96021158.62406        42.000          38.750  
  24647759.216 6  24647762.941 5      3532.833 6      2752.610 5 129524849.49406
 100928452.90405        37.750          33.500  
  22884181.134 7  22884184.407 7     -3061.510 7     -2385.624 7 120257150.35607
  93706867.52107        46.000          42.500  
 16 02 18 00 00 26.0000000  0 11G02G06G12G13G15G17G19G24G25G29G32   
  22223064.699 7                      2780.592 7                 116782989.81807
                        45.500                  
  22665452.964 7  22665457.351 7       550.838 7       429.145 7 119107774.44007
  92811268.20507        43.750          42.000  
  21219328.448 8  21219327.666 7       681.888 8       531.313 7 111508325.28308
  86889604.77507        49.250          44.000  
  24209171.067 6                     -3585.265 6                 127219998.11106
                        36.750                  
  22247316.872 7  22247317.118 6     -2670.704 7     -2081.030 6 116910421.68607
  91099011.73606        46.250          41.250  
  24413848.505 5  24413849.520 5     -3680.856 5     -2867.829 5 128295621.97105
  99970599.56705        32.250          30.250  
  22662080.559 7                     -2582.773 7                 119090040.04007
                        47.500                  
  20253313.345 8  20253315.245 8       966.025 8       752.769 8 106431865.05108
  82933928.82108        51.500          49.250  
  23448980.340 7  23448983.246 6      1900.732 7      1480.987 6 123225233.86807
  96019677.48506        42.250          38.750  
  24647087.230 6  24647090.123 5      3532.675 6      2752.701 5 129521316.80506
 100925700.14205        38.000          33.250  
  22884763.688 7  22884766.979 7     -3061.771 7     -2385.866 7 120260212.05007
  93709253.24707        45.750          42.500  
 16 02 18 00 00 27.0000000  0 11G02G06G12G13G15G17G19G24G25G29G32   
  22222535.465 7                      2780.241 7                 116780209.35807
                        45.500                  
  22665348.275 7  22665352.742 7       550.163 7       428.785 7 119107223.89007
  92810839.20307        43.750          42.000  
  21219198.718 8  21219198.194 7       681.644 8       531.198 7 111507643.51008
  86889073.52107        49.250          44.000  
  24209853.535 6                     -3585.521 6                 127223583.16206
                        37.000                  
  22247825.019 7  22247825.229 6     -2671.062 7     -2081.225 6 116913092.56807
  91101092.94006        46.250          41.500  
  24414549.405 5  24414548.810 4     -3680.944 5     -2868.470 4 128299302.80805
  99973467.77904        32.750          29.750  
  22662572.102 7                     -2583.058 7                 119092622.94107
                        47.500                  
  20253129.539 8  20253131.488 8       965.485 8       752.323 8 106430899.28308
  82933176.27908        51.500          49.250  
  23448618.751 7  23448621.622 6      1900.647 7      1481.039 6 123223333.15107
  96018196.39806        42.250          38.750  
  24646415.350 6  24646417.886 5      3532.487 6      2752.413 5 129517784.26406
 100922947.52605        38.250          33.250  
  22885346.344 7  22885349.703 7     -3062.080 7     -2385.980 7 120263273.94207
  93711639.13407        46.000          42.500  
 16 02 18 00 00 28.0000000  0 11G02G06G12G13G15G17G19G24G25G29G32   
  22222006.436 7                      2780.012 7                 116777429.19207
                        45.750                  
  22665243.737 7  22665247.918 7       549.644 7       428.353 7 119106673.88207
  92810410.62107        43.750          42.000  
  21219069.000 8  21219068.504 7       681.567 8       531.129 7 111506961.84608
  86888542.36207        49.250          44.000  
  24210535.990 6                     -3585.372 6                 127227168.21706
                        36.750                  
  22248333.357 7  22248333.643 6     -2671.366 7     -2081.568 6 116915763.74807
  91103174.38106        46.000          41.500  
  24415249.773 5  24415249.312 5     -3680.832 5     -2868.235 5 128302983.72405
  99976336.01905        32.250          30.250  
  22663063.713 7                     -2583.234 7                 119095206.10407
                        47.500                  
  20252945.822 8  20252947.781 8       965.053 8       751.970 8 106429933.97308
  82932424.09008        51.250          49.250  
  23448257.135 7  23448259.935 6      1900.674 7      1481.042 6 123221432.48207
  96016715.36606        42.250          38.750  
  24645743.172 6  24645745.640 5      3532.397 6      2752.513 5 129514251.82506
 100920194.95805        38.250          33.250  
  22885929.046 7  22885932.266 7     -3062.185 7     -2386.114 7 120266336.02507
  93714025.17907        46.000          42.250  
 16 02 18 00 00 29.0000000  0 11G02G06G12G13G15G17G19G24G25G29G32   
  22221477.528 7                      2779.638 7                 116774649.34807
                        45.750                  
  22665139.240 7  22665142.897 7       549.029 7       427.886 7 119106124.46807
  92809982.50507        43.500          42.000  
  21218939.283 8  21218938.858 7       681.377 8       531.001 7 111506280.35308
  86888011.32707        49.000          43.750  
  24211217.608 6                     -3585.200 6                 127230753.21806
                        36.750                  
  22248841.673 7  22248842.196 6     -2671.708 7     -2081.743 6 116918435.26207
  91105256.07506        46.000          41.500  
  24415950.056 5  24415949.872 4     -3681.260 5     -2867.975 4 128306664.72205
  99979204.31604        32.500          29.250  
  22663555.417 7                     -2583.618 7                 119097789.59007
                        47.500                  
  20252762.204 8  20252764.221 8       964.567 8       751.665 8 106428969.14108
  82931672.27308        51.250          49.250  
  23447895.676 7  23447898.033 6      1900.472 7      1480.864 6 123219531.92107
  96015234.40306        42.000          38.750  
  24645071.543 6  24645073.586 5      3532.157 6      2752.310 5 129510719.54006
 100917442.53705        38.000          33.000  
  22886511.725 7  22886515.276 7     -3062.469 7     -2386.283 7 120269398.33807
  93716411.38507        46.000          42.500  
 16 02 18 00 00 30.0000000  0 11G02G06G12G13G15G17G19G24G25G29G32   
  22220948.625 7                      2779.338 7                 116771869.79607
                        45.750                  
  22665034.751 7  22665038.565 7       548.443 7       427.285 7 119105575.61107
  92809554.82807        43.500          42.000  
  21218809.619 8  21218809.204 7       681.260 8       530.968 7 111505598.97308
  86887480.37607        49.000          44.000  
  24211900.049 6                     -3584.945 6                 127234338.27306
                        37.000                  
  22249350.088 7  22249350.839 6     -2671.953 7     -2082.005 6 116921107.07207
  91107337.99806        46.000          41.500  
  24416650.477 5  24416650.459 4     -3681.066 5     -2868.853 4 128310345.78805
  99982072.71504        32.500          29.750  
  22664047.031 7                     -2583.893 7                 119100373.33307
                        47.500                  
  20252578.706 8  20252580.745 8       964.113 8       751.204 8 106428004.76208
  82930920.80508        51.250          49.250  
  23447534.083 7  23447536.426 6      1900.379 7      1480.836 6 123217631.40007
  96013753.47906        42.000          38.500  
  24644399.315 6  24644401.345 5      3532.071 6      2752.063 5 129507187.36006
 100914690.18305        38.250          33.500  
  22887094.610 7  22887098.264 7     -3062.628 7     -2386.455 7 120272460.83907
  93718797.75307        46.000          42.500  
 16 02 18 00 00 31.0000000  0 11G02G06G12G13G15G17G19G24G25G29G32   
  22220419.878 7                      2779.207 7                 116769090.54607
                        45.750                  
  22664930.366 7  22664934.377 7       548.055 7       426.890 7 119105027.31707
  92809127.58807        43.500          42.000  
  21218679.929 8  21218679.531 7       681.257 8       530.826 7 111504917.74308
  86886949.55407        49.000          43.750  
  24212582.065 6                     -3585.149 6                 127237923.34606
                        36.500                  
  22249858.493 7  22249859.459 6     -2672.116 7     -2082.329 6 116923779.19407
  91109420.17706        46.000          41.500  
  24417351.216 5  24417351.069 4     -3681.478 5     -2868.345 4 128314026.96205
  99984941.13404        33.000          28.750  
  22664538.726 7                     -2584.051 7                 119102957.36507
                        47.750                  
  20252395.316 8  20252397.337 8       963.689 8       750.898 8 106427040.87508
  82930169.73008        51.250          49.250  
  23447172.297 7  23447175.070 6      1900.595 7      1480.842 6 123215730.95207
  96012272.62406        42.250          38.750  
  24643727.413 6  24643729.569 5      3532.017 6      2752.195 5 129503655.32906
 100911937.94005        38.250          33.000  
  22887677.616 7  22887680.988 7     -3062.772 7     -2386.668 7 120275523.54607
  93721184.27507        46.250          42.500  
 16 02 18 00 00 32.0000000  0 11G02G06G12G13G15G17G19G24G25G29G32   
  22219891.108 7                      2778.818 7                 116766311.61007
                        46.000                  
  22664826.239 7  22664829.955 7       547.372 7       426.634 7 119104479.60907
  92808700.78907        43.500          42.000  
  21218550.337 8  21218550.046 7       681.069 8       530.807 7 111504236.64408
  86886418.82207        49.000          44.000  
  24213264.435 6                     -3584.930 6                 127241508.39406
                        36.750                  
  22250367.055 7  22250367.941 6     -2672.548 7     -2082.584 6 116926451.61807
  91111502.58206        46.250          41.500  
  24418051.651 5  24418051.834 4     -3681.240 5     -2869.029 4 128317708.21905
  99987809.69004        32.500          29.000  
  22665030.453 7                     -2584.439 7                 119105541.68907
                        47.750                  
  20252211.975 8  20252213.996 8       963.175 8       750.509 8 106426077.47108
  82929419.02608        51.250          49.250  
  23446810.467 7  23446813.588 6      1900.330 7      1480.606 6 123213830.59507
  96010791.82806        42.000          38.750  
  24643055.114 6  24643057.148 5      3531.916 6      2752.065 5 129500123.41206
 100909185.80205        38.500          33.000  
  22888260.595 7  22888263.667 7     -3063.019 7     -2386.587 7 120278586.46207
  93723570.94807        46.250          42.500  
 16 02 18 00 00 33.0000000  0 11G02G06G12G13G15G17G19G24G25G29G32   
  22219362.469 7                      2778.486 7                 116763532.97407
                        45.500                  
  22664721.961 7  22664725.990 7       546.962 7       426.072 7 119103932.45407
  92808274.44907        43.250          42.000  
  21218420.754 8  21218420.405 7       680.978 8       530.548 7 111503555.68708
  86885888.21607        49.000          44.000  
  24213946.720 6                     -3584.913 6                 127245093.47006
                        37.000                  
  22250875.658 7  22250876.440 6     -2672.823 7     -2082.767 6 116929124.35407
  91113585.23906        46.250          41.500  
  24418752.001 5  24418752.359 4     -3681.365 5     -2869.160 4 128321389.55005
  99990678.26804        32.250          29.250  
  22665522.318 7                     -2584.651 7                 119108126.30107
                        47.750                  
  20252028.742 8  20252030.812 8       962.752 8       750.187 8 106425114.52308
  82928668.67208        51.000          49.250  
  23446448.744 7  23446452.214 6      1900.342 7      1480.576 6 123211930.29107
  96009311.08106        42.000          38.750  
  24642382.846 6  24642384.947 5      3531.879 6      2751.953 5 129496591.62306
 100906433.78405        38.500          33.250  
  22888843.654 7  22888846.409 7     -3063.240 7     -2386.828 7 120281649.58707
  93725957.79807        46.250          42.500  
 16 02 18 00 00 34.0000000  0 11G02G06G12G13G15G17G19G24G25G29G32   
  22218833.775 7                      2778.097 7                 116760754.65807
                        45.500                  
  22664618.076 7  22664622.056 6       546.331 7       425.761 6 119103385.88907
  92807848.55806        43.500          41.750  
  21218291.260 8  21218290.907 7       680.657 8       530.430 7 111502874.88408
  86885357.71207        49.000          44.000  
  24214628.995 6                     -3585.206 6                 127248678.56206
                        36.500                  
  22251384.448 7  22251384.877 6     -2673.272 7     -2082.993 6 116931797.42307
  91115668.12706        46.250          41.500  
  24419452.436 5  24419452.776 4     -3681.114 5     -2868.118 4 128325070.95305
  99993546.85404        31.750          29.250  
  22666014.170 7                     -2585.104 7                 119110711.21007
                        47.500                  
  20251845.526 8  20251847.520 8       962.185 8       749.761 8 106424152.04108
  82927918.68208        51.250          49.250  
  23446087.187 6  23446090.442 6      1900.115 6      1480.585 6 123210030.09706
  96007830.38706        41.750          38.750  
  24641710.846 6  24641713.314 5      3531.481 6      2751.840 5 129493060.00006
 100903681.84405        38.250          32.750  
  22889426.673 7  22889429.517 7     -3063.469 7     -2387.065 7 120284712.91807
  93728344.81307        46.250          42.500  
 16 02 18 00 00 35.0000000  0 11G02G06G12G13G15G17G19G24G25G29G32   
  22218305.046 7                      2777.842 7                 116757976.62607
                        45.500                  
  22664514.254 7  22664518.122 6       545.602 7       425.260 6 119102839.89307
  92807423.09106        43.500          41.750  
  21218161.730 8  21218161.158 7       680.627 8       530.315 7 111502194.19408
  86884827.31507        49.000          43.750  
  24215311.065 6                     -3585.142 6                 127252263.62506
                        36.250                  
  22251893.296 7  22251893.649 6     -2673.511 7     -2083.264 6 116934470.76707
  91117751.26806        46.250          41.500  
  24420152.469 5  24420153.747 4     -3681.703 5     -2868.863 4 128328752.48805
  99996415.55704        31.750          29.750  
  22666506.173 7                     -2585.351 7                 119113296.39407
                        47.500                  
  20251662.466 8  20251664.452 8       961.701 8       749.400 8 106423190.03908
  82927169.07408        51.250          49.250  
  23445725.777 7  23445728.647 6      1900.081 7      1480.642 6 123208129.93007
  96006349.75306        42.000          38.500  
  24641039.016 6  24641042.021 5      3531.373 6      2751.530 5 129489528.47006
 100900930.00205        38.250          33.000  
  22890009.625 7  22890012.402 7     -3063.639 7     -2387.302 7 120287776.44007
  93730731.97307        46.250          42.500  
 16 02 18 00 00 36.0000000  0 11G02G06G12G13G15G17G19G24G25G29G32   
  22217776.371 7                      2777.518 7                 116755198.90407
                        45.750                  
  22664410.490 7  22664414.166 7       545.208 7       424.861 7 119102294.45307
  92806998.07607        43.750          42.000  
  21218032.143 8  21218031.727 7       680.451 8       530.346 7 111501513.65008
  86884297.00707        49.000          44.000  
  24215993.390 6                     -3585.038 6                 127255848.71706
                        36.750                  
  22252402.127 7  22252402.225 6     -2673.869 7     -2083.384 6 116937144.43207
  91119834.63106        46.250          41.500  
  24420852.760 5  24420853.834 4     -3681.699 5     -2868.036 4 128332434.06805
  99999284.28904        32.000          29.250  
  22666998.092 7                     -2585.614 7                 119115881.85907
                        47.500                  
  20251479.497 8  20251481.410 8       961.262 8       749.086 8 106422228.50808
  82926419.82508        51.250          49.500  
  23445363.969 6  23445366.737 6      1900.095 6      1480.569 6 123206229.84106
  96004869.16006        41.750          38.250  
  24640367.114 6  24640368.657 5      3531.172 6      2752.133 5 129485997.07806
 100898178.24305        38.250          32.500  
  22890592.586 7  22890595.314 7     -3063.763 7     -2387.341 7 120290840.16507
  93733119.28307        46.000          42.500  
 16 02 18 00 00 37.0000000  0 11G02G06G12G13G15G17G19G24G25G29G32   
  22217247.838 7                      2777.264 7                 116752421.49507
                        45.750                  
  22664306.932 7  22664310.447 7       544.561 7       424.289 7 119101749.59007
  92806573.50707        43.750          42.000  
  21217902.716 8  21217901.996 7       680.398 8       530.177 7 111500833.23408
  86883766.81807        49.000          44.000  
  24216675.639 6                     -3584.866 6                 127259433.74906
                        36.000                  
  22252911.011 7  22252910.957 6     -2674.070 7     -2083.682 6 116939818.39207
  91121918.23506        46.250          41.250  
  24421552.990 5  24421555.154 4     -3681.384 5     -2869.081 4 128336115.69705
 100002153.15904        31.750          29.750  
  22667490.149 7                     -2585.854 7                 119118467.60307
                        47.250                  
  20251296.688 8  20251298.655 8       960.857 8       748.744 8 106421267.42608
  82925670.93108        51.500          49.500  
  23445002.568 6  23445005.090 6      1900.025 6      1480.590 6 123204329.82606
  96003388.62406        41.750          38.500  
  24639695.002 6  24639696.585 5      3531.225 6      2751.538 5 129482465.80006
 100895426.61805        38.250          33.000  
  22891175.592 7  22891178.324 7     -3064.059 7     -2387.555 7 120293904.09707
  93735506.75907        46.000          42.500  
 16 02 18 00 00 38.0000000  0 11G02G06G12G13G15G17G19G24G25G29G32   
  22216719.333 7                      2776.948 7                 116749644.39807
                        45.500                  
  22664203.284 7  22664206.723 7       544.001 7       423.862 7 119101205.31007
  92806149.39307        43.750          42.000  
  21217773.196 8  21217772.592 7       680.207 8       529.975 7 111500152.98108
  86883236.75107        49.000          44.000  
  24217357.651 6                     -3584.988 6                 127263018.86906
                        36.500                  
  22253419.935 7  22253419.966 6     -2674.413 7     -2084.018 6 116942492.68507
  91124002.09906        46.250          41.250  
  24422253.648 5  24422255.070 4     -3681.818 5     -2869.253 4 128339797.47605
 100005022.03004        31.750          29.500  
  22667982.189 7                     -2586.198 7                 119121053.65307
                        47.250                  
  20251113.946 8  20251115.900 8       960.405 8       748.328 8 106420306.80908
  82924922.40108        51.250          49.500  
  23444641.068 6  23444643.608 6      1899.921 6      1480.488 6 123202429.90506
  96001908.15706        41.750          38.250  
  24639023.056 6  24639024.899 5      3531.017 6      2751.518 5 129478934.66406
 100892675.08405        38.250          32.500  
  22891758.499 7  22891761.450 7     -3064.255 7     -2387.680 7 120296968.24807
  93737894.40307        46.000          42.500  
 16 02 18 00 00 39.0000000  0 11G02G06G12G13G15G17G19G24G25G29G32   
  22216190.921 7                      2776.653 7                 116746867.59607
                        45.750                  
  22664099.766 7  22664103.075 6       543.448 7       423.524 6 119100661.58107
  92805725.70006        43.500          41.750  
  21217643.782 8  21217643.340 7       680.064 8       529.889 7 111499472.85308
  86882706.77907        49.250          44.000  
  24218039.797 6                     -3585.126 6                 127266603.96706
                        36.250                  
  22253928.913 7  22253929.061 6     -2674.715 7     -2084.212 6 116945167.26807
  91126086.19606        46.250          41.250  
  24422954.070 5  24422956.502 4     -3681.825 5     -2868.585 4 128343479.26905
 100007890.96304        31.500          29.250  
  22668474.358 7                     -2586.482 7                 119123639.98107
                        47.000                  
  20250931.209 8  20250933.257 8       959.931 8       748.003 8 106419346.65808
  82924174.23008        51.250          49.500  
  23444279.363 6  23444281.545 6      1899.952 6      1480.345 6 123200530.02706
  96000427.75806        41.750          38.000  
  24638350.784 6  24638352.563 5      3530.972 6      2751.447 5 129475403.65206
 100889923.63305        38.000          32.250  
  22892341.572 7  22892344.568 7     -3064.486 7     -2387.974 7 120300032.59507
  93740282.21607        46.000          42.500  
 16 02 18 00 00 40.0000000  0 11G02G06G12G13G15G17G19G24G25G29G32   
  22215662.469 7                      2776.395 7                 116744091.08607
                        45.500                  
  22663996.257 7  22663999.821 6       542.926 7       423.139 6 119100118.41007
  92805302.45806        43.500          41.750  
  21217514.508 8  21217513.980 7       679.969 8       529.831 7 111498792.84608
  86882176.90407        49.250          44.000  
  24218722.202 6                     -3585.067 6                 127270189.03506
                        36.750                  
  22254437.904 7  22254438.137 6     -2674.991 7     -2084.368 6 116947842.15007
  91128170.50906        46.000          41.000  
  24423654.353 5  24423656.329 4     -3682.012 5     -2868.601 4 128347161.18205
 100010759.97504        31.500          29.000  
  22668966.545 7                     -2586.657 7                 119126226.57707
                        47.000                  
  20250748.596 8  20250750.712 8       959.522 8       747.650 8 106418386.96908
  82923426.42508        51.250          49.500  
  23443917.877 7  23443920.122 6      1899.857 7      1480.369 6 123198630.20907
  95998947.36706        42.000          38.000  
  24637678.864 6  24637679.955 5      3530.958 6      2751.178 5 129471872.75506
 100887172.29005        38.000          32.250  
  22892924.716 7  22892927.954 7     -3064.609 7     -2387.885 7 120303097.12207
  93742670.14507        46.000          42.500  
 16 02 18 00 00 41.0000000  0 11G02G06G12G13G15G17G19G24G25G29G32   
  22215134.165 7                      2776.043 7                 116741314.90007
                        45.500                  
  22663893.061 7  22663896.509 6       542.427 7       422.687 6 119099575.82507
  92804879.67106        43.500          41.750  
  21217385.166 8  21217384.688 7       679.846 8       529.788 7 111498112.99108
  86881647.14007        49.250          44.000  
  24219403.749 6                     -3584.862 6                 127273774.12406
                        36.500                  
  22254946.864 7  22254947.097 6     -2675.233 7     -2084.709 6 116950517.34507
  91130255.08706        46.000          41.000  
  24424355.163 5  24424357.260 4     -3681.826 5     -2869.186 4 128350843.15005
 100013629.06804        31.500          29.000  
  22669458.786 7                     -2586.966 7                 119128813.47507
                        47.000                  
  20250566.034 8  20250568.234 8       959.006 8       747.331 8 106417427.74708
  82922678.97008        51.250          49.250  
  23443556.284 6  23443559.039 6      1899.712 6      1480.144 6 123196730.47906
  95997467.06306        41.750          38.000  
  24637007.070 6  24637008.085 5      3530.768 6      2751.396 5 129468341.98306
 100884421.03705        38.250          31.750  
  22893507.932 7  22893511.040 7     -3064.768 7     -2388.192 7 120306161.86507
  93745058.27307        46.000          42.750  
 16 02 18 00 00 42.0000000  0 11G02G06G12G13G15G17G19G24G25G29G32   
  22214605.843 7                      2775.742 7                 116738539.02607
                        45.250                  
  22663789.856 7  22663793.599 7       541.818 7       422.197 7 119099033.81707
  92804457.32307        43.500          42.000  
  21217255.896 8  21217255.342 7       679.650 8       529.599 7 111497433.27108
  86881117.49107        49.250          44.000  
  24220086.490 6                     -3585.133 6                 127277359.23606
                        36.750                  
  22255455.874 7  22255456.419 6     -2675.657 7     -2085.016 6 116953192.85707
  91132339.90306        46.000          41.250  
  24425056.220 5  24425057.937 4     -3682.015 5     -2869.343 4 128354525.21405
 100016498.26204        31.500          28.750  
  22669951.174 7                     -2587.319 7                 119131400.66007
                        47.000                  
  20250383.614 8  20250385.747 8       958.553 8       746.904 8 106416468.99208
  82921931.89408        51.250          49.250  
  23443194.646 7  23443197.275 6      1899.532 7      1480.264 6 123194830.83307
  95995986.79806        42.000          38.000  
  24636335.110 6  24636336.470 5      3530.639 6      2751.286 5 129464811.35206
 100881669.89905        38.500          32.000  
  22894091.287 7  22894094.452 7     -3065.044 7     -2388.266 7 120309226.81807
  93747446.54107        46.000          42.750  
 16 02 18 00 00 43.0000000  0 11G02G06G12G13G15G17G19G24G25G29G32   
  22214077.565 7                      2775.335 7                 116735763.46007
                        45.250                  
  22663686.664 7  22663690.514 7       541.077 7       421.592 7 119098492.38107
  92804035.43407        43.500          42.000  
  21217126.675 8  21217125.946 7       679.445 8       529.526 7 111496753.69008
  86880587.94307        49.500          44.000  
  24220768.421 6                     -3585.409 6                 127280944.34306
                        36.500                  
  22255965.098 7  22255965.397 6     -2676.024 7     -2085.194 6 116955868.68107
  91134424.94806        46.250          41.000  
  24425756.999 5  24425758.940 4     -3682.047 5     -2869.006 4 128358207.37005
 100019367.42104        32.000          29.000  
  22670443.473 7                     -2587.607 7                 119133988.11207
                        47.000                  
  20250201.207 8  20250203.313 8       958.013 8       746.495 8 106415510.71008
  82921185.17808        51.250          49.500  
  23442833.258 7  23442835.816 6      1899.479 7      1480.199 6 123192931.25807
  95994506.60806        42.250          38.500  
  24635663.025 6  24635665.038 5      3530.366 6      2750.764 5 129461280.85806
 100878918.86605        38.500          32.250  
  22894674.645 7  22894677.682 7     -3065.308 7     -2388.535 7 120312291.97207
  93749834.96807        46.000          42.750  
 16 02 18 00 00 44.0000000  0 11G02G06G12G13G15G17G19G24G25G29G32   
  22213549.435 7                      2775.184 7                 116732988.18707
                        45.250                  
  22663583.781 7  22663587.832 7       540.502 7       421.284 7 119097951.50807
  92803613.96407        43.500          42.000  
  21216997.356 8  21216996.537 7       679.368 8       529.338 7 111496074.23508
  86880058.50907        49.500          44.000  
  24221450.809 6                     -3585.192 6                 127284529.44106
                        36.000                  
  22256474.406 7  22256474.697 6     -2676.290 7     -2085.364 6 116958544.80007
  91136510.22406        46.250          41.000  
  24426457.550 5  24426458.686 4     -3682.460 5     -2868.673 4 128361889.59705
 100022236.65804        31.250          29.500  
  22670935.803 7                     -2587.880 7                 119136575.86007
                        46.750                  
  20250018.939 8  20250021.108 8       957.578 8       746.214 8 106414552.88508
  82920438.81908        51.250          49.500  
  23442471.732 7  23442474.500 6      1899.349 7      1480.023 6 123191031.73707
  95993026.47006        42.250          38.750  
  24634991.262 6  24634993.454 5      3530.375 6      2750.753 5 129457750.48006
 100876167.90905        38.250          32.500  
  22895257.924 7  22895261.126 7     -3065.439 7     -2388.669 7 120315357.32707
  93752223.56207        46.000          42.750  
 16 02 18 00 00 45.0000000  0 11G02G06G12G13G15G17G19G24G25G29G32   
  22213021.359 7                      2774.777 7                 116730213.23007
                        45.250                  
  22663481.041 7  22663485.124 7       539.946 7       420.787 7 119097411.20607
  92803192.95307        43.500          42.250  
  21216868.023 8  21216867.267 7       679.197 8       529.273 7 111495394.92708
  86879529.17207        49.500          44.000  
  24222133.268 6                     -3585.175 6                 127288114.53406
                        36.750                  
  22256983.823 7  22256983.948 6     -2676.576 7     -2085.584 6 116961221.22707
  91138595.75306        46.250          41.500  
  24427158.571 5  24427159.550 4     -3682.463 5     -2869.148 4 128365571.90605
 100025106.00404        31.500          28.500  
  22671428.182 7                     -2588.173 7                 119139163.89507
                        46.750                  
  20249836.766 8  20249839.024 8       957.113 8       745.821 8 106413595.52608
  82919692.82408        51.250          49.500  
  23442110.358 7  23442113.323 6      1899.117 7      1480.181 6 123189132.29707
  95991546.35206        42.000          38.500  
  24634319.607 6  24634321.337 5      3530.111 6      2750.810 5 129454220.24906
 100873417.06805        38.250          32.250  
  22895841.310 7  22895844.784 7     -3065.554 7     -2388.714 7 120318422.88107
  93754612.29707        46.250          43.000  
 16 02 18 00 00 46.0000000  0 11G02G06G12G13G15G17G19G24G25G29G32   
  22212493.448 7                      2774.417 7                 116727438.59207
                        45.250                  
  22663378.386 7  22663382.697 7       539.450 7       420.422 7 119096871.48107
  92802772.38707        43.750          42.250  
  21216738.784 8  21216737.926 7       679.089 8       529.189 7 111494715.76208
  86878999.95307        49.250          43.750  
  24222815.503 5                     -3584.965 5                 127291699.62505
                        35.750                  
  22257493.225 7  22257493.319 6     -2676.896 7     -2085.873 6 116963897.97407
  91140681.52806        46.500          41.250  
  24427858.894 5  24427859.748 4     -3682.410 5     -2869.631 4 128369254.32605
 100027975.39704        32.000          29.250  
  22671920.843 7                     -2588.498 7                 119141752.22307
                        47.000                  
  20249654.645 8  20249656.908 8       956.631 8       745.434 8 106412638.64108
  82918947.20008        51.250          49.500  
  23441749.064 7  23441752.101 6      1899.329 7      1480.002 6 123187232.91207
  95990066.34406        42.000          38.250  
  24633647.960 6  24633649.118 5      3529.964 6      2750.886 5 129450690.13406
 100870666.31505        38.500          32.500  
  22896424.879 7  22896428.340 7     -3065.869 7     -2389.062 7 120321488.66607
  93757001.21807        46.000          42.750  
 16 02 18 00 00 47.0000000  0 11G02G06G12G13G15G17G19G24G25G29G32   
  22211965.596 7                      2774.188 7                 116724664.23607
                        45.250                  
  22663275.874 7  22663280.288 7       538.925 7       419.931 7 119096332.31707
  92802352.26107        43.750          42.250  
  21216609.599 8  21216608.749 7       678.992 8       529.111 7 111494036.72608
  86878470.83707        49.250          44.000  
  24223497.784 6                     -3585.006 6                 127295284.73606
                        36.000                  
  22258002.718 7  22258002.999 6     -2677.219 7     -2086.050 6 116966575.01607
  91142767.53206        46.250          41.250  
  24428559.861 5  24428560.510 4     -3682.480 5     -2869.860 4 128372936.80205
 100030844.86604        32.500          29.000  
  22672413.504 7                     -2588.656 7                 119144340.82507
                        47.000                  
  20249472.632 8  20249474.810 8       956.230 8       745.076 8 106411682.20708
  82918201.93608        51.250          49.500  
  23441387.587 7  23441390.923 6      1899.214 7      1479.963 6 123185333.60707
  95988586.37806        42.250          38.750  
  24632976.166 6  24632978.116 5      3530.032 6      2750.474 5 129447160.14206
 100867915.70705        38.000          32.500  
  22897008.233 7  22897011.627 7     -3065.913 7     -2389.095 7 120324554.62407
  93759390.27307        46.000          42.750  
 16 02 18 00 00 48.0000000  0 11G02G06G12G13G15G17G19G24G25G29G32   
  22211437.667 7                      2773.948 7                 116721890.19507
                        45.250                  
  22663173.429 7  22663177.561 7       538.396 7       419.391 7 119095793.74407
  92801932.60407        43.500          42.000  
  21216480.454 8  21216479.367 7       678.883 8       528.979 7 111493357.83608
  86877941.83307        49.250          44.000  
  24224179.487 6                     -3585.043 6                 127298869.86506
                        36.000                  
  22258512.308 7  22258512.746 6     -2677.415 7     -2086.344 6 116969252.37607
  91144853.76906        46.500          41.250  
  24429260.748 5  24429262.009 4     -3682.489 5     -2869.205 4 128376619.38105
 100033714.40804        32.250          29.750  
  22672906.228 7                     -2589.002 7                 119146929.72707
                        47.250                  
  20249290.772 8  20249292.864 8       955.732 8       744.652 8 106410726.26008
  82917457.04008        51.250          49.500  
  23441026.316 7  23441029.173 6      1899.246 7      1479.938 6 123183434.38507
  95987106.45306        42.250          38.750  
  24632304.886 6  24632306.541 5      3529.959 6      2750.629 5 129443630.30006
 100865165.14605        38.500          31.750  
  22897591.597 7  22897595.022 7     -3066.251 7     -2389.432 7 120327620.81307
  93761779.51907        46.250          42.750  
 16 02 18 00 00 49.0000000  0 11G02G06G12G13G15G17G19G24G25G29G32   
  22210909.841 7                      2773.558 7                 116719116.46107
                        45.250                  
  22663070.931 7  22663074.902 7       537.695 7       418.994 7 119095255.72907
  92801513.36507        43.750          42.250  
  21216351.367 8  21216350.196 7       678.648 8       528.899 7 111492679.07508
  86877412.92707        49.250          44.000  
  24224861.758 5                     -3584.933 5                 127302454.98505
                        35.750                  
  22259021.890 7  22259022.328 6     -2677.830 7     -2086.411 6 116971930.02707
  91146940.25606        46.250          41.000  
  24429961.697 5  24429963.736 5     -3682.552 5     -2869.341 5 128380302.02905
 100036583.96605        32.250          30.500  
  22673398.858 7                     -2589.276 7                 119149518.88507
                        47.250                  
  20249108.991 8  20249111.137 8       955.199 8       744.373 8 106409770.77508
  82916712.49908        51.250          49.500  
  23440664.794 7  23440667.629 6      1899.076 7      1479.862 6 123181535.21807
  95985626.59406        42.250          38.250  
  24631633.181 6  24631635.055 5      3529.751 6      2750.419 5 129440100.55306
 100862414.72305        38.250          31.500  
  22898174.897 7  22898178.600 7     -3066.469 7     -2389.407 7 120330687.18207
  93764168.88807        45.750          42.750  
 16 02 18 00 00 50.0000000  0 11G02G06G12G13G15G17G19G24G25G29G32   
  22210382.020 7                      2773.237 7                 116716343.02907
                        45.250                  
  22662968.566 7  22662972.730 7       537.165 7       418.664 7 119094718.27907
  92801094.57307        43.250          42.250  
  21216222.142 8  21216220.952 7       678.496 8       528.733 7 111492000.44908
  86876884.13307        49.250          44.250  
  24225544.020 6                     -3585.194 6                 127306040.07206
                        36.250                  
  22259531.512 7  22259531.762 6     -2678.191 7     -2086.735 6 116974607.98607
  91149026.97406        46.250          41.000  
  24430662.785 5  24430665.208 4     -3682.408 5     -2870.094 4 128383984.73205
 100039453.71004        31.250          29.250  
  22673891.756 7                     -2589.630 7                 119152108.34407
                        47.000                  
  20248927.300 8  20248929.357 8       954.746 8       743.915 8 106408815.75908
  82915968.33708        51.250          49.500  
  23440303.393 6  23440306.094 6      1899.004 6      1479.883 6 123179636.12406
  95984146.78206        41.750          38.250  
  24630961.490 6  24630962.796 5      3529.531 6      2750.021 5 129436570.98006
 100859664.38505        38.250          31.000  
  22898758.516 7  22898761.981 7     -3066.710 7     -2389.669 7 120333753.76807
  93766558.43107        45.500          42.750  
 16 02 18 00 00 51.0000000  0 11G02G06G12G13G15G17G19G24G25G29G32   
  22209854.368 7                      2773.028 7                 116713569.90407
                        45.000                  
  22662866.274 7  22662870.665 7       536.539 7       418.026 7 119094181.41407
  92800676.23507        43.250          42.250  
  21216092.903 8  21216092.107 7       678.398 8       528.628 7 111491321.96708
  86876355.44107        49.250          44.000  
  24226226.090 5                     -3585.142 5                 127309625.19805
                        35.750                  
  22260041.102 7  22260041.290 6     -2678.428 7     -2087.057 6 116977286.26407
  91151113.94706        46.250          41.000  
  24431363.479 5  24431364.973 4     -3682.691 5     -2869.667 4 128387667.55305
 100042323.36804        32.750          29.500  
  22674384.537 7                     -2589.925 7                 119154698.09207
                        46.750                  
  20248745.627 8  20248747.693 8       954.320 8       743.568 8 106407861.21208
  82915224.53508        51.250          49.500  
  23439942.077 7  23439944.568 6      1898.905 7      1479.683 6 123177737.12207
  95982667.03606        42.000          38.250  
  24630289.888 6  24630291.176 5      3529.533 6      2750.224 5 129433041.50906
 100856914.15105        38.500          31.250  
  22899342.036 7  22899345.591 7     -3066.836 7     -2389.850 7 120336820.54307
  93768948.13107        45.250          43.000  
 16 02 18 00 00 52.0000000  0 11G02G06G12G13G15G17G19G24G25G29G32   
  22209326.793 7                      2772.682 7                 116710797.10507
                        45.000                  
  22662764.379 7  22662768.685 7       536.005 7       417.576 7 119093645.13107
  92800258.34707        43.250          42.250  
  21215963.834 8  21215963.293 7       678.249 8       528.522 7 111490643.63008
  86875826.85807        49.250          44.000  
  24226907.928 6                     -3585.079 6                 127313210.27806
                        36.000                  
  22260550.840 7  22260550.510 6     -2678.756 7     -2087.116 6 116979964.85707
  91153201.15406        46.250          40.750  
  24432065.153 5  24432065.949 5     -3682.993 5     -2869.895 5 128391350.48105
 100045193.18805        33.250          30.250  
  22674877.435 7                     -2590.200 7                 119157288.13007
                        46.750                  
  20248564.110 8  20248566.208 8       953.807 8       743.265 8 106406907.15808
  82914481.11008        51.250          49.500  
  23439580.609 7  23439583.243 6      1898.911 7      1479.748 6 123175838.18207
  95981187.34806        42.000          38.250  
  24629618.085 6  24629619.359 5      3529.137 6      2749.994 5 129429512.19306
 100854164.02005        38.250          31.750  
  22899925.390 7  22899929.348 7     -3067.089 7     -2389.872 7 120339887.53807
  93771337.99107        45.250          43.000  
 16 02 18 00 00 53.0000000  0 11G02G06G12G13G15G17G19G24G25G29G32   
  22208799.186 7                      2772.374 7                 116708024.58907
                        45.250                  
  22662662.309 7  22662666.723 7       535.401 7       417.171 7 119093109.40407
  92799840.90407        43.250          42.500  
  21215834.792 8  21215834.179 7       678.116 8       528.449 7 111489965.41408
  86875298.38807        49.250          44.000  
  24227589.783 6                     -3585.045 6                 127316795.43306
                        36.000                  
  22261060.659 7  22261060.261 6     -2679.033 7     -2087.435 6 116982643.74407
  91155288.59806        46.500          40.750  
  24432765.954 5  24432766.571 4     -3682.921 5     -2870.033 4 128395033.44605
 100048063.03704        32.500          29.500  
  22675370.311 7                     -2590.430 7                 119159878.43907
                        46.750                  
  20248382.665 8  20248384.758 8       953.355 8       742.955 8 106405953.56308
  82913738.04908        51.250          49.750  
  23439219.284 6  23439221.851 6      1898.771 6      1479.647 6 123173939.31406
  95979707.70806        41.750          38.000  
  24628946.541 6  24628947.686 5      3529.132 6      2750.261 5 129425982.97806
 100851413.96305        38.500          31.500  
  22900509.026 7  22900512.975 7     -3067.280 7     -2390.072 7 120342954.71807
  93773727.99807        45.250          42.500  
 16 02 18 00 00 54.0000000  0 11G02G06G12G13G15G17G19G24G25G29G32   
  22208271.499 7                      2772.048 7                 116705252.39807
                        45.000                  
  22662560.374 7  22662564.788 7       534.941 7       416.813 7 119092574.24107
  92799423.89407        43.250          42.500  
  21215705.848 8  21215705.178 7       677.974 8       528.422 7 111489287.34308
  86874770.02207        49.250          44.250  
  24228272.122 5                     -3585.233 5                 127320380.56705
                        35.500                  
  22261570.630 7  22261569.995 6     -2679.390 7     -2087.830 6 116985322.94507
  91157376.29506        46.500          40.750  
  24433466.814 5  24433467.065 4     -3683.150 5     -2870.124 4 128398716.51005
 100050932.95304        32.750          29.000  
  22675863.173 7                     -2590.758 7                 119162469.03607
                        46.750                  
  20248201.207 8  20248203.403 8       952.881 8       742.522 8 106405000.45408
  82912995.37408        51.250          49.500  
  23438857.753 6  23438860.656 6      1898.723 6      1479.585 6 123172040.51006
  95978228.10306        41.750          38.000  
  24628275.078 6  24628275.972 5      3528.839 6      2750.023 5 129422453.91106
 100848664.07505        38.750          31.750  
  22901092.680 7  22901096.785 7     -3067.465 7     -2390.256 7 120346022.11307
  93776118.17407        45.250          42.750  
 16 02 18 00 00 55.0000000  0 11G02G06G12G13G15G17G19G24G25G29G32   
  22207744.004 7                      2771.736 7                 116702480.52007
                        45.000                  
  22662458.640 7  22662463.099 7       534.277 7       416.201 7 119092039.66507
  92799007.34107        43.250          42.500  
  21215576.837 8  21215576.234 7       677.925 8       528.246 7 111488609.41208
  86874241.76107        49.250          44.000  
  24228954.724 6                     -3584.960 6                 127323965.65506
                        36.000                  
  22262080.569 7  22262080.006 6     -2679.658 7     -2088.051 6 116988002.45207
  91159464.21806        46.500          41.000  
  24434167.343 5  24434168.184 4     -3683.340 5     -2870.134 4 128402399.64305
 100053802.92204        33.000          28.750  
  22676356.210 7                     -2590.990 7                 119165059.91107
                        46.750                  
  20248019.887 8  20248022.141 8       952.387 8       742.098 8 106404047.81608
  82912253.05508        51.000          49.500  
  23438496.558 6  23438499.398 6      1898.714 6      1479.572 6 123170141.79206
  95976748.59606        41.750          38.250  
  24627603.601 6  24627604.366 5      3528.805 6      2749.495 5 129418924.94706
 100845914.24305        38.500          31.750  
  22901676.384 7  22901680.372 7     -3067.672 7     -2390.434 7 120349089.70507
  93778508.50307        45.250          42.750  
 16 02 18 00 00 56.0000000  0 11G02G06G12G13G15G17G19G24G25G29G32   
  22207216.513 7                      2771.399 7                 116699708.94707
                        45.000                  
  22662357.144 7  22662361.508 7       533.781 7       415.966 7 119091505.64407
  92798591.21507        43.250          42.500  
  21215447.845 8  21215447.228 7       677.765 8       528.145 7 111487931.60708
  86873713.60307        49.250          44.000  
  24229636.709 5                     -3585.041 5                 127327550.80605
                        35.500                  
  22262590.531 7  22262590.164 6     -2679.936 7     -2088.247 6 116990682.26007
  91161552.38106        46.250          41.000  
  24434867.675 5  24434868.815 4     -3682.875 5     -2870.185 4 128406082.81905
 100056672.96204        32.750          29.000  
  22676849.331 7                     -2591.262 7                 119167651.06907
                        46.750                  
  20247838.688 8  20247840.870 8       951.912 8       741.753 8 106403095.66508
  82911511.11908        51.250          49.500  
  23438135.117 7  23438137.831 6      1898.682 7      1479.521 6 123168243.12307
  95975269.08906        42.000          38.250  
  24626932.299 6  24626933.622 5      3528.809 6      2749.502 5 129415396.12106
 100843164.51905        38.500          31.500  
  22902260.029 7  22902264.214 7     -3067.923 7     -2390.633 7 120352157.49207
  93780898.98307        45.000          42.750  
 16 02 18 00 00 57.0000000  0 11G02G06G12G13G15G17G19G24G25G29G32   
  22206689.184 7                      2771.081 7                 116696937.68707
                        45.000                  
  22662255.790 7  22662259.872 7       532.951 7       415.432 7 119090972.21607
  92798175.54707        43.500          42.250  
  21215319.004 8  21215318.190 7       677.574 8       528.006 7 111487253.94508
  86873185.55607        49.500          44.000  
  24230318.953 5                     -3585.295 5                 127331135.91605
                        35.500                  
  22263100.417 7  22263100.197 6     -2680.301 7     -2088.552 6 116993362.38607
  91163640.78506        46.500          41.250  
  24435568.495 5  24435568.866 4     -3682.972 5     -2869.895 4 128409766.13105
 100059543.04204        32.750          28.500  
  22677342.618 7                     -2591.656 7                 119170242.51407
                        47.000                  
  20247657.587 8  20247659.711 8       951.350 8       741.374 8 106402143.98408
  82910769.54708        51.250          49.500  
  23437773.747 6  23437776.238 6      1898.636 6      1479.436 6 123166344.52906
  95973789.67506        41.750          38.750  
  24626260.643 6  24626261.600 5      3528.629 6      2749.475 5 129411867.42906
 100840414.86605        38.000          32.000  
  22902843.826 7  22902847.672 7     -3068.058 7     -2390.719 7 120355225.48007
  93783289.62407        45.250          42.750  
 16 02 18 00 00 58.0000000  0 11G02G06G12G13G15G17G19G24G25G29G32   
  22206161.917 7                      2770.772 7                 116694166.74207
                        45.000                  
  22662154.467 7  22662158.425 7       532.587 7       415.032 7 119090439.35807
  92797760.33707        43.500          42.250  
  21215189.953 8  21215189.134 7       677.482 8       527.912 7 111486576.43908
  86872657.62307        49.500          44.000  
  24231000.831 5                     -3584.989 5                 127334721.05405
                        35.500                  
  22263610.258 7  22263610.342 6     -2680.616 7     -2088.713 6 116996042.82307
  91165729.42406        46.500          41.250  
  24436269.761 5  24436270.285 4     -3683.111 5     -2870.097 4 128413449.51305
 100062413.21404        32.750          29.000  
  22677835.955 7                     -2591.861 7                 119172834.25407
                        47.000                  
  20247476.549 8  20247478.696 8       951.000 8       741.021 8 106401192.77608
  82910028.34308        51.250          49.500  
  23437412.516 6  23437415.168 6      1898.527 6      1479.046 6 123164446.02606
  95972310.34006        41.750          38.000  
  24625589.551 6  24625590.396 5      3528.709 6      2749.782 5 129408338.87906
 100837665.33305        38.000          31.250  
  22903427.712 7  22903431.384 7     -3068.167 7     -2390.821 7 120358293.68707
  93785680.43007        45.000          42.500  
 16 02 18 00 00 59.0000000  0 11G02G06G12G13G15G17G19G24G25G29G32   
  22205634.623 7                      2770.426 7                 116691396.09607
                        45.250                  
  22662053.131 7  22662057.259 7       531.928 7       414.431 7 119089907.06107
  92797345.56507        43.500          42.250  
  21215061.139 8  21215060.133 7       677.254 8       527.739 7 111485899.04808
  86872129.79907        49.500          44.000  
  24231683.124 5                     -3585.156 5                 127338306.19105
                        34.750                  
  22264120.313 7  22264120.738 6     -2680.861 7     -2088.938 6 116998723.54507
  91167818.30706        46.500          41.000  
  24436970.241 5  24436971.171 4     -3683.542 5     -2870.727 4 128417133.00705
 100065283.44104        31.750          29.250  
  22678329.157 7                     -2592.165 7                 119175426.25607
                        47.000                  
  20247295.703 8  20247297.765 8       950.491 8       740.628 8 106400242.03608
  82909287.51108        51.250          49.500  
  23437051.307 6  23437054.335 6      1898.223 6      1479.334 6 123162547.57606
  95970831.02006        41.500          38.500  
  24624917.909 6  24624919.089 5      3528.565 6      2749.691 5 129404810.43506
 100834915.90705        38.250          31.000  
  22904011.823 7  22904015.364 7     -3068.549 7     -2391.082 7 120361362.08907
  93788071.39207        45.500          42.750  
 16 02 18 00 01 00.0000000  0 11G02G06G12G13G15G17G19G24G25G29G32   
  22205107.540 7                      2770.131 7                 116688625.76107
                        45.250                  
  22661952.024 7  22661956.196 7       531.464 7       414.120 7 119089375.33407
  92796931.24007        43.500          42.500  
  21214932.302 8  21214931.180 7       677.195 8       527.673 7 111485221.80808
  86871602.07407        49.750          43.750  
  24232365.311 5                     -3585.022 5                 127341891.32205
                        35.500                  
  22264630.445 7  22264630.879 6     -2681.188 7     -2089.046 6 117001404.58007
  91169907.41306        46.500          41.500  
  24437670.640 5  24437673.171 4     -3683.450 5     -2870.061 4 128420816.52705
 100068153.68104        32.000          28.000  
  22678822.484 7                     -2592.438 7                 119178018.55807
                        46.750                  
  20247114.911 8  20247116.834 8       950.048 8       740.312 8 106399291.77508
  82908547.04808        51.000          49.500  
  23436689.951 6  23436693.041 6      1898.408 6      1479.149 6 123160649.18606
  95969351.74406        41.250          38.500  
  24624246.615 6  24624247.214 5      3528.105 6      2748.899 5 129401282.15906
 100832166.61605        38.000          31.250  
  22904595.754 7  22904599.376 7     -3068.686 7     -2391.191 7 120364430.68007
  93790462.51007        45.250          42.750  
 16 02 18 00 01 01.0000000  0 11G02G06G12G13G15G17G19G24G25G29G32   
  22204580.393 7                      2769.946 7                 116685855.74507
                        45.250                  
  22661851.014 7  22661855.199 7       530.935 7       413.638 7 119088844.18107
  92796517.36307        43.750          42.500  
  21214803.426 8  21214802.339 7       677.089 8       527.617 7 111484544.70908
  86871074.46407        49.500          43.750  
  24233047.090 5                     -3585.138 5                 127345476.46605
                        35.000                  
  22265140.639 7  22265141.332 6     -2681.412 7     -2089.385 6 117004085.93907
  91171996.77706        46.250          41.000  
  24438371.531 5  24438373.467 4     -3683.387 5     -2869.853 4 128424500.14105
 100071024.05804        31.750          28.500  
  22679315.767 7                     -2592.685 7                 119180611.14407
                        47.000                  
  20246934.146 8  20246936.078 8       949.581 8       739.916 8 106398341.98708
  82907806.95408        51.250          49.250  
  23436328.626 6  23436331.922 6      1898.344 6      1479.273 6 123158750.89206
  95967872.55606        41.500          38.250  
  24623574.928 6  24623576.019 5      3527.782 6      2748.971 5 129397754.02106
 100829417.41905        38.000          30.750  
  22905179.632 7  22905183.477 7     -3068.928 7     -2391.323 7 120367499.49607
  93792853.79007        45.250          42.500  
 16 02 18 00 01 02.0000000  0 11G02G06G12G13G15G17G19G24G25G29G32   
  22204053.364 7                      2769.649 7                 116683086.01707
                        45.000                  
  22661750.063 7  22661754.257 7       530.448 7       413.209 7 119088313.59407
  92796103.90907        44.000          42.250  
  21214674.652 8  21214673.565 7       676.981 8       527.464 7 111483867.72408
  86870546.94707        49.750          44.000  
  24233729.876 5                     -3585.199 5                 127349061.55705
                        35.750                  
  22265650.896 7  22265651.495 6     -2681.758 7     -2089.697 6 117006767.57107
  91174086.36506        46.500          41.000  
  24439072.158 5  24439073.098 4     -3683.730 5     -2870.563 4 128428183.80305
 100073894.47404        33.000          28.000  
  22679809.157 7                     -2592.881 7                 119183203.98807
                        46.750                  
  20246753.475 8  20246755.473 8       949.222 8       739.502 8 106397392.63908
  82907067.20908        51.250          49.250  
  23435967.256 6  23435970.865 6      1898.220 6      1479.087 6 123156852.65906
  95966393.41406        41.250          38.000  
  24622903.724 6  24622905.245 5      3527.927 6      2749.057 5 129394225.93606
 100826668.24705        38.000          31.000  
  22905763.710 7  22905767.426 7     -3069.084 7     -2391.564 7 120370568.48607
  93795245.20607        45.250          42.500  
 16 02 18 00 01 03.0000000  0 11G02G06G12G13G15G17G19G24G25G29G32   
  22203526.499 7                      2769.221 7                 116680316.61207
                        45.250                  
  22661649.330 7  22661653.279 7       529.763 7       412.751 7 119087783.58607
  92795690.92207        44.000          42.500  
  21214545.865 8  21214544.760 7       676.792 8       527.316 7 111483190.89908
  86870019.55007        50.000          44.000  
  24234412.089 6                     -3585.318 6                 127352646.71506
                        36.000                  
  22266161.376 7  22266161.569 6     -2682.100 7     -2089.905 6 117009449.53607
  91176176.20906        46.500          41.250  
  24439774.078 5  24439773.707 4     -3684.040 5     -2870.777 4 128431867.58305
 100076764.95804        32.750          28.250  
  22680302.613 7                     -2593.277 7                 119185797.14807
                        46.750                  
  20246572.942 8  20246574.851 8       948.637 8       739.192 8 106396443.75908
  82906327.81308        51.250          49.500  
  23435605.829 6  23435609.647 6      1898.057 6      1478.941 6 123154954.50106
  95964914.32006        41.000          38.250  
  24622232.346 6  24622234.381 5      3527.780 6      2749.362 5 129390698.02506
 100823919.21805        37.750          31.000  
  22906347.651 7  22906351.586 7     -3069.373 7     -2391.767 7 120373637.70207
  93797636.80807        45.250          42.750  
 16 02 18 00 01 04.0000000  0 11G02G06G12G13G15G17G19G24G25G29G32   
  22202999.532 7                      2768.856 7                 116677547.52807
                        45.250                  
  22661548.562 7  22661552.641 7       529.115 7       412.321 7 119087254.15807
  92795278.37007        44.000          42.250  
  21214417.131 8  21214415.937 7       676.575 8       527.231 7 111482514.21108
  86869492.25307        50.000          43.750  
  24235094.351 5                     -3585.074 5                 127356231.82105
                        35.250                  
  22266672.058 7  22266671.696 6     -2682.430 7     -2090.279 6 117012131.79707
  91178266.28006        47.000          41.000  
  24440475.617 5  24440474.920 4     -3684.445 5     -2869.715 4 128435551.46005
 100079635.42304        32.500          28.000  
  22680796.008 7                     -2593.607 7                 119188390.58707
                        47.000                  
  20246392.436 8  20246394.381 8       948.180 8       738.840 8 106395495.33908
  82905588.78408        51.500          49.250  
  23435244.732 6  23435248.354 6      1898.110 6      1478.994 6 123153056.40206
  95963435.28206        41.250          38.250  
  24621561.187 6  24621561.719 5      3527.632 6      2748.830 5 129387170.26806
 100821170.30205        38.000          31.750  
  22906931.940 7  22906935.857 7     -3069.566 7     -2391.785 7 120376707.11507
  93800028.53707        45.250          43.000  
 16 02 18 00 01 05.0000000  0 11G02G06G12G13G15G17G19G24G25G29G32   
  22202472.703 7                      2768.774 7                 116674778.73707
                        45.250                  
  22661447.893 7  22661451.685 7       528.606 7       411.887 7 119086725.29307
  92794866.27307        43.750          42.250  
  21214288.380 8  21214287.248 7       676.559 8       527.097 7 111481837.66108
  86868965.07707        49.750          44.000  
  24235776.555 6                     -3585.091 6                 127359816.95506
                        36.000                  
  22267182.597 7  22267182.351 6     -2682.679 7     -2090.441 6 117014814.36307
  91180356.60006        46.750          41.000  
  24441177.452 5  24441176.258 4     -3683.514 5     -2870.450 4 128439235.33505
 100082506.05904        31.500          29.250  
  22681289.635 7                     -2593.867 7                 119190984.31207
                        47.000                  
  20246211.992 8  20246214.049 8       947.755 8       738.505 8 106394547.38608
  82904850.12208        51.250          49.250  
  23434883.536 6  23434887.073 6      1898.138 6      1478.945 6 123151158.38206
  95961956.32006        41.750          38.500  
  24620889.858 6  24620890.086 5      3527.559 6      2748.947 5 129383642.62206
 100818421.48705        38.250          31.000  
  22907516.121 7  22907519.963 7     -3069.743 7     -2392.022 7 120379776.72207
  93802420.44807        45.250          42.750  
 16 02 18 00 01 06.0000000  0 11G02G06G12G13G15G17G19G24G25G29G32   
  22201945.727 7                      2768.259 7                 116672010.26707
                        45.250                  
  22661346.955 7  22661351.181 7       527.892 7       411.501 7 119086197.01007
  92794454.62607        43.500          42.250  
  21214159.669 8  21214158.591 7       676.286 8       527.036 7 111481161.25208
  86868438.00607        50.000          43.750  
  24236458.916 6                     -3585.104 6                 127363402.09506
                        36.000                  
  22267693.171 7  22267692.961 6     -2683.064 7     -2090.676 6 117017497.23307
  91182447.14506        46.750          41.000  
  24441878.576 5  24441878.070 4     -3684.303 5     -2870.990 4 128442919.41505
 100085376.69404        32.250          28.500  
  22681783.199 7                     -2594.180 7                 119193578.31307
                        47.250                  
  20246031.737 8  20246033.700 8       947.196 8       738.096 8 106393599.89208
  82904111.81708        51.250          49.250  
  23434522.578 6  23434525.865 6      1897.979 6      1478.837 6 123149260.42906
  95960477.39306        41.500          38.250  
  24620218.926 6  24620219.204 5      3527.559 6      2748.829 5 129380115.10106
 100815672.78805        38.250          31.500  
  22908100.285 7  22908104.095 7     -3069.881 7     -2392.137 7 120382846.52507
  93804812.50507        45.500          42.500  
 16 02 18 00 01 07.0000000  0 11G02G06G12G13G15G17G19G24G25G29G32   
  22201418.880 7                      2767.974 7                 116669242.11607
                        45.000                  
  22661246.643 7  22661250.694 7       527.447 7       411.049 7 119085669.29207
  92794043.42207        43.750          42.250  
  21214030.984 8  21214030.005 7       676.227 8       526.947 7 111480484.98108
  86867911.04407        49.750          43.750  
  24237141.285 6                     -3585.147 6                 127366987.20606
                        36.000                  
  22268203.777 7  22268203.638 6     -2683.355 7     -2090.843 6 117020180.42207
  91184537.93506        46.750          41.250  
  24442579.324 5                     -3684.169 5                 128446603.50605
                        32.250                  
  22682276.880 7                     -2594.400 7                 119196172.59107
                        47.250                  
  20245851.513 8  20245853.502 8       946.840 8       737.767 8 106392652.86808
  82903373.87608        51.250          49.250  
  23434161.530 7  23434164.535 6      1897.833 7      1478.769 6 123147362.57107
  95958998.53406        42.000          38.500  
  24619547.387 6  24619548.501 5      3527.359 6      2748.618 5 129376587.74206
 100812924.19205        37.750          32.000  
  22908684.360 7  22908688.286 7     -3070.105 7     -2392.208 7 120385916.54207
  93807204.70907        45.250          42.500  
 16 02 18 00 01 08.0000000  0 11G02G06G12G13G15G17G19G24G25G29G32   
  22200892.222 7                      2767.749 7                 116666474.25507
                        45.250                  
  22661146.309 7  22661150.610 7       526.806 7       410.468 7 119085142.15407
  92793632.65807        43.750          42.250  
  21213902.210 8  21213901.347 7       676.076 8       526.826 7 111479808.83408
  86867384.16307        49.750          43.750  
  24237823.543 6                     -3584.877 6                 127370572.35206
                        36.500                  
  22268714.373 7  22268714.315 6     -2683.555 7     -2091.167 6 117022863.88407
  91186628.95106        46.500          41.250  
  24443280.496 5                     -3684.176 5                 128450287.64405
                        32.750                  
  22682770.645 7                     -2594.742 7                 119198767.16407
                        47.000                  
  20245671.337 8  20245673.368 8       946.308 8       737.402 8 106391706.32208
  82902636.29708        51.250          49.000  
  23433800.487 6  23433803.250 6      1897.728 6      1478.543 6 123145464.77506
  95957519.74706        41.750          38.250  
  24618875.946 6  24618876.711 5      3527.192 6      2748.336 5 129373060.46706
 100810175.67705        38.000          30.250  
  22909268.586 7  22909272.490 7     -3070.340 7     -2392.474 7 120388986.76407
  93809597.09007        45.250          42.750  
 16 02 18 00 01 09.0000000  0 11G02G06G12G13G15G17G19G24G25G29G32   
  22200365.670 7                      2767.398 7                 116663706.72607
                        45.250                  
  22661046.229 7  22661050.249 7       526.382 7       410.156 7 119084615.58507
  92793222.34207        43.750          42.250  
  21213773.566 8  21213772.708 7       676.001 8       526.726 7 111479132.84408
  86866857.41907        49.750          43.750  
  24238505.908 6                     -3585.362 6                 127374157.48106
                        36.250                  
  22269224.961 7  22269224.997 6     -2683.834 7     -2091.385 6 117025547.67507
  91188720.21506        46.500          41.250  
  24443981.052 5                     -3684.392 5                 128453971.90705
                        33.000                  
  22683264.500 7                     -2595.009 7                 119201362.03107
                        47.250                  
  20245491.319 8  20245493.398 8       945.835 8       737.042 8 106390760.25808
  82901899.10708        51.250          49.250  
  23433439.390 7  23433442.109 6      1897.737 7      1478.594 6 123143567.03607
  95956040.98006        42.000          38.750  
  24618204.487 6  24618205.543 5      3527.232 6      2747.984 5 129369533.35406
 100807427.28205        38.000          30.750  
  22909852.857 7  22909856.452 7     -3070.417 7     -2392.587 7 120392057.17207
  93811989.62107        45.250          42.500  
 16 02 18 00 01 10.0000000  0 11G02G06G12G13G15G17G19G24G25G29G32   
  22199839.056 7                      2767.043 7                 116660939.50607
                        45.250                  
  22660946.016 7  22660950.317 7       525.755 7       409.708 7 119084089.61107
  92792812.48907        43.750          42.250  
  21213644.927 8  21213644.014 7       675.793 8       526.549 7 111478456.99608
  86866330.78907        49.750          43.750  
  24239188.448 6                     -3585.048 6                 127377742.61006
                        36.250                  
  22269735.804 7  22269736.063 6     -2684.277 7     -2091.698 6 117028231.79107
  91190811.72906        46.500          41.500  
  24444682.292 5                     -3684.150 5                 128457656.23205
                        31.500                  
  22683758.382 7                     -2595.372 7                 119203957.18707
                        47.250                  
  20245311.358 8  20245313.532 8       945.359 8       736.623 8 106389814.66108
  82901162.28308        51.250          49.250  
  23433078.414 7  23433081.079 6      1897.556 7      1478.590 6 123141669.38407
  95954562.30806        42.250          38.750  
  24617533.006 6  24617534.401 5      3526.931 6      2747.938 5 129366006.38506
 100804679.00805        37.750          30.750  
  22910437.093 7  22910440.634 7     -3070.733 7     -2392.768 7 120395127.81307
  93814382.32507        45.250          42.500  
 16 02 18 00 01 11.0000000  0 11G02G06G12G13G15G17G19G24G25G29G32   
  22199312.567 7                      2766.805 7                 116658172.59207
                        45.250                  
  22660846.205 7  22660850.301 7       525.239 7       409.306 7 119083564.18807
  92792403.06307        43.750          42.250  
  21213516.354 8  21213515.339 7       675.716 8       526.341 7 111477781.27408
  86865804.26607        49.750          43.750  
  24239870.786 6                     -3585.374 6                 127381327.78406
                        36.000                  
  22270246.512 7  22270247.017 6     -2684.504 7     -2091.809 6 117030916.19907
  91192903.46906        46.500          41.250  
  24445383.465 5                     -3684.566 5                 128461340.69905
                        32.750                  
  22684252.317 7                     -2595.477 7                 119206552.59707
                        47.000                  
  20245131.470 8  20245133.625 8       945.034 8       736.281 8 106388869.50508
  82900425.80308        51.000          49.250  
  23432717.447 7  23432719.991 6      1897.652 7      1478.507 6 123139771.80907
  95953083.67306        42.000          38.250  
  24616862.222 6  24616863.023 5      3526.899 6      2748.293 5 129362479.53306
 100801930.77305        38.250          31.000  
  22911021.485 7  22911025.308 7     -3070.906 7     -2393.011 7 120398198.63907
  93816775.17907        45.250          42.750  
 16 02 18 00 01 12.0000000  0 11G02G06G12G13G15G17G19G24G25G29G32   
  22198785.882 7                      2766.560 7                 116655405.98307
                        45.000                  
  22660746.452 7  22660750.539 7       524.579 7       408.814 7 119083039.33207
  92791994.10007        44.000          42.250  
  21213387.790 8  21213386.878 7       675.567 8       526.345 7 111477105.68908
  86865277.82607        49.750          43.750  
  24240553.098 6                     -3584.905 6                 127384912.90806
                        36.750                  
  22270757.511 7  22270758.124 6     -2684.847 7     -2091.973 6 117033600.91607
  91194995.45706        46.500          41.500  
  24446084.222 5                     -3684.419 5                 128465025.17205
                        31.750                  
  22684746.136 7                     -2595.802 7                 119209148.31607
                        47.000                  
  20244951.719 8  20244953.812 8       944.508 8       735.915 8 106387924.82508
  82899689.68608        51.000          49.250  
  23432356.466 7  23432359.314 6      1897.510 7      1478.429 6 123137874.28607
  95951605.08406        42.250          39.000  
  24616191.542 6  24616191.452 5      3526.539 6      2748.375 5 129358952.81706
 100799182.68505        38.500          30.750  
  22911605.876 7  22911609.588 7     -3071.164 7     -2393.135 7 120401269.66607
  93819168.18107        45.250          42.500  
 16 02 18 00 01 13.0000000  0 11G02G06G12G13G15G17G19G24G25G29G32   
  22198259.366 7                      2766.202 7                 116652639.69807
                        45.000                  
  22660646.694 7  22660650.947 7       524.213 7       408.427 7 119082515.05607
  92791585.57407        44.000          42.500  
  21213259.209 8  21213258.440 7       675.531 8       526.368 7 111476430.23908
  86864751.49707        49.500          44.000  
  24241235.673 6                     -3584.936 6                 127388498.05006
                        36.500                  
  22271268.484 7  22271268.823 6     -2684.967 7     -2092.208 6 117036285.92907
  91197087.67706        46.500          41.500  
  24446784.929 5                     -3684.524 5                 128468709.74305
                        32.000                  
  22685239.969 7                     -2595.980 7                 119211744.29407
                        46.750                  
  20244772.058 8  20244774.102 8       943.994 8       735.600 8 106386980.63008
  82898953.94008        51.000          49.250  
  23431995.342 7  23431998.441 6      1897.589 7      1478.525 6 123135976.86307
  95950126.55506        42.250          39.500  
  24615520.803 6  24615520.293 5      3526.465 6      2747.727 5 129355426.22806
 100796434.72005        38.750          30.250  
  22912190.487 7  22912193.939 7     -3071.187 7     -2393.228 7 120404340.88507
  93821561.33407        45.250          42.500  
 16 02 18 00 01 14.0000000  0 11G02G06G12G13G15G17G19G24G25G29G32   
  22197733.217 7                      2765.881 7                 116649873.71207
                        45.250                  
  22660546.955 7  22660551.373 7       523.422 7       407.937 7 119081991.35207
  92791177.49107        44.000          42.500  
  21213130.618 8  21213130.055 7       675.302 8       526.100 7 111475754.92408
  86864225.29007        49.500          43.750  
  24241917.653 6                     -3585.027 6                 127392083.18006
                        36.750                  
  22271779.407 7  22271779.626 6     -2685.475 7     -2092.600 6 117038971.26907
  91199180.13906        46.250          41.250  
  24447486.706 5                     -3685.052 5                 128472394.36505
                        31.500                  
  22685734.052 7                     -2596.329 7                 119214340.56707
                        47.000                  
  20244592.456 8  20244594.539 8       943.482 8       735.177 8 106386036.89608
  82898218.57108        51.000          49.250  
  23431634.402 7  23431637.398 6      1897.376 7      1478.455 6 123134079.49907
  95948648.10206        42.250          39.000  
  24614849.433 6  24614848.879 5      3526.402 6      2747.830 5 129351899.75706
 100793686.83005        38.250          30.500  
  22912775.000 7  22912778.519 7     -3071.453 7     -2393.305 7 120407412.30807
  93823954.64807        45.250          42.500  
 16 02 18 00 01 15.0000000  0 11G02G06G12G13G15G17G19G24G25G29G32   
  22197206.978 7                      2765.496 7                 116647108.05507
                        45.250                  
  22660447.336 7  22660451.955 7       522.770 7       407.293 7 119081468.23307
  92790769.86407        43.750          42.500  
  21213002.198 8  21213001.424 7       675.053 8       526.175 7 111475079.77008
  86863699.17907        50.000          44.000  
  24242599.424 6                     -3585.181 6                 127395668.34106
                        36.500                  
  22272290.316 7  22272290.710 6     -2685.796 7     -2092.841 6 117041656.90407
  91201272.84106        46.500          41.250  
  24448187.552 5                     -3684.517 5                 128476079.14205
                        31.750                  
  22686228.233 7                     -2596.797 7                 119216937.14007
                        47.250                  
  20244412.889 8  20244415.057 8       942.911 8       734.781 8 106385093.65308
  82897483.57208        51.250          49.250  
  23431273.256 7  23431276.426 6      1897.295 7      1478.368 6 123132182.20307
  95947169.68906        42.000          39.000  
  24614178.471 6  24614178.663 5      3526.048 6      2747.535 5 129348373.46106
 100790939.02305        39.000          30.250  
  22913359.642 7  22913363.085 7     -3071.853 7     -2393.575 7 120410483.94407
  93826348.12907        45.500          42.500  
 16 02 18 00 01 16.0000000  0 11G02G06G12G13G15G17G19G24G25G29G32   
  22196680.736 7                      2765.200 7                 116644342.71407
                        45.500                  
  22660347.923 7  22660352.470 7       522.242 7       406.967 7 119080945.69207
  92790362.68207        44.000          42.250  
  21212873.813 8  21212872.923 7       674.898 8       526.062 7 111474404.75508
  86863173.18907        49.750          44.000  
  24243281.588 6                     -3585.221 6                 127399253.49506
                        36.750                  
  22272801.535 7  22272801.749 6     -2686.095 7     -2093.133 6 117044342.86107
  91203365.79706        46.500          41.000  
  24448888.935 5                     -3685.195 5                 128479763.97605
                        31.750                  
  22686722.553 7                     -2596.940 7                 119219533.98607
                        47.250                  
  20244233.474 8  20244235.665 8       942.553 8       734.471 8 106384150.87208
  82896748.93008        51.250          49.250  
  23430912.507 7  23430914.868 6      1897.049 7      1478.329 6 123130284.97907
  95945691.32206        42.500          39.000  
  24613507.625 6  24613508.474 5      3526.282 6      2747.402 5 129344847.25506
 100788191.38205        38.250          31.000  
  22913944.186 7  22913947.790 7     -3071.854 7     -2393.660 7 120413555.76407
  93828741.75707        45.500          43.000  
 16 02 18 00 01 17.0000000  0 11G02G06G12G13G15G17G19G24G25G29G32   
  22196154.680 7                      2764.870 7                 116641577.67707
                        45.500                  
  22660248.528 7  22660253.053 7       521.621 7       406.495 7 119080423.72707
  92789955.95807        43.750          42.250  
  21212745.290 8  21212744.525 7       674.874 8       525.801 7 111473729.86208
  86862647.30707        49.750          43.750  
  24243964.083 6                     -3584.985 6                 127402838.63006
                        37.000                  
  22273312.578 7  22273313.075 6     -2686.435 7     -2093.371 6 117047029.11807
  91205458.98306        46.500          41.250  
  24449589.562 5                     -3684.975 5                 128483448.87305
                        30.000                  
  22687216.802 7                     -2597.189 7                 119222131.11707
                        47.000                  
  20244054.211 8  20244056.371 8       942.083 8       734.072 8 106383208.55408
  82896014.66108        51.250          49.250  
  23430551.375 7  23430553.588 6      1897.100 7      1478.303 6 123128387.82807
  95944213.00406        42.250          38.500  
  24612836.188 6  24612837.203 5      3526.148 6      2747.494 5 129341321.19506
 100785443.75505        38.750          31.250  
  22914528.788 7  22914532.455 7     -3072.060 7     -2393.835 7 120416627.81407
  93831135.55107        45.500          42.750  
 16 02 18 00 01 18.0000000  0 11G02G06G12G13G15G17G19G24G25G29G32   
  22195628.460 7                      2764.509 7                 116638812.95007
                        45.750                  
  22660149.374 7  22660153.966 7       521.219 7       406.052 7 119079902.31107
  92789549.67207        43.750          42.500  
  21212616.896 8  21212616.208 7       674.661 8       525.741 7 111473055.11408
  86862121.52307        49.750          43.750  
  24244646.470 6                     -3585.257 6                 127406423.78206
                        36.500                  
  22273823.850 7  22273824.163 6     -2686.750 7     -2093.535 6 117049715.67407
  91207552.40006        46.500          41.250  
  24450290.444 5                     -3685.148 5                 128487133.91705
                        30.500                  
  22687711.023 7                     -2597.574 7                 119224728.53207
                        47.500                  
  20243874.993 8  20243877.229 8       941.630 8       733.760 8 106382266.71808
  82895280.76108        51.250          49.500  
  23430190.510 7  23430192.290 6      1897.067 7      1478.277 6 123126490.75107
  95942734.75806        42.250          38.750  
  24612165.373 6  24612166.223 5      3525.837 6      2747.589 5 129337795.29106
 100782696.31105        38.500          31.000  
  22915113.516 7  22915116.936 7     -3072.356 7     -2393.992 7 120419700.05107
  93833529.49807        45.750          42.750  
 16 02 18 00 01 19.0000000  0 11G02G06G12G13G15G17G19G24G25G29G32   
  22195102.436 7                      2764.256 7                 116636048.51907
                        45.500                  
  22660050.336 7  22660054.795 7       520.575 7       405.677 7 119079381.49107
  92789143.82307        44.000          42.250  
  21212488.583 8  21212487.867 7       674.581 8       525.617 7 111472380.48608
  86861595.84007        49.750          44.000  
  24245328.858 6                     -3584.892 6                 127410008.89606
                        37.500                  
  22274335.028 7  22274335.449 6     -2687.005 7     -2093.810 6 117052402.52207
  91209646.05306        46.500          41.250  
  24450991.264 5                     -3685.174 5                 128490818.89505
                        31.000                  
  22688205.308 7                     -2597.876 7                 119227326.21407
                        47.250                  
  20243695.837 8  20243698.118 8       941.216 8       733.392 8 106381325.33508
  82894547.22108        51.250          49.250  
  23429829.369 7  23429831.564 6      1896.990 7      1478.200 6 123124593.73007
  95941256.57806        42.250          39.500  
  24611494.491 6  24611495.412 5      3525.679 6      2747.114 5 129334269.48806
 100779948.94005        38.250          30.250  
  22915698.135 7  22915701.641 7     -3072.447 7     -2394.156 7 120422772.46307
  93835923.59107        45.750          42.500  
 16 02 18 00 01 20.0000000  0 11G02G06G12G13G15G17G19G24G25G29G32   
  22194576.421 7                      2763.936 7                 116633284.40907
                        45.750                  
  22659951.303 7  22659955.507 7       519.914 7       405.140 7 119078861.21307
  92788738.42207        44.000          42.500  
  21212360.252 8  21212359.429 7       674.359 8       525.507 7 111471705.99808
  86861070.27507        50.000          43.750  
  24246010.990 6                     -3585.065 6                 127413594.04106
                        37.250                  
  22274846.430 7  22274846.819 6     -2687.234 7     -2094.037 6 117055089.67207
  91211739.93806        46.250          41.250  
  24451692.651 5                     -3684.970 5                 128494504.00705
                        31.250                  
  22688699.681 7                     -2598.127 7                 119229924.18207
                        47.250                  
  20243516.811 8  20243519.007 8       940.704 8       732.964 8 106380384.40908
  82893814.03808        51.250          49.250  
  23429468.285 6  23429470.794 6      1896.917 6      1478.093 6 123122696.77106
  95939778.44006        41.750          39.250  
  24610823.350 6  24610824.445 5      3525.598 6      2746.992 5 129330743.82606
 100777201.66805        38.250          32.250  
  22916282.778 7  22916286.570 7     -3072.785 7     -2394.435 7 120425845.09107
  93838317.85407        45.750          43.000  
 16 02 18 00 01 21.0000000  0 11G02G06G12G13G15G17G19G24G25G29G32   
  22194050.639 7                      2763.651 7                 116630520.62207
                        46.000                  
  22659852.387 7  22659856.581 7       519.495 7       404.751 7 119078341.54207
  92788333.47807        44.000          42.250  
  21212231.948 8  21212231.026 7       674.317 8       525.385 7 111471031.65708
  86860544.81507        50.000          43.750  
  24246693.342 6                     -3585.087 6                 127417179.17906
                        37.500                  
  22275357.845 7  22275358.274 6     -2687.514 7     -2094.228 6 117057777.13707
  91213834.06706        46.250          41.750  
  24452394.347 5                     -3685.180 5                 128498189.24005
                        30.750                  
  22689194.064 7                     -2598.329 7                 119232522.44307
                        47.250                  
  20243337.875 8  20243340.084 8       940.218 8       732.617 8 106379443.97308
  82893081.22508        51.500          49.250  
  23429107.215 6  23429110.202 6      1896.891 6      1478.102 6 123120799.90706
  95938300.35506        41.750          39.250  
  24610152.173 6  24610153.760 5      3525.617 6      2747.042 5 129327218.29106
 100774454.52005        38.000          31.500  
  22916867.581 7  22916871.458 7     -3072.937 7     -2394.479 7 120428917.93607
  93840712.26707        46.000          42.750  
 16 02 18 00 01 22.0000000  0 11G02G06G12G13G15G17G19G24G25G29G32   
  22193524.727 7                      2763.375 7                 116627757.15707
                        45.750                  
  22659753.613 7  22659757.588 7       519.083 7       404.424 7 119077822.43907
  92787928.98407        44.000          42.000  
  21212103.576 8  21212102.682 7       674.193 8       525.296 7 111470357.46508
  86860019.46407        49.750          43.750  
  24247375.720 6                     -3584.876 6                 127420764.33906
                        38.000                  
  22275869.054 7  22275870.047 7     -2687.865 7     -2094.427 7 117060464.92007
  91215928.43407        46.250          42.000  
  24453096.432 5                     -3685.320 5                 128501874.52405
                        31.000                  
  22689688.657 7                     -2598.552 7                 119235120.99207
                        47.500                  
  20243159.055 8  20243161.098 8       939.814 8       732.261 8 106378504.00708
  82892348.78508        51.250          49.250  
  23428746.100 7  23428749.203 6      1896.801 7      1478.018 6 123118903.12907
  95936822.35506        42.000          38.750  
  24609481.380 6  24609482.422 5      3525.378 6      2746.877 5 129323692.91406
 100771707.46905        38.250          31.750  
  22917452.380 7  22917456.132 7     -3073.006 7     -2394.587 7 120431990.96807
  93843106.83407        45.750          43.000  
 16 02 18 00 01 23.0000000  0 11G02G06G12G13G15G17G19G24G25G29G32   
  22192998.833 7                      2763.073 7                 116624993.99407
                        45.750                  
  22659654.897 7  22659659.101 7       518.341 7       403.920 7 119077303.90907
  92787524.93107        43.750          42.000  
  21211975.299 8  21211974.624 7       674.056 8       525.201 7 111469683.39908
  86859494.21607        49.500          43.750  
  24248058.291 6                     -3585.278 6                 127424349.48806
                        37.750                  
  22276380.675 7  22276381.708 6     -2688.197 7     -2094.593 6 117063152.99207
  91218023.02406        46.500          41.250  
  24453797.936 4                     -3686.032 4                 128505559.90704
                        29.750                  
  22690183.240 7                     -2598.927 7                 119237719.81707
                        47.250                  
  20242980.311 8  20242982.296 8       939.288 8       731.911 8 106377564.51808
  82891616.70508        51.250          49.250  
  23428385.039 7  23428387.865 6      1896.690 7      1478.008 6 123117006.41707
  95935344.38006        42.250          39.000  
  24608810.512 6  24608812.461 5      3525.165 6      2747.025 5 129320167.66306
 100768960.49205        38.000          32.000  
  22918037.282 7  22918040.881 7     -3073.304 7     -2394.844 7 120435064.21207
  93845501.56507        45.750          43.000  
 16 02 18 00 01 24.0000000  0 11G02G06G12G13G15G17G19G24G25G29G32   
  22192472.979 7                      2762.621 7                 116622231.14307
                        45.500                  
  22659556.437 7  22659560.381 7       517.599 7       403.401 7 119076785.95007
  92787121.32507        44.000          42.000  
  21211847.075 8  21211846.449 7       673.815 8       525.034 7 111469009.46108
  86858969.08007        49.750          44.000  
  24248740.066 6                     -3585.069 6                 127427934.60106
                        38.000                  
  22276892.193 7  22276893.217 6     -2688.570 7     -2094.887 6 117065841.37007
  91220117.86706        46.250          41.750  
  24454498.554 5                     -3685.911 5                 128509245.37505
                        30.500                  
  22690677.811 7                     -2599.267 7                 119240318.91807
                        47.250                  
  20242801.669 8  20242803.592 8       938.672 8       731.466 8 106376625.50708
  82890885.01308        51.250          49.250  
  23428024.237 6  23428026.943 6      1896.583 6      1477.829 6 123115109.73906
  95933866.47206        41.750          38.500  
  24608139.290 6  24608141.454 5      3525.001 6      2747.078 5 129316642.52806
 100766213.64805        37.750          31.500  
  22918622.277 7  22918625.702 7     -3073.585 7     -2394.930 7 120438137.64107
  93847896.43307        46.000          42.750  
 16 02 18 00 01 25.0000000  0 11G02G06G12G13G15G17G19G24G25G29G32   
  22191947.286 7                      2762.406 7                 116619468.59707
                        45.750                  
  22659457.837 7  22659461.808 7       517.039 7       402.863 7 119076268.55807
  92786718.16707        44.000          42.250  
  21211718.766 8  21211718.203 7       673.803 8       525.001 7 111468335.64708
  86858444.03007        49.750          44.000  
  24249422.346 6                     -3585.071 6                 127431519.74506
                        37.750                  
  22277403.881 7  22277404.659 6     -2688.822 7     -2095.252 6 117068530.04107
  91222212.94306        46.500          41.250  
  24455199.866 5                     -3685.582 5                 128512930.86305
                        32.000                  
  22691172.480 7                     -2599.431 7                 119242918.27907
                        47.250                  
  20242623.037 8  20242625.013 8       938.331 8       731.159 8 106375686.96808
  82890153.68208        51.250          49.250  
  23427663.109 6  23427665.984 6      1896.563 6      1477.936 6 123113213.16206
  95932388.61206        41.500          38.750  
  24607468.770 6  24607470.483 5      3525.077 6      2746.532 5 129313117.52806
 100763466.89805        38.250          31.250  
  22919207.188 7  22919210.430 7     -3073.832 7     -2395.077 7 120441211.25707
  93850291.46907        45.750          42.750  
 16 02 18 00 01 26.0000000  0 11G02G06G12G13G15G17G19G24G25G29G32   
  22191421.692 7                      2762.144 7                 116616706.35207
                        45.750                  
  22659359.337 7  22659363.763 7       516.564 7       402.549 7 119075751.72507
  92786315.44007        43.750          42.250  
  21211590.542 8  21211589.975 7       673.637 8       524.942 7 111467661.96408
  86857919.07707        49.750          44.000  
  24250104.953 6                     -3585.234 6                 127435104.85906
                        38.000                  
  22277915.631 7  22277916.597 6     -2689.059 7     -2095.488 6 117071218.99307
  91224308.24506        46.500          41.500  
  24455902.183 5                     -3685.525 5                 128516616.45205
                        31.500                  
  22691667.269 7                     -2599.749 7                 119245517.92907
                        47.500                  
  20242444.552 8  20242446.520 8       937.831 8       730.709 8 106374748.88308
  82889422.71408        51.250          49.250  
  23427302.361 7  23427305.245 6      1896.472 7      1477.696 6 123111316.62307
  95930910.79706        42.250          39.500  
  24606797.852 6  24606799.346 5      3524.595 6      2746.676 5 129309592.64606
 100760720.22905        37.750          32.000  
  22919792.049 7  22919795.273 7     -3073.933 7     -2395.255 7 120444285.07107
  93852686.64507        46.000          42.750  
 16 02 18 00 01 27.0000000  0 11G02G06G12G13G15G17G19G24G25G29G32   
  22190896.173 7                      2761.718 7                 116613944.43707
                        45.750                  
  22659261.073 7  22659265.204 7       515.944 7       402.050 7 119075235.47207
  92785913.16607        43.750          42.000  
  21211462.439 8  21211461.854 7       673.432 8       524.794 7 111466988.43208
  86857394.23507        49.750          44.000  
  24250786.978 6                     -3585.101 6                 127438689.97606
                        38.250                  
  22278427.377 7  22278428.267 6     -2689.431 7     -2095.796 6 117073908.27907
  91226403.78906        46.500          41.500  
  24456603.275 5                     -3685.666 5                 128520302.13405
                        30.250                  
  22692162.000 7                     -2600.101 7                 119248117.86907
                        47.500                  
  20242266.067 8  20242268.111 8       937.307 8       730.381 8 106373811.27608
  82888692.10308        51.000          49.500  
  23426941.510 7  23426944.716 6      1896.304 7      1477.529 6 123109420.19207
  95929433.06406        42.000          39.250  
  24606127.426 6  24606128.714 5      3524.546 6      2746.451 5 129306067.91306
 100757973.69805        37.750          30.750  
  22920376.928 7  22920380.439 7     -3074.135 7     -2395.454 7 120447359.07807
  93855081.99007        45.500          42.750  
 16 02 18 00 01 28.0000000  0 11G02G06G12G13G15G17G19G24G25G29G32   
  22190370.632 7                      2761.536 7                 116611182.80807
                        45.750                  
  22659162.925 7  22659167.262 7       515.303 7       401.496 7 119074719.77807
  92785511.33007        43.500          42.250  
  21211334.301 8  21211333.728 7       673.296 8       524.671 7 111466315.01108
  86856869.49507        49.500          44.000  
  24251469.169 6                     -3585.157 6                 127442275.09306
                        37.750                  
  22278939.132 7  22278940.053 6     -2689.751 7     -2095.929 6 117076597.84407
  91228499.54806        46.250          41.750  
  24457304.243 4                     -3685.712 4                 128523987.87104
                        29.500                  
  22692656.768 7                     -2600.393 7                 119250718.06607
                        47.250                  
  20242087.681 8  20242089.733 8       936.871 8       729.969 8 106372874.12508
  82887961.85508        51.000          49.250  
  23426580.963 7  23426584.223 6      1896.423 7      1477.508 6 123107523.77307
  95927955.34306        42.250          39.000  
  24605456.513 6  24605457.269 5      3524.335 6      2746.358 5 129302543.29706
 100755227.21905        37.250          31.750  
  22920961.812 7  22920965.349 7     -3074.384 7     -2395.646 7 120450433.28507
  93857477.46407        45.750          42.500  
 16 02 18 00 01 29.0000000  0 11G02G06G12G13G15G17G19G24G25G29G32   
  22189845.226 7                      2761.004 7                 116608421.53707
                        45.750                  
  22659064.961 7  22659069.325 7       514.857 7       401.224 7 119074204.69107
  92785109.96707        43.500          42.250  
  21211206.175 8  21211205.594 7       673.159 8       524.499 7 111465641.76608
  86856344.89507        49.750          44.000  
  24252151.382 6                     -3585.238 6                 127445860.22306
                        38.000                  
  22279451.003 7  22279451.893 6     -2690.096 7     -2096.057 6 117079287.75107
  91230595.56906        46.250          41.500  
  24458005.429 5  24458007.964 4     -3685.894 5     -2872.768 4 128527673.69405
 100151419.06504        31.250          28.750  
  22693151.678 7                     -2600.706 7                 119253318.58107
                        47.250                  
  20241909.496 8  20241911.414 8       936.317 8       729.655 8 106371937.48508
  82887232.01108        51.000          49.250  
  23426220.161 7  23426223.390 6      1896.151 7      1477.565 6 123105627.49607
  95926477.69806        42.000          39.750  
  24604785.774 6  24604787.429 5      3524.304 6      2745.896 5 129299018.81706
 100752480.91405        37.750          32.000  
  22921546.902 7  22921550.264 7     -3074.597 7     -2395.760 7 120453507.72307
  93859873.12607        45.750          42.750  
 16 02 18 00 01 30.0000000  0 11G02G06G12G13G15G17G19G24G25G29G32   
  22189319.931 7                      2760.800 7                 116605660.55007
                        45.500                  
  22658967.023 7  22658971.159 7       514.247 7       400.681 7 119073690.15707
  92784709.02707        43.500          42.250  
  21211078.193 8  21211077.545 7       673.064 8       524.500 7 111464968.62908
  86855820.37007        49.750          44.000  
  24252833.564 6                     -3585.240 6                 127449445.35506
                        37.750                  
  22279963.075 7  22279963.688 6     -2690.411 7     -2096.380 6 117081977.93507
  91232691.82106        46.250          41.500  
  24458706.977 5  24458709.727 4     -3685.808 5     -2871.911 4 128531359.59305
 100154291.14504        31.500          28.500  
  22693646.597 7                     -2600.916 7                 119255919.35307
                        47.500                  
  20241731.315 8  20241733.318 8       935.959 8       729.271 8 106371001.28708
  82886502.50908        51.000          49.250  
  23425859.203 6  23425862.606 6      1896.205 6      1477.619 6 123103731.23306
  95925000.09806        41.750          39.500  
  24604115.102 6  24604116.323 5      3524.272 6      2746.442 5 129295494.46006
 100749734.64705        38.000          31.250  
  22922131.991 7  22922135.376 7     -3074.816 7     -2395.767 7 120456582.33807
  93862268.91107        45.750          42.750  
 16 02 18 00 01 31.0000000  0 11G02G06G12G13G15G17G19G24G25G29G32   
  22188794.466 7                      2760.448 7                 116602899.90707
                        45.500                  
  22658869.390 7  22658873.365 7       513.688 7       400.249 7 119073176.22107
  92784308.55907        44.000          42.250  
  21210950.059 8  21210949.155 7       672.931 8       524.394 7 111464295.67108
  86855295.99107        49.500          43.750  
  24253515.866 6                     -3585.150 6                 127453030.46506
                        38.250                  
  22280475.116 7  22280475.604 6     -2690.653 7     -2096.681 6 117084668.46707
  91234788.32706        46.000          41.500  
  24459409.567 5  24459409.912 4     -3686.195 5     -2871.944 4 128535045.64505
 100157163.35904        31.750          28.000  
  22694141.726 7                     -2601.118 7                 119258520.42907
                        47.250                  
  20241553.255 8  20241555.280 8       935.447 8       728.957 8 106370065.59908
  82885773.38908        51.000          49.250  
  23425498.396 7  23425501.491 6      1896.085 7      1477.410 6 123101835.08207
  95923522.58906        42.000          39.000  
  24603444.569 6  24603446.733 5      3524.322 6      2746.013 5 129291970.27806
 100746988.51805        37.250          32.250  
  22922717.121 7  22922720.680 7     -3074.962 7     -2396.158 7 120459657.16907
  93864664.89507        45.500          43.000  
 16 02 18 00 01 32.0000000  0 11G02G06G12G13G15G17G19G24G25G29G32   
  22188269.180 7                      2760.137 7                 116600139.56507
                        45.500                  
  22658771.823 7  22658775.928 7       513.007 7       399.801 7 119072662.84907
  92783908.52307        43.750          42.500  
  21210821.973 8  21210821.057 7       672.756 8       524.243 7 111463622.83808
  86854771.70707        49.500          43.500  
  24254198.343 6                     -3585.277 6                 127456615.61906
                        38.250                  
  22280987.104 7  22280987.564 6     -2691.047 7     -2096.831 6 117087359.26407
  91236885.05406        46.250          41.500  
  24460110.660 5  24460110.892 4     -3686.415 5     -2872.619 4 128538731.71605
 100160035.64804        30.250          29.000  
  22694636.605 7                     -2601.523 7                 119261121.78507
                        47.000                  
  20241375.351 8  20241377.372 8       935.006 8       728.488 8 106369130.37208
  82885044.65308        51.250          49.250  
  23425137.581 6  23425140.685 6      1896.156 6      1477.439 6 123099938.99206
  95922045.11206        41.750          39.500  
  24602774.121 6  24602775.216 5      3523.868 6      2745.734 5 129288446.23106
 100744242.50905        36.750          31.500  
  22923302.246 7  22923305.846 7     -3075.208 7     -2396.193 7 120462732.20407
  93867061.01307        45.750          42.750  
 16 02 18 00 01 33.0000000  0 11G02G06G12G13G15G17G19G24G25G29G32   
  22187744.068 7                      2759.928 7                 116597379.54407
                        45.500                  
  22658674.244 7  22658678.545 7       512.467 7       399.349 7 119072150.05907
  92783508.95607        43.750          42.250  
  21210693.991 8  21210692.976 7       672.610 8       524.105 7 111462950.14508
  86854247.53207        49.750          43.750  
  24254880.762 6                     -3585.001 6                 127460200.71806
                        38.500                  
  22281499.297 7  22281499.623 6     -2691.229 7     -2097.115 6 117090050.37507
  91238982.02806        46.250          41.500  
  24460811.121 5  24460811.685 4     -3685.824 5     -2872.291 4 128542417.82305
 100162907.98004        30.500          28.250  
  22695131.583 7                     -2601.816 7                 119263723.42407
                        47.000                  
  20241197.497 8  20241199.576 8       934.530 8       728.254 8 106368195.61608
  82884316.26908        51.250          49.500  
  23424776.945 7  23424779.525 6      1896.007 7      1477.230 6 123098042.99407
  95920567.71006        42.000          39.250  
  24602103.149 6  24602104.003 5      3523.993 6      2746.014 5 129284922.29906
 100741496.58705        36.500          31.500  
  22923887.559 7  22923890.899 7     -3075.341 7     -2396.438 7 120465807.40907
  93869457.29007        46.000          42.750  
 16 02 18 00 01 34.0000000  0 11G02G06G12G13G15G17G19G24G25G29G32   
  22187218.934 7                      2759.507 7                 116594619.83507
                        45.500                  
  22658576.762 7  22658580.648 7       511.930 7       398.958 7 119071637.83207
  92783109.81407        43.750          42.000  
  21210566.000 8  21210565.092 7       672.526 8       524.011 7 111462277.58208
  86853723.45707        49.750          44.000  
  24255562.868 6                     -3585.098 6                 127463785.85306
                        38.750                  
  22282011.503 7  22282011.923 6     -2691.555 7     -2097.219 6 117092741.79107
  91241079.22906        46.250          41.750  
  24461512.317 5  24461512.643 4     -3686.288 5     -2872.341 4 128546104.08805
 100165780.34504        30.250          28.500  
  22695626.681 7                     -2602.040 7                 119266325.34007
                        47.250                  
  20241019.665 8  20241021.838 8       934.081 8       727.859 8 106367261.31908
  82883588.24108        51.250          49.500  
  23424416.246 7  23424418.710 6      1895.824 7      1477.249 6 123096147.05307
  95919090.34006        42.250          39.750  
  24601432.151 6  24601432.567 5      3523.707 6      2746.011 5 129281398.51706
 100738750.76105        36.250          31.250  
  22924472.903 7  22924476.212 7     -3075.479 7     -2396.384 7 120468882.82907
  93871853.71507        45.750          42.750  
 16 02 18 00 01 35.0000000  0 11G02G06G12G13G15G17G19G24G25G29G32   
  22186693.720 7                      2759.197 7                 116591860.43307
                        45.500                  
  22658479.312 7  22658483.086 7       511.344 7       398.410 7 119071126.17607
  92782711.12307        43.750          42.000  
  21210438.035 8  21210437.244 7       672.332 8       523.935 7 111461605.16308
  86853199.49507        49.750          43.750  
  24256244.951 6                     -3585.302 6                 127467370.98606
                        38.500                  
  22282523.710 7  22282524.277 6     -2691.885 7     -2097.662 6 117095433.50307
  91243176.66306        46.250          41.750  
  24462213.789 5  24462214.710 4     -3686.240 5     -2872.659 4 128549790.39705
 100168652.80704        30.000          28.750  
  22696121.698 7                     -2602.346 7                 119268927.53907
                        47.000                  
  20240841.972 8  20240844.140 8       933.610 8       727.487 8 106366327.48308
  82882860.57908        51.250          49.500  
  23424055.364 7  23424057.859 6      1895.681 7      1477.183 6 123094251.18407
  95917613.03706        42.250          40.000  
  24600761.654 5  24600761.716 5      3523.584 5      2745.755 5 129277874.84705
 100736005.06305        35.750          31.250  
  22925058.239 7  22925061.508 7     -3075.799 7     -2396.479 7 120471958.45607
  93874250.29107        45.750          42.750  
 16 02 18 00 01 36.0000000  0 11G02G06G12G13G15G17G19G24G25G29G32   
  22186168.760 7                      2758.994 7                 116589101.32707
                        45.750                  
  22658382.077 7  22658385.788 6       510.885 7       398.041 6 119070615.09007
  92782312.88406        43.750          41.750  
  21210310.084 8  21210309.490 7       672.284 8       523.910 7 111460932.86508
  86852675.62307        50.000          43.750  
  24256927.236 6                     -3585.116 6                 127470956.09306
                        39.000                  
  22283035.965 7  22283036.104 6     -2692.066 7     -2097.631 6 117098125.51107
  91245274.32506        46.500          41.250  
  24462915.785 5  24462916.035 4     -3686.640 5     -2872.622 4 128553476.77805
 100171525.28404        31.000          29.000  
  22696616.828 7                     -2602.572 7                 119271530.00507
                        47.000                  
  20240664.381 8  20240666.550 8       933.174 8       727.051 8 106365394.12108
  82882133.28808        51.250          49.250  
  23423694.513 7  23423697.222 6      1895.770 7      1477.307 6 123092355.35707
  95916135.76206        42.000          39.000  
  24600091.398 6  24600091.988 5      3523.428 6      2745.512 5 129274351.30806
 100733259.46505        36.750          32.000  
  22925643.444 7  22925646.713 7     -3075.798 7     -2396.667 7 120475034.25407
  93876647.02907        45.750          42.750  
 16 02 18 00 01 37.0000000  0 11G02G06G12G13G15G17G19G24G25G29G32   
  22185643.787 7                      2758.486 7                 116586342.56607
                        45.250                  
  22658284.846 7  22658288.584 6       510.053 7       397.509 6 119070104.60707
  92781915.08806        43.750          41.750  
  21210182.156 8  21210181.628 7       672.080 8       523.679 7 111460260.72408
  86852151.87707        50.000          43.750  
  24257609.677 6                     -3585.190 6                 127474541.21506
                        38.750                  
  22283548.181 7  22283548.355 6     -2692.435 7     -2097.996 6 117100817.84307
  91247372.24306        46.250          41.250  
  24463617.311 5  24463617.762 4     -3686.467 5     -2872.798 4 128557163.23105
 100174397.83904        31.000          28.250  
  22697112.194 7                     -2602.854 7                 119274132.75407
                        47.000                  
  20240486.849 8  20240488.955 8       932.593 8       726.776 8 106364461.24508
  82881406.35708        51.250          49.250  
  23423333.827 7  23423336.412 6      1895.630 7      1477.206 6 123090459.62907
  95914658.57406        42.000          39.750  
  24599420.846 6  24599421.633 5      3523.533 6      2745.450 5 129270827.89006
 100730513.93605        36.500          31.250  
  22926228.780 7  22926232.035 7     -3076.147 7     -2396.913 7 120478110.27907
  93879043.92707        45.500          42.500  
 16 02 18 00 01 38.0000000  0 11G02G06G12G13G15G17G19G24G25G29G32   
  22185118.940 7                      2758.280 7                 116583584.09207
                        45.500                  
  22658187.883 7  22658191.572 6       509.721 7       397.101 6 119069594.65807
  92781517.73006        43.750          41.750  
  21210054.375 8  21210053.834 7       671.966 8       523.529 7 111459588.70008
  86851628.22907        50.000          43.750  
  24258291.859 6                     -3585.182 6                 127478126.31706
                        38.500                  
  22284060.669 7  22284060.852 6     -2692.766 7     -2098.213 6 117103510.45707
  91249470.36706        46.250          41.250  
  24464319.360 5  24464319.342 4     -3686.531 5     -2872.785 4 128560849.75205
 100177270.52204        30.000          28.750  
  22697607.578 7                     -2603.157 7                 119276735.79707
                        47.000                  
  20240309.415 8  20240311.445 8       932.200 8       726.426 8 106363528.81808
  82880679.79708        51.250          49.250  
  23422973.119 7  23422975.775 6      1895.721 7      1477.167 6 123088563.96607
  95913181.43306        42.250          39.500  
  24598750.067 6  24598751.293 5      3523.137 6      2745.311 5 129267304.65006
 100727768.56105        36.250          31.750  
  22926814.008 7  22926817.563 7     -3076.299 7     -2397.110 7 120481186.48107
  93881440.96907        45.500          42.750  
 16 02 18 00 01 39.0000000  0 11G02G06G12G13G15G17G19G24G25G29G32   
  22184594.065 7                      2758.005 7                 116580825.93607
                        45.500                  
  22658090.867 7  22658094.739 7       509.039 7       396.761 7 119069085.31107
  92781120.83407        43.500          42.000  
  21209926.428 8  21209925.735 7       671.823 8       523.509 7 111458916.83108
  86851104.68607        49.750          43.750  
  24258973.634 6                     -3585.247 6                 127481711.45206
                        38.000                  
  22284573.148 7  22284573.260 6     -2693.075 7     -2098.421 6 117106203.37507
  91251568.75406        46.000          41.000  
  24465021.780 5  24465020.533 4     -3686.561 5     -2873.075 4 128564536.36505
 100180143.17004        31.250          28.750  
  22698102.900 7                     -2603.409 7                 119279339.11407
                        47.000                  
  20240132.035 8  20240134.132 8       931.721 8       726.002 8 106362596.87208
  82879953.60508        51.250          49.250  
  23422612.308 6  23422615.260 6      1895.564 6      1477.086 6 123086668.34906
  95911704.34606        41.500          39.500  
  24598080.259 6  24598080.209 5      3523.072 6      2745.099 5 129263781.50606
 100725023.26105        36.000          31.250  
  22927399.401 7  22927402.876 7     -3076.510 7     -2397.286 7 120484262.88307
  93883838.16207        45.500          42.500  
 16 02 18 00 01 40.0000000  0 11G02G06G12G13G15G17G19G24G25G29G32   
  22184069.427 7                      2757.611 7                 116578068.10707
                        45.500                  
  22657993.757 7  22657998.014 6       508.461 7       396.103 6 119068576.53807
  92780724.39206        43.500          41.750  
  21209798.616 8  21209797.784 7       671.606 8       523.445 7 111458245.09908
  86850581.25307        50.000          43.750  
  24259655.896 6                     -3585.334 6                 127485296.53206
                        38.250                  
  22285085.641 7  22285085.627 6     -2693.438 7     -2098.690 6 117108896.60707
  91253667.37106        46.250          41.000  
  24465723.512 5  24465722.881 4     -3687.159 5     -2872.677 4 128568223.09205
 100183015.93704        30.250          29.250  
  22698598.320 7                     -2603.763 7                 119281942.72007
                        47.000                  
  20239954.712 8  20239956.930 8       931.230 8       725.634 8 106361665.40008
  82879227.77908        51.000          49.250  
  23422251.538 6  23422254.556 6      1895.450 6      1477.039 6 123084772.84706
  95910227.33406        41.750          39.750  
  24597409.904 6  24597409.068 5      3522.765 6      2745.352 5 129260258.51506
 100722278.01605        36.000          30.000  
  22927984.817 7  22927988.158 7     -3076.962 7     -2397.603 7 120487339.51307
  93886235.53207        45.250          42.750  
 16 02 18 00 01 41.0000000  0 11G02G06G12G13G15G17G19G24G25G29G32   
  22183544.647 7                      2757.320 7                 116575310.57807
                        45.500                  
  22657897.103 7  22657901.109 6       507.826 7       395.710 6 119068068.32807
  92780328.38606        43.500          41.750  
  21209670.830 8  21209670.034 7       671.463 8       523.400 7 111457573.49508
  86850057.92207        49.750          43.750  
  24260337.988 6                     -3585.075 6                 127488881.63806
                        38.500                  
  22285598.160 7  22285598.116 6     -2693.706 7     -2098.981 6 117111590.12307
  91255766.22806        45.750          41.000  
  24466425.512 5  24466424.349 4     -3686.811 5     -2873.082 4 128571909.81405
 100185888.73204        31.250          28.750  
  22699093.856 7                     -2604.127 7                 119284546.60207
                        46.750                  
  20239777.542 8  20239779.818 8       930.666 8       725.288 8 106360734.37908
  82878502.30808        51.000          49.250  
  23421890.906 7  23421893.620 6      1895.414 7      1476.872 6 123082877.37907
  95908750.34606        42.000          39.500  
  24596738.928 6  24596738.736 5      3522.625 6      2745.217 5 129256735.65406
 100719532.96605        36.000          30.500  
  22928570.251 7  22928573.609 7     -3077.019 7     -2397.532 7 120490416.29807
  93888633.02607        45.250          42.500  
 16 02 18 00 01 42.0000000  0 11G02G06G12G13G15G17G19G24G25G29G32   
  22183019.830 7                      2757.022 7                 116572553.35407
                        45.500                  
  22657800.484 7  22657804.249 6       507.372 7       395.360 6 119067560.67907
  92779932.81606        43.500          41.250  
  21209543.031 8  21209542.343 7       671.417 8       523.153 7 111456902.01108
  86849534.70007        50.000          43.750  
  24261020.407 6                     -3585.025 6                 127492466.73506
                        38.250                  
  22286110.742 7  22286110.836 6     -2694.004 7     -2099.331 6 117114283.93807
  91257865.29806        46.000          41.250  
  24467127.118 5  24467126.492 4     -3686.956 5     -2872.870 4 128575596.65005
 100188761.55504        31.500          28.750  
  22699589.343 7                     -2604.298 7                 119287150.74607
                        46.500                  
  20239600.479 8  20239602.697 8       930.311 8       724.878 8 106359803.81508
  82877777.19908        51.000          49.250  
  23421530.077 7  23421533.199 6      1895.246 7      1476.865 6 123080982.00007
  95907273.42506        42.000          39.500  
  24596068.596 6  24596069.974 5      3522.692 6      2745.115 5 129253212.92406
 100716787.94105        37.000          30.250  
  22929155.882 7  22929159.092 7     -3077.114 7     -2397.698 7 120493493.28707
  93891030.67107        45.500          42.750  
 16 02 18 00 01 43.0000000  0 11G02G06G12G13G15G17G19G24G25G29G32   
  22182495.161 7                      2756.638 7                 116569796.46207
                        45.500                  
  22657704.219 7  22657707.618 6       506.700 7       394.852 6 119067053.62007
  92779537.70006        44.000          41.500  
  21209415.313 8  21209414.606 7       671.229 8       522.994 7 111456230.69108
  86849011.59307        50.000          44.000  
  24261702.620 6                     -3585.180 6                 127496051.83206
                        38.750                  
  22286623.396 7  22286623.633 6     -2694.280 7     -2099.385 6 117116978.06307
  91259964.61506        46.250          41.250  
  24467829.427 5  24467827.571 4     -3686.913 5     -2872.666 4 128579283.56505
 100191634.48604        31.750          29.750  
  22700084.978 7                     -2604.566 7                 119289755.18407
                        46.750                  
  20239423.537 8  20239425.746 8       929.746 8       724.550 8 106358873.74208
  82877052.46508        51.250          49.500  
  23421169.383 6  23421172.276 6      1895.432 6      1476.765 6 123079086.67606
  95905796.57206        41.250          39.000  
  24595398.448 6  24595399.856 5      3522.519 6      2744.859 5 129249690.31106
 100714043.09205        36.000          30.250  
  22929741.611 7  22929744.790 7     -3077.393 7     -2397.952 7 120496570.48407
  93893428.49507        45.500          42.750  
 16 02 18 00 01 44.0000000  0 11G02G06G12G13G15G17G19G24G25G29G32   
  22181970.564 7                      2756.454 7                 116567039.88907
                        45.000                  
  22657607.905 7  22657611.227 6       506.248 7       394.560 6 119066547.14507
  92779143.04406        44.000          41.500  
  21209287.621 8  21209286.959 7       671.159 8       523.038 7 111455559.50208
  86848488.58507        50.000          44.000  
  24262385.075 6                     -3585.011 6                 127499636.92606
                        38.500                  
  22287136.193 7  22287136.430 6     -2694.523 7     -2099.542 6 117119672.48307
  91262064.16006        46.000          41.250  
  24468530.488 5  24468530.032 5     -3687.188 5     -2873.111 5 128582970.57605
 100194507.46905        30.750          30.250  
  22700580.519 7                     -2604.773 7                 119292359.90407
                        46.500                  
  20239246.649 8  20239248.840 8       929.387 8       724.171 8 106357944.15708
  82876328.11208        51.000          49.250  
  23420808.595 6  23420811.568 6      1895.145 6      1476.710 6 123077191.47006
  95904319.74606        40.750          39.250  
  24594727.964 6  24594729.721 5      3522.465 6      2744.966 5 129246167.86006
 100711298.27805        36.000          30.750  
  22930327.241 7  22930330.626 7     -3077.419 7     -2397.879 7 120499647.86607
  93895826.45507        45.500          42.500  
 16 02 18 00 01 45.0000000  0 11G02G06G12G13G15G17G19G24G25G29G32   
  22181446.061 7                      2756.090 7                 116564283.62907
                        45.250                  
  22657511.774 7  22657515.087 6       505.580 7       393.860 6 119066041.24607
  92778748.84406        43.750          41.500  
  21209159.916 8  21209159.290 7       671.027 8       522.868 7 111454888.46908
  86847965.69907        49.750          44.000  
  24263067.820 6                     -3585.049 6                 127503222.01306
                        39.000                  
  22287649.061 7  22287649.222 6     -2694.898 7     -2100.033 6 117122367.22507
  91264163.97106        46.000          41.250  
  24469231.518 5  24469231.124 5     -3686.975 5     -2873.256 5 128586657.67105
 100197380.53505        31.250          30.000  
  22701076.301 7                     -2605.203 7                 119294964.92007
                        46.500                  
  20239069.890 8  20239071.960 8       928.887 8       723.802 8 106357015.06108
  82875604.14108        51.000          49.500  
  23420447.712 6  23420451.012 6      1895.083 6      1476.708 6 123075296.29306
  95902842.99606        41.250          39.750  
  24594057.810 6  24594059.282 5      3522.372 6      2744.604 5 129242645.54406
 100708553.65105        36.750          31.750  
  22930913.028 7  22930916.503 7     -3077.784 7     -2398.174 7 120502725.47307
  93898224.58007        45.500          43.000  
 16 02 18 00 01 46.0000000  0 11G02G06G12G13G15G17G19G24G25G29G32   
  22180921.705 7                      2755.762 7                 116561527.67507
                        45.250                  
  22657415.688 7  22657418.925 6       505.026 7       393.543 6 119065535.90607
  92778355.05406        43.750          41.500  
  21209032.202 8  21209031.625 7       670.865 8       522.745 7 111454217.55408
  86847442.90807        49.750          44.000  
  24263750.082 6                     -3585.178 6                 127506807.11806
                        39.000                  
  22288161.987 7  22288162.090 6     -2695.132 7     -2100.204 6 117125062.26007
  91266263.99606        46.000          41.250  
  24469933.030 5  24469932.431 4     -3687.087 5     -2872.761 4 128590344.82405
 100200253.60604        31.500          29.500  
  22701572.163 7                     -2605.399 7                 119297570.19807
                        46.500                  
  20238893.127 8  20238895.233 8       928.414 8       723.402 8 106356086.42708
  82874880.53208        51.000          49.250  
  23420087.326 6  23420090.246 6      1895.126 6      1476.745 6 123073401.19906
  95901366.28206        41.750          39.750  
  24593387.563 6  24593388.798 5      3522.295 6      2744.371 5 129239123.33806
 100705809.09305        36.000          31.250  
  22931498.578 7  22931502.160 7     -3077.875 7     -2398.326 7 120505803.25907
  93900622.86207        45.500          42.750  
 16 02 18 00 01 47.0000000  0 11G02G06G12G13G15G17G19G24G25G29G32   
  22180397.313 7                      2755.407 7                 116558772.03207
                        45.250                  
  22657319.762 7  22657322.772 6       504.399 7       393.118 6 119065031.13907
  92777961.73906        44.000          41.500  
  21208904.636 8  21208904.050 7       670.709 8       522.651 7 111453546.77208
  86846920.22507        50.000          43.750  
  24264432.394 6                     -3585.270 6                 127510392.20106
                        39.000                  
  22288674.771 7  22288674.878 6     -2695.476 7     -2100.327 6 117127757.58307
  91268364.23606        45.750          41.250  
  24470634.436 5  24470633.854 4     -3687.211 5     -2873.120 4 128594032.05605
 100203126.73804        31.000          29.250  
  22702067.959 7                     -2605.693 7                 119300175.75007
                        46.500                  
  20238716.435 8  20238718.626 8       927.911 8       723.083 8 106355158.25508
  82874157.28008        51.000          49.250  
  23419726.869 6  23419729.793 6      1894.925 6      1476.518 6 123071506.15706
  95899889.65206        41.750          39.250  
  24592717.455 6  24592718.940 5      3521.863 6      2744.508 5 129235601.28106
 100703064.60805        36.000          31.250  
  22932084.177 7  22932087.844 7     -3078.128 7     -2398.498 7 120508881.24107
  93903021.28007        45.250          42.750  
 16 02 18 00 01 48.0000000  0 11G02G06G12G13G15G17G19G24G25G29G32   
  22179872.993 7                      2755.178 7                 116556016.68607
                        45.250                  
  22657223.828 7  22657227.003 6       503.964 7       392.543 6 119064526.93607
  92777568.85706        44.000          41.750  
  21208777.109 8  21208776.564 7       670.585 8       522.495 7 111452876.11608
  86846397.64007        50.000          44.000  
  24265114.500 6                     -3585.165 6                 127513977.25606
                        39.500                  
  22289187.751 7  22289187.670 6     -2695.744 7     -2100.587 6 117130453.20507
  91270464.72006        46.000          41.000  
  24471335.903 5  24471335.590 4     -3687.064 5     -2872.854 4 128597719.29905
 100205999.96304        31.000          29.500  
  22702563.911 7                     -2605.924 7                 119302781.56607
                        46.500                  
  20238539.918 8  20238542.131 8       927.475 8       722.719 8 106354230.54408
  82873434.39108        51.000          49.500  
  23419366.282 6  23419368.857 6      1894.868 6      1476.362 6 123069611.19106
  95898413.05906        41.250          39.000  
  24592047.534 6  24592048.746 5      3521.781 6      2744.506 5 129232079.34206
 100700320.22905        36.250          31.500  
  22932669.750 7  22932673.788 7     -3078.217 7     -2398.682 7 120511959.39707
  93905419.84307        45.000          43.000  
 16 02 18 00 01 49.0000000  0 11G02G06G12G13G15G17G19G24G25G29G32   
  22179348.829 7                      2754.883 7                 116553261.66207
                        45.250                  
  22657127.997 7  22657131.239 6       503.284 7       392.215 6 119064023.31807
  92777176.41306        44.250          41.500  
  21208649.592 8  21208648.886 7       670.507 8       522.413 7 111452205.59308
  86845875.15707        50.000          44.000  
  24265796.386 6                     -3585.186 6                 127517562.32906
                        38.750                  
  22289700.650 7  22289700.825 6     -2696.022 7     -2100.870 6 117133149.12307
  91272565.44106        46.000          41.000  
  24472037.810 5  24472038.364 4     -3688.050 5     -2872.981 4 128601406.72405
 100208873.21304        30.500          29.750  
  22703059.756 7                     -2606.204 7                 119305387.66907
                        46.500                  
  20238363.432 8  20238365.636 8       926.993 8       722.344 8 106353303.31608
  82872711.87608        51.000          49.500  
  23419005.936 6  23419008.413 6      1894.724 6      1476.536 6 123067716.29506
  95896936.50306        41.250          38.750  
  24591376.903 6  24591378.530 5      3521.774 6      2744.430 5 129228557.50606
 100697575.96505        36.000          32.000  
  22933255.613 7  22933259.548 7     -3078.386 7     -2398.845 7 120515037.75407
  93907818.56807        45.250          43.000  
 16 02 18 00 01 50.0000000  0 11G02G06G12G13G15G17G19G24G25G29G32   
  22178824.541 7                      2754.549 7                 116550506.97007
                        45.250                  
  22657032.313 7  22657035.676 6       502.676 7       391.677 6 119063520.27207
  92776784.44006        44.000          41.750  
  21208522.052 8  21208521.346 7       670.288 8       522.242 7 111451535.23508
  86845352.79607        50.250          44.250  
  24266478.590 6                     -3585.004 6                 127521147.38206
                        39.500                  
  22290213.680 7  22290213.890 6     -2696.319 7     -2101.000 6 117135845.35407
  91274666.38006        46.250          41.250  
  24472739.850 5  24472738.719 4     -3687.427 5     -2873.894 4 128605094.12105
 100211746.60104        30.500          29.250  
  22703555.793 7                     -2606.595 7                 119307994.06307
                        46.750                  
  20238187.098 8  20238189.325 8       926.466 8       721.912 8 106352376.59508
  82871989.75108        51.250          49.500  
  23418645.210 6  23418647.763 6      1894.731 6      1476.552 6 123065821.45806
  95895459.98206        41.750          39.250  
  24590706.790 6  24590708.319 5      3521.397 6      2744.708 5 129225035.87306
 100694831.78305        36.750          31.000  
  22933841.418 7  22933845.393 7     -3078.699 7     -2398.937 7 120518116.32807
  93910217.43907        45.250          43.000  
 16 02 18 00 01 51.0000000  0 11G02G06G12G13G15G17G19G24G25G29G32   
  22178300.301 7                      2754.127 7                 116547752.57807
                        45.500                  
  22656936.969 7  22656940.117 6       502.167 7       391.236 6 119063017.78307
  92776392.89406        44.250          41.750  
  21208394.441 8  21208393.797 7       670.084 8       522.201 7 111450865.00308
  86844830.52607        50.000          44.250  
  24267160.893 6                     -3585.195 6                 127524732.47806
                        39.250                  
  22290726.950 7  22290726.919 6     -2696.649 7     -2101.400 6 117138541.87707
  91276767.57606        46.250          40.750  
  24473441.769 5  24473439.887 4     -3687.500 5     -2873.135 4 128608781.64805
 100214619.96904        31.750          29.750  
  22704051.790 7                     -2606.864 7                 119310600.72907
                        46.500                  
  20238010.782 8  20238013.143 8       925.996 8       721.588 8 106351450.33608
  82871267.99008        51.250          49.500  
  23418284.632 7  23418287.172 6      1894.809 7      1476.517 6 123063926.68107
  95893983.55406        42.250          39.000  
  24590036.673 5  24590039.083 5      3521.295 5      2744.014 5 129221514.33605
 100692087.74005        35.750          32.000  
  22934427.138 7  22934431.475 7     -3078.918 7     -2399.100 7 120521195.08207
  93912616.46807        45.250          43.000  
 16 02 18 00 01 52.0000000  0 11G02G06G12G13G15G17G19G24G25G29G32   
  22177776.231 7                      2753.919 7                 116544998.50507
                        45.250                  
  22656841.402 7  22656844.483 6       501.612 7       391.008 6 119062515.89207
  92776001.80506        44.250          41.500  
  21208266.951 8  21208266.320 7       670.026 8       522.039 7 111450194.90608
  86844308.38107        50.250          44.250  
  24267843.361 6                     -3585.065 6                 127528317.51306
                        39.250                  
  22291240.217 7  22291240.163 6     -2696.966 7     -2101.516 6 117141238.70707
  91278868.99106        46.250          41.000  
  24474143.962 4  24474141.905 4     -3687.525 4     -2873.049 4 128612469.24204
 100217493.40404        29.750          29.500  
  22704547.782 7                     -2607.097 7                 119313207.68307
                        46.500                  
  20237834.631 8  20237836.938 8       925.568 8       721.232 8 106350524.53208
  82870546.58608        51.250          49.500  
  23417924.098 7  23417926.848 6      1894.727 7      1476.455 6 123062032.00407
  95892507.17106        42.000          38.500  
  24589366.305 6  24589368.943 5      3521.522 6      2743.953 5 129217992.90906
 100689343.81305        36.000          32.000  
  22935013.077 7  22935017.459 7     -3079.033 7     -2399.141 7 120524274.03107
  93915015.64007        45.250          43.000  
 16 02 18 00 01 53.0000000  0 11G02G06G12G13G15G17G19G24G25G29G32   
  22177252.255 7                      2753.566 7                 116542244.74807
                        45.250                  
  22656745.861 7  22656749.040 6       501.033 7       390.472 6 119062014.56307
  92775611.16106        44.000          41.750  
  21208139.528 8  21208138.902 7       669.903 8       522.005 7 111449524.94008
  86843786.32107        50.250          44.000  
  24268525.373 6                     -3585.096 6                 127531902.59506
                        39.500                  
  22291753.465 7  22291753.367 6     -2697.268 7     -2101.874 6 117143935.82507
  91280970.65906        46.250          40.750  
  24474845.448 5  24474843.247 4     -3687.472 5     -2873.541 4 128616156.89705
 100220366.91604        30.750          29.750  
  22705043.958 7                     -2607.390 7                 119315814.90107
                        46.500                  
  20237658.548 8  20237660.797 8       925.051 8       720.851 8 106349599.20008
  82869825.55208        51.000          49.500  
  23417563.690 6  23417566.485 6      1894.524 6      1476.172 6 123060137.38306
  95891030.86006        41.750          39.250  
  24588696.603 6  24588698.222 5      3521.022 6      2743.687 5 129214471.66106
 100686599.94805        36.250          31.500  
  22935599.025 7  22935603.402 7     -3079.250 7     -2399.378 7 120527353.17507
  93917414.98107        45.250          43.000  
 16 02 18 00 01 54.0000000  0 11G02G06G12G13G15G17G19G24G25G29G32   
  22176728.293 7                      2753.243 7                 116539491.30907
                        45.500                  
  22656650.589 7  22656653.625 6       500.402 7       389.945 6 119061513.81207
  92775220.97506        44.250          41.750  
  21208012.073 8  21208011.438 7       669.729 8       521.917 7 111448855.11308
  86843264.38507        50.500          44.250  
  24269207.756 6                     -3585.266 6                 127535487.64406
                        39.250                  
  22292266.780 7  22292266.642 6     -2697.627 7     -2102.043 6 117146633.24707
  91283072.53606        46.250          41.000  
  24475547.152 5  24475544.908 4     -3688.036 5     -2873.208 4 128619844.64805
 100223240.47104        31.250          29.250  
  22705540.076 7                     -2607.625 7                 119318422.40607
                        46.500                  
  20237482.598 8  20237484.745 8       924.533 8       720.432 8 106348674.35208
  82869104.89108        51.000          49.500  
  23417203.188 6  23417205.549 6      1894.448 6      1476.285 6 123058242.83906
  95889554.59706        41.750          38.750  
  24588026.392 6  24588027.626 5      3521.182 6      2743.666 5 129210950.51906
 100683856.23005        36.250          31.500  
  22936185.067 7  22936189.091 7     -3079.464 7     -2399.526 7 120530432.53207
  93919814.47307        45.250          43.000  
 16 02 18 00 01 55.0000000  0 11G02G06G12G13G15G17G19G24G25G29G32   
  22176204.429 7                      2752.948 7                 116536738.18607
                        45.500                  
  22656555.374 7  22656558.558 7       499.880 7       389.600 7 119061013.64307
  92774831.21507        44.250          42.000  
  21207884.663 8  21207883.827 7       669.623 8       521.820 7 111448185.42708
  86842742.54807        50.250          44.250  
  24269890.349 6                     -3585.038 6                 127539072.67406
                        40.000                  
  22292780.297 7  22292780.038 6     -2697.875 7     -2102.290 6 117149330.97107
  91285174.66306        46.250          40.750  
  24476249.018 5  24476245.946 4     -3687.697 5     -2873.548 4 128623532.46905
 100226114.13104        30.750          28.750  
  22706036.247 7                     -2607.866 7                 119321030.19207
                        46.500                  
  20237306.685 8  20237308.916 8       924.125 8       720.075 8 106347749.99108
  82868384.61108        51.250          49.500  
  23416842.806 7  23416844.868 6      1894.393 7      1475.951 6 123056348.35707
  95888078.39106        42.000          39.250  
  24587356.534 6  24587357.133 5      3520.740 6      2743.559 5 129207429.54006
 100681112.58805        37.250          31.750  
  22936771.220 7  22936775.044 7     -3079.656 7     -2399.752 7 120533512.08307
  93922214.12307        45.500          42.750  
 16 02 18 00 01 56.0000000  0 11G02G06G12G13G15G17G19G24G25G29G32   
  22175680.507 7                      2752.568 7                 116533985.37807
                        45.250                  
  22656460.259 7  22656463.711 6       499.307 7       389.139 6 119060514.03407
  92774441.92506        44.250          41.750  
  21207757.199 8  21207756.435 7       669.544 8       521.703 7 111447515.85708
  86842220.80607        50.250          44.000  
  24270572.553 6                     -3585.083 6                 127542657.71706
                        39.250                  
  22293293.595 7  22293293.635 6     -2698.106 7     -2102.269 6 117152028.97507
  91287276.98506        46.250          40.500  
  24476951.957 5  24476947.718 4     -3687.740 5     -2874.011 4 128627220.32505
 100228987.78904        30.500          29.750  
  22706532.597 7                     -2608.230 7                 119323638.24607
                        46.500                  
  20237130.811 8  20237133.011 8       923.693 8       719.806 8 106346826.08708
  82867664.67908        51.250          49.500  
  23416482.376 6  23416484.468 6      1894.296 6      1476.154 6 123054453.95306
  95886602.21306        41.750          38.750  
  24586686.980 6  24586687.248 5      3520.929 6      2743.781 5 129203908.65606
 100678369.05105        37.500          31.250  
  22937357.186 7  22937361.090 7     -3079.692 7     -2399.786 7 120536591.81407
  93924613.90107        45.250          43.000  
 16 02 18 00 01 57.0000000  0 11G02G06G12G13G15G17G19G24G25G29G32   
  22175156.907 7                      2752.235 7                 116531232.88407
                        45.750                  
  22656365.389 7  22656368.774 6       498.710 7       388.523 6 119060015.00907
  92774053.08206        44.250          41.750  
  21207629.785 8  21207629.096 7       669.299 8       521.590 7 111446846.44108
  86841699.18107        50.250          44.000  
  24271254.672 6                     -3584.931 6                 127546242.73906
                        39.750                  
  22293807.098 7  22293806.915 6     -2698.438 7     -2102.708 6 117154727.29207
  91289379.58206        46.250          40.750  
  24477653.193 5  24477650.054 4     -3688.080 5     -2873.293 4 128630908.36805
 100231861.50704        30.250          29.500  
  22707028.911 7                     -2608.495 7                 119326246.58907
                        46.500                  
  20236955.067 8  20236957.236 8       923.186 8       719.368 8 106345902.65808
  82866945.12908        51.250          49.250  
  23416121.811 7  23416124.038 6      1894.312 7      1476.143 6 123052559.60907
  95885126.10806        42.000          38.750  
  24586017.015 6  24586017.127 5      3520.531 6      2743.240 5 129200387.93406
 100675625.62205        37.500          31.750  
  22937943.237 7  22937947.248 7     -3080.009 7     -2399.991 7 120539671.74707
  93927013.85607        45.250          42.750  
 16 02 18 00 01 58.0000000  0 11G02G06G12G13G15G17G19G24G25G29G32   
  22174633.150 7                      2751.982 7                 116528480.70807
                        45.500                  
  22656270.510 7  22656273.738 6       498.147 7       388.271 6 119059516.54907
  92773664.66506        44.250          41.750  
  21207502.406 8  21207501.700 7       669.258 8       521.536 7 111446177.14808
  86841177.65407        50.250          44.000  
  24271936.590 6                     -3584.989 6                 127549827.78906
                        39.000                  
  22294320.476 7  22294320.673 6     -2698.744 7     -2102.920 6 117157425.91307
  91291482.39906        46.000          41.000  
  24478354.817 5  24478352.139 4     -3688.249 5     -2873.620 4 128634596.40405
 100234735.28304        30.500          29.750  
  22707525.337 7                     -2608.712 7                 119328855.20507
                        46.250                  
  20236779.436 8  20236781.573 8       922.728 8       719.015 8 106344979.69508
  82866225.94108        51.000          49.500  
  23415761.465 6  23415763.880 6      1894.193 6      1476.106 6 123050665.33206
  95883650.05006        41.750          38.750  
  24585347.349 6  24585348.002 5      3520.449 6      2743.072 5 129196867.34806
 100672882.32105        37.500          32.000  
  22938529.342 7  22938533.339 7     -3080.141 7     -2400.175 7 120542751.86707
  93929413.95807        45.000          42.750  
 16 02 18 00 01 59.0000000  0 11G02G06G12G13G15G17G19G24G25G29G32   
  22174109.501 7                      2751.690 7                 116525728.85107
                        45.500                  
  22656175.474 7  22656179.038 6       497.669 7       387.805 6 119059018.66607
  92773276.70106        44.000          41.750  
  21207375.086 8  21207374.205 7       669.081 8       521.452 7 111445508.00108
  86840656.24107        50.500          44.000  
  24272618.924 6                     -3585.043 6                 127553412.80606
                        39.500                  
  22294833.966 7  22294834.346 6     -2699.063 7     -2103.311 6 117160124.83207
  91293585.45706        46.000          40.750  
  24479055.386 5  24479053.723 4     -3688.466 5     -2873.978 4 128638284.54205
 100237609.14404        30.750          29.500  
  22708021.840 7                     -2609.040 7                 119331464.09807
                        46.250                  
  20236603.933 8  20236606.178 8       922.277 8       718.597 8 106344057.21408
  82865507.12508        51.250          49.500  
  23415400.619 6  23415403.449 6      1894.253 6      1475.891 6 123048771.12406
  95882174.05306        41.750          38.500  
  24584677.312 6  24584678.649 5      3520.283 6      2743.260 5 129193346.86506
 100670139.08605        38.250          32.250  
  22939115.415 7  22939119.493 7     -3080.554 7     -2400.338 7 120545832.18907
  93931814.20007        45.250          42.750  
 16 02 18 00 02 00.0000000  0 11G02G06G12G13G15G17G19G24G25G29G32   
  22173585.722 7                      2751.408 7                 116522977.31007
                        45.500                  
  22656080.694 7  22656084.307 6       497.151 7       387.282 6 119058521.36307
  92772889.20306        43.750          41.750  
  21207247.783 8  21207246.911 7       669.057 8       521.278 7 111444838.98408
  86840134.93707        50.500          44.000  
  24273301.066 6                     -3585.009 6                 127556997.82906
                        40.000                  
  22295347.554 7  22295347.974 6     -2699.296 7     -2103.419 6 117162824.03907
  91295688.71906        46.250          41.000  
  24479756.622 4  24479756.072 4     -3687.856 4     -2873.430 4 128641972.68204
 100240483.05104        29.250          29.250  
  22708518.297 7                     -2609.269 7                 119334073.27007
                        46.250                  
  20236428.507 8  20236430.685 8       921.854 8       718.220 8 106343135.21908
  82864788.69108        51.250          49.250  
  23415040.349 6  23415043.010 6      1894.174 6      1475.917 6 123046876.99106
  95880698.09706        41.750          38.750  
  24584007.454 6  24584008.545 5      3520.323 6      2742.792 5 129189826.55106
 100667395.98205        37.750          32.250  
  22939701.546 7  22939705.808 7     -3080.618 7     -2400.477 7 120548912.70907
  93934214.60607        45.000          42.750  
 16 02 18 00 02 01.0000000  0 11G02G06G12G13G15G17G19G24G25G29G32   
  22173062.229 7                      2751.116 7                 116520226.06207
                        45.500                  
  22655985.918 7  22655989.920 6       496.577 7       386.848 6 119058024.61407
  92772502.13406        44.000          41.750  
  21207120.628 8  21207119.506 7       668.902 8       521.192 7 111444170.09308
  86839613.72007        50.750          44.000  
  24273983.543 6                     -3584.922 6                 127560582.82006
                        39.750                  
  22295861.370 7  22295861.768 6     -2699.606 7     -2103.534 6 117165523.54307
  91297792.22306        46.250          41.000  
  24480458.385 4  24480458.322 4     -3687.973 4     -2874.216 4 128645660.89104
 100243357.02304        29.250          28.750  
  22709014.768 7                     -2609.502 7                 119336682.69207
                        46.500                  
  20236253.085 8  20236255.335 8       921.359 8       717.888 8 106342213.66708
  82864070.59108        51.250          49.250  
  23414679.976 6  23414682.418 6      1894.141 6      1475.793 6 123044982.91606
  95879222.20006        41.750          38.750  
  24583337.668 6  24583338.848 5      3520.260 6      2743.068 5 129186306.31406
 100664652.95105        37.750          32.500  
  22940287.955 7  22940292.167 7     -3080.689 7     -2400.617 7 120551993.39707
  93936615.13807        45.000          42.750  
 16 02 18 00 02 02.0000000  0 11G02G06G12G13G15G17G19G24G25G29G32   
  22172538.714 7                      2750.728 7                 116517475.17007
                        45.500                  
  22655891.298 7  22655895.528 6       495.734 7       386.424 6 119057528.48107
  92772115.51806        44.000          41.750  
  21206993.455 8  21206992.266 7       668.622 8       521.083 7 111443501.37108
  86839092.63607        50.750          44.000  
  24274665.908 6                     -3584.956 6                 127564167.83706
                        40.250                  
  22296375.115 7  22296375.477 6     -2699.976 7     -2103.864 6 117168223.35907
  91299895.96906        46.250          41.000  
  24481160.921 4  24481161.547 4     -3688.928 4     -2873.859 4 128649349.30104
 100246231.02904        29.500          29.500  
  22709511.395 7                     -2609.953 7                 119339292.43707
                        46.500                  
  20236077.798 8  20236080.025 8       920.832 8       717.545 8 106341292.60708
  82863352.88408        51.250          49.250  
  23414319.595 7  23414322.068 6      1893.997 7      1475.755 6 123043088.92307
  95877746.37406        42.000          38.500  
  24582668.002 6  24582669.764 5      3520.091 6      2742.759 5 129182786.26906
 100661910.07205        37.750          32.500  
  22940874.256 7  22940878.227 7     -3081.149 7     -2400.818 7 120555074.31607
  93939015.84707        45.000          42.750  
 16 02 18 00 02 03.0000000  0 11G02G06G12G13G15G17G19G24G25G29G32   
  22172015.181 7                      2750.304 7                 116514724.57207
                        45.250                  
  22655797.139 7  22655800.989 6       495.274 7       386.008 6 119057032.88407
  92771729.33806        43.750          41.500  
  21206866.188 8  21206865.097 7       668.513 8       520.977 7 111442832.75708
  86838571.64007        50.500          44.000  
  24275348.094 6                     -3585.097 6                 127567752.84106
                        39.750                  
  22296888.998 7  22296889.217 6     -2700.330 7     -2104.116 6 117170923.46907
  91301999.94806        46.250          40.750  
  24481862.948 5  24481863.762 4     -3688.792 5     -2874.120 4 128653037.70805
 100249105.10904        30.250          29.500  
  22710008.143 7                     -2610.228 7                 119341902.42607
                        46.500                  
  20235902.640 8  20235904.831 8       920.294 8       717.156 8 106340371.99508
  82862635.52208        51.250          49.500  
  23413959.084 6  23413961.579 6      1893.839 6      1475.857 6 123041195.01506
  95876270.57506        41.500          38.250  
  24581998.314 6  24582000.277 5      3519.814 6      2742.686 5 129179266.34406
 100659167.25005        38.250          32.750  
  22941460.352 7  22941464.541 7     -3081.239 7     -2400.998 7 120558155.39707
  93941416.70307        45.000          42.750  
 16 02 18 00 02 04.0000000  0 11G02G06G12G13G15G17G19G24G25G29G32   
  22171491.822 7                      2750.188 7                 116511974.28507
                        45.250                  
  22655703.047 7  22655706.897 7       494.726 7       385.529 7 119056537.87307
  92771343.62707        43.750          42.000  
  21206738.854 8  21206737.857 7       668.398 8       520.862 7 111442164.28308
  86838050.75707        50.500          44.250  
  24276030.607 6                     -3585.077 6                 127571337.82606
                        40.500                  
  22297402.989 7  22297403.204 6     -2700.552 7     -2104.298 6 117173623.87107
  91304104.16006        46.250          40.750  
  24482565.212 4  24482564.184 4     -3688.562 4     -2874.135 4 128656726.15304
 100251979.28604        29.250          28.750  
  22710504.802 7                     -2610.390 7                 119344512.70207
                        46.250                  
  20235727.558 8  20235729.749 8       919.992 8       716.834 8 106339451.85508
  82861918.52908        51.000          49.500  
  23413598.483 6  23413601.390 6      1893.839 6      1475.670 6 123039301.14806
  95874794.86006        41.500          38.750  
  24581328.823 6  24581329.614 5      3519.771 6      2742.755 5 129175746.55106
 100656424.53605        38.000          32.750  
  22942046.845 7  22942050.731 7     -3081.337 7     -2401.074 7 120561236.67507
  93943817.69307        45.000          43.000  
 16 02 18 00 02 05.0000000  0 11G02G06G12G13G15G17G19G24G25G29G32   
  22170968.494 7                      2749.791 7                 116509224.32707
                        45.250                  
  22655609.005 7  22655612.980 7       494.034 7       384.904 7 119056043.45007
  92770958.35507        43.750          42.000  
  21206611.740 8  21206610.836 7       668.235 8       520.713 7 111441495.95008
  86837529.97207        50.500          44.000  
  24276712.578 6                     -3584.971 6                 127574922.83406
                        39.750                  
  22297917.051 7  22297917.234 6     -2700.835 7     -2104.580 6 117176324.57107
  91306208.60506        46.250          40.500  
  24483266.166 4  24483265.499 4     -3688.409 4     -2874.343 4 128660414.69404
 100254853.49404        29.000          29.500  
  22711001.541 7                     -2610.646 7                 119347123.25507
                        46.250                  
  20235552.539 8  20235554.707 8       919.388 8       716.441 8 106338532.18708
  82861201.90808        51.000          49.500  
  23413238.093 6  23413240.856 6      1893.745 6      1475.729 6 123037407.37006
  95873319.16706        41.500          38.750  
  24580659.117 6  24580659.917 5      3519.612 6      2742.600 5 129172226.87406
 100653681.95805        37.750          32.750  
  22942633.267 7  22942637.184 7     -3081.738 7     -2401.210 7 120564318.18607
  93946218.85707        45.000          42.750  
 16 02 18 00 02 06.0000000  0 11G02G06G12G13G15G17G19G24G25G29G32   
  22170445.386 7                      2749.482 7                 116506474.67207
                        45.500                  
  22655515.047 7  22655519.165 7       493.504 7       384.558 7 119055549.59507
  92770573.54307        44.000          42.000  
  21206484.526 8  21206483.650 7       668.094 8       520.600 7 111440827.75508
  86837009.30707        50.500          44.000  
  24277394.711 6                     -3584.989 6                 127578507.80306
                        40.250                  
  22298431.033 7  22298431.283 6     -2701.151 7     -2104.918 6 117179025.57507
  91308313.27806        46.250          40.750  
  24483967.106 4  24483967.647 4     -3688.728 4     -2874.693 4 128664103.34504
 100257727.78604        29.750          29.750  
  22711498.419 7                     -2610.957 7                 119349734.09007
                        46.500                  
  20235377.671 8  20235379.804 8       918.907 8       716.042 8 106337613.00108
  82860485.66008        51.250          49.500  
  23412877.447 6  23412880.895 6      1893.635 6      1475.579 6 123035513.64206
  95871843.55406        41.250          39.250  
  24579989.111 6  24579990.332 5      3519.635 6      2742.249 5 129168707.35006
 100650939.45905        37.750          32.750  
  22943219.689 7  22943223.745 7     -3081.694 7     -2401.374 7 120567399.86807
  93948620.16007        45.250          42.750  
 16 02 18 00 02 07.0000000  0 11G02G06G12G13G15G17G19G24G25G29G32   
  22169922.358 7                      2749.148 7                 116503725.35507
                        45.750                  
  22655421.170 7  22655425.476 7       492.996 7       384.307 7 119055056.31507
  92770189.14807        44.000          42.250  
  21206357.300 8  21206356.598 7       667.994 8       520.585 7 111440159.70208
  86836488.73707        50.500          44.000  
  24278076.562 6                     -3584.881 6                 127582092.79106
                        40.250                  
  22298944.988 7  22298945.336 6     -2701.423 7     -2104.971 6 117181726.88907
  91310418.19006        46.000          40.750  
  24484668.520 5  24484669.745 4     -3688.569 5     -2874.049 4 128667792.04905
 100260602.02804        30.250          29.750  
  22711995.368 7                     -2611.256 7                 119352345.20007
                        46.500                  
  20235202.831 8  20235204.977 8       918.516 8       715.692 8 106336694.29308
  82859769.78008        51.250          49.500  
  23412517.039 6  23412520.621 6      1893.580 6      1475.428 6 123033620.02706
  95870367.99806        41.000          38.750  
  24579319.396 6  24579320.706 5      3519.447 6      2741.952 5 129165187.97906
 100648197.07705        38.000          32.750  
  22943806.147 7  22943810.314 7     -3081.990 7     -2401.510 7 120570481.74407
  93951021.62307        45.000          42.500  
 16 02 18 00 02 08.0000000  0 11G02G06G12G13G15G17G19G24G25G29G32   
  22169399.228 7                      2748.848 7                 116500976.34607
                        45.500                  
  22655327.360 7  22655331.831 7       492.349 7       383.602 7 119054563.62507
  92769805.24807        44.000          42.500  
  21206230.203 8  21206229.416 7       667.852 8       520.403 7 111439491.77708
  86835968.27507        50.500          44.000  
  24278758.784 6                     -3584.943 6                 127585677.75706
                        40.250                  
  22299458.947 7  22299459.224 6     -2701.729 7     -2105.308 6 117184428.48807
  91312523.34506        46.000          40.750  
  24485370.927 4  24485373.136 5     -3688.728 4     -2874.532 5 128671480.83804
 100263476.44005        29.750          30.750  
  22712492.367 7                     -2611.550 7                 119354956.59207
                        46.500                  
  20235028.080 8  20235030.280 8       918.015 8       715.317 8 106335776.06508
  82859054.28108        51.250          49.500  
  23412156.662 6  23412159.962 6      1893.392 6      1475.481 6 123031726.46706
  95868892.48406        41.000          39.250  
  24578649.820 6  24578650.625 5      3519.267 6      2742.358 5 129161668.72206
 100645454.79405        38.000          32.750  
  22944392.640 7  22944396.772 7     -3082.200 7     -2401.757 7 120573563.82307
  93953423.23607        45.250          42.500  
 16 02 18 00 02 09.0000000  0 11G02G06G12G13G15G17G19G24G25G29G32   
  22168876.200 7                      2748.493 7                 116498227.66707
                        45.500                  
  22655233.666 7  22655238.321 7       491.826 7       383.221 7 119054071.49807
  92769421.78607        44.000          42.250  
  21206103.151 8  21206102.274 7       667.704 8       520.284 7 111438824.00108
  86835447.93607        50.500          44.000  
  24279441.440 6                     -3584.927 6                 127589262.73406
                        40.500                  
  22299973.009 7  22299973.327 6     -2702.067 7     -2105.468 6 117187130.40507
  91314628.72506        46.000          41.000  
  24486073.580 4  24486076.021 5     -3688.615 4     -2874.640 5 128675169.72804
 100266350.92605        28.750          30.500  
  22712989.387 7                     -2611.865 7                 119357568.27507
                        46.500                  
  20234853.427 8  20234855.690 8       917.443 8       714.878 8 106334858.32108
  82858339.15708        51.250          49.500  
  23411796.392 6  23411799.657 6      1893.399 6      1475.383 6 123029832.95706
  95867417.03506        41.000          39.250  
  24577979.980 6  24577980.034 5      3518.839 6      2742.049 5 129158149.62406
 100642712.62005        38.250          32.500  
  22944979.237 7  22944983.118 7     -3082.499 7     -2401.920 7 120576646.10007
  93955825.01507        45.250          42.500  
 16 02 18 00 02 10.0000000  0 11G02G06G12G13G15G17G19G24G25G29G32   
  22168353.069 7                      2748.221 7                 116495479.28007
                        45.500                  
  22655140.321 7  22655144.461 7       491.278 7       382.818 7 119053579.94107
  92769038.74807        44.250          42.000  
  21205976.000 8  21205975.115 7       667.621 8       520.271 7 111438156.34408
  86834927.68007        50.500          44.000  
  24280123.805 6                     -3585.030 6                 127592847.71206
                        40.000                  
  22300487.174 7  22300487.715 6     -2702.328 7     -2105.658 6 117189832.59607
  91316734.32006        46.000          41.000  
  24486776.555 4  24486777.530 5     -3688.807 4     -2874.673 5 128678858.62004
 100269225.38705        28.500          30.000  
  22713486.507 7                     -2612.073 7                 119360180.21107
                        46.500                  
  20234678.895 8  20234681.162 8       917.040 8       714.652 8 106333941.03308
  82857624.37508        51.250          49.500  
  23411436.194 6  23411439.432 6      1893.469 6      1475.244 6 123027939.51506
  95865941.63606        41.250          39.250  
  24577310.269 6  24577310.627 5      3518.885 6      2742.174 5 129154630.62906
 100639970.53605        38.250          32.250  
  22945565.753 7  22945569.603 7     -3082.572 7     -2402.062 7 120579728.55007
  93958226.92507        45.250          42.250  
 16 02 18 00 02 11.0000000  0 11G02G06G12G13G15G17G19G24G25G29G32   
  22167830.100 7                      2747.952 7                 116492731.21207
                        45.750                  
  22655047.029 7  22655050.638 7       490.668 7       382.418 7 119053088.95107
  92768656.15707        44.250          42.000  
  21205849.019 8  21205848.228 7       667.446 8       520.047 7 111437488.81408
  86834407.52807        50.500          44.000  
  24280806.121 6                     -3585.013 6                 127596432.64106
                        40.750                  
  22301001.563 7  22301001.930 6     -2702.609 7     -2105.990 6 117192535.07107
  91318840.14706        46.000          41.250  
  24487479.087 5  24487479.695 4     -3689.033 5     -2874.469 4 128682547.64005
 100272099.90504        30.000          29.750  
  22713983.738 7                     -2612.284 7                 119362792.41807
                        46.500                  
  20234504.363 8  20234506.595 8       916.623 8       714.196 8 106333024.19008
  82856909.96108        51.250          49.500  
  23411075.992 6  23411079.238 6      1893.293 6      1475.337 6 123026046.15606
  95864466.27306        41.500          39.250  
  24576640.863 6  24576641.990 5      3518.972 6      2741.765 5 129151111.74406
 100637228.60005        38.500          32.250  
  22946152.331 7  22946155.886 7     -3082.708 7     -2402.094 7 120582811.17907
  93960628.97507        45.000          42.500  
 16 02 18 00 02 12.0000000  0 11G02G06G12G13G15G17G19G24G25G29G32   
  22167307.362 7                      2747.494 7                 116489983.46607
                        45.500                  
  22654953.769 7  22654957.373 7       490.063 7       381.877 7 119052598.54907
  92768274.01907        44.000          42.000  
  21205722.061 8  21205721.216 7       667.272 8       519.984 7 111436821.42908
  86833887.48307        50.500          43.750  
  24281488.039 6                     -3585.000 6                 127600017.59906
                        40.000                  
  22301515.956 7  22301516.582 6     -2703.002 7     -2106.140 6 117195237.85407
  91320946.21106        46.000          41.250  
  24488181.498 4  24488182.598 5     -3688.866 4     -2874.404 5 128686236.68104
 100274974.47705        29.750          30.000  
  22714481.027 7                     -2612.670 7                 119365404.91807
                        46.750                  
  20234330.019 8  20234332.161 8       916.060 8       713.858 8 106332107.81208
  82856195.89408        51.250          49.500  
  23410715.668 6  23410718.548 6      1893.159 6      1475.003 6 123024152.84906
  95862990.97206        41.500          39.250  
  24575971.300 6  24575972.570 5      3518.664 6      2741.637 5 129147593.04406
 100634486.72605        38.250          32.500  
  22946738.941 7  22946742.608 7     -3082.951 7     -2402.317 7 120585894.02507
  93963031.18607        45.250          42.750  
 16 02 18 00 02 13.0000000  0 11G02G06G12G13G15G17G19G24G25G29G32   
  22166784.710 7                      2747.263 7                 116487236.03007
                        45.750                  
  22654860.616 7  22654864.126 6       489.543 7       381.400 6 119052108.70007
  92767892.32806        44.000          41.750  
  21205595.143 8  21205594.088 7       667.231 8       519.972 7 111436154.16508
  86833367.53807        50.750          44.000  
  24282170.296 6                     -3584.903 6                 127603602.48006
                        40.500                  
  22302030.345 7  22302031.185 6     -2703.181 7     -2106.396 6 117197940.92607
  91323052.49706        46.000          41.250  
  24488883.163 5  24488883.785 5     -3688.970 5     -2874.687 5 128689925.82305
 100277849.15405        30.750          30.500  
  22714978.258 7                     -2612.892 7                 119368017.67507
                        46.750                  
  20234155.715 8  20234157.920 8       915.589 8       713.442 8 106331191.91608
  82855482.21508        51.250          49.500  
  23410355.676 6  23410358.314 6      1893.275 6      1475.121 6 123022259.60506
  95861515.73106        41.500          39.000  
  24575302.028 6  24575303.343 5      3518.561 6      2741.794 5 129144074.46306
 100631744.99405        37.750          32.500  
  22947325.770 7  22947329.539 7     -3083.080 7     -2402.508 7 120588977.03507
  93965433.54407        45.500          42.750  
 16 02 18 00 02 14.0000000  0 11G02G06G12G13G15G17G19G24G25G29G32   
  22166262.049 7                      2746.959 7                 116484488.90907
                        45.750                  
  22654767.427 7  22654770.880 7       488.894 7       381.093 7 119051619.43407
  92767511.06707        44.000          42.000  
  21205468.225 8  21205467.170 7       667.041 8       519.701 7 111435487.04708
  86832847.70807        50.500          44.000  
  24282852.143 6                     -3584.942 6                 127607187.42406
                        40.000                  
  22302544.644 7  22302545.592 6     -2703.627 7     -2106.617 6 117200644.30307
  91325159.01406        45.750          41.000  
  24489585.092 5  24489585.959 5     -3689.332 5     -2874.675 5 128693615.04105
 100280723.85805        30.750          30.750  
  22715475.457 7                     -2613.216 7                 119370630.71107
                        46.500                  
  20233981.483 8  20233983.764 8       915.118 8       713.081 8 106330276.49608
  82854768.90008        51.000          49.500  
  23409995.496 6  23409998.049 6      1893.175 6      1475.300 6 123020366.43006
  95860040.51306        41.250          38.750  
  24574632.519 6  24574634.030 5      3518.423 6      2741.740 5 129140556.00506
 100629003.31105        37.750          32.250  
  22947912.585 7  22947916.355 7     -3083.322 7     -2402.604 7 120592060.25807
  93967836.04607        45.000          42.750  
 16 02 18 00 02 15.0000000  0 11G02G06G12G13G15G17G19G24G25G29G32   
  22165739.477 7                      2746.569 7                 116481742.13307
                        45.750                  
  22654674.440 7  22654677.982 7       488.365 7       380.551 7 119051130.75707
  92767130.29207        44.000          42.000  
  21205341.293 8  21205340.265 7       666.891 8       519.624 7 111434820.08308
  86832327.99707        50.500          44.000  
  24283534.369 6                     -3585.044 6                 127610772.35306
                        39.750                  
  22303059.113 7  22303059.739 6     -2703.872 7     -2106.995 6 117203347.99907
  91327265.79906        45.750          40.750  
  24490287.378 5  24490287.159 5     -3688.955 5     -2874.936 5 128697304.35805
 100283598.63705        30.000          30.000  
  22715972.595 7                     -2613.526 7                 119373244.05407
                        46.500                  
  20233807.358 8  20233809.634 8       914.603 8       712.729 8 106329361.58908
  82854055.98408        51.250          49.250  
  23409635.226 6  23409637.878 6      1893.091 6      1475.045 6 123018473.36006
  95858565.39006        41.500          39.500  
  24573963.157 6  24573963.743 5      3518.195 6      2741.619 5 129137037.70106
 100626261.75005        38.250          32.750  
  22948499.593 7  22948503.153 7     -3083.683 7     -2402.751 7 120595143.69707
  93970238.70507        45.000          42.750  
 16 02 18 00 02 16.0000000  0 11G02G06G12G13G15G17G19G24G25G29G32   
  22165216.995 7                      2746.275 7                 116478995.66407
                        46.000                  
  22654581.479 7  22654585.535 7       487.701 7       380.063 7 119050642.65607
  92766749.95807        44.000          42.000  
  21205214.344 8  21205213.423 7       666.771 8       519.555 7 111434153.23708
  86831808.38107        50.500          44.000  
  24284216.471 6                     -3584.919 6                 127614357.26806
                        40.250                  
  22303573.511 7  22303574.141 6     -2704.149 7     -2107.000 6 117206051.97707
  91329372.79406        46.000          40.750  
  24490989.074 5  24490989.324 5     -3689.400 5     -2874.968 5 128700993.71605
 100286473.48205        30.250          31.250  
  22716469.852 7                     -2613.762 7                 119375857.64907
                        46.500                  
  20233633.385 8  20233635.621 8       914.189 8       712.359 8 106328447.14608
  82853343.43708        51.250          49.500  
  23409275.014 6  23409277.720 6      1892.784 6      1475.049 6 123016580.34006
  95857090.31206        41.500          40.000  
  24573293.693 6  24573293.867 5      3517.982 6      2741.379 5 129133519.53006
 100623520.35705        38.250          32.250  
  22949086.301 7  22949090.277 7     -3083.663 7     -2402.869 7 120598227.30807
  93972641.53007        45.000          43.000  
 16 02 18 00 02 17.0000000  0 11G02G06G12G13G15G17G19G24G25G29G32   
  22164694.450 7                      2745.986 7                 116476249.51007
                        46.000                  
  22654488.729 7  22654493.013 6       487.391 7       379.671 6 119050155.11707
  92766370.06306        44.250          41.750  
  21205087.444 8  21205086.518 7       666.651 8       519.457 7 111433486.53708
  86831288.86607        50.750          44.000  
  24284898.666 6                     -3584.938 6                 127617942.19606
                        39.750                  
  22304088.100 7  22304088.548 6     -2704.476 7     -2107.267 6 117208756.26007
  91331480.03006        46.000          40.750  
  24491691.735 5  24491691.311 5     -3689.427 5     -2875.410 5 128704683.17005
 100289348.36205        30.000          30.750  
  22716967.267 7                     -2614.006 7                 119378471.51807
                        46.500                  
  20233459.475 8  20233461.733 8       913.718 8       711.935 8 106327533.18908
  82852631.26108        51.250          49.500  
  23408914.763 6  23408917.772 6      1893.110 6      1474.823 6 123014687.36706
  95855615.28206        40.750          40.000  
  24572624.170 6  24572624.036 5      3517.993 6      2741.199 5 129130001.48606
 100620779.03105        38.500          32.000  
  22949672.782 7  22949677.106 7     -3083.907 7     -2403.055 7 120601311.11407
  93975044.48507        45.250          42.750  
 16 02 18 00 02 18.0000000  0 11G02G06G12G13G15G17G19G24G25G29G32   
  22164171.834 7                      2745.661 7                 116473503.67307
                        46.000                  
  22654395.997 7  22654400.204 7       486.664 7       379.282 7 119049668.16707
  92765990.60307        44.250          42.000  
  21204960.548 8  21204959.632 7       666.517 8       519.358 7 111432819.96908
  86830769.46607        50.750          44.000  
  24285581.004 6                     -3584.944 6                 127621527.08106
                        40.500                  
  22304602.771 7  22304602.905 6     -2704.686 7     -2107.595 6 117211460.83007
  91333587.49306        46.250          40.500  
  24492393.355 4  24492393.481 5     -3689.348 4     -2874.695 5 128708372.67104
 100292223.28005        29.750          31.250  
  22717464.681 7                     -2614.322 7                 119381085.68207
                        46.750                  
  20233285.618 8  20233287.984 8       913.209 8       711.614 8 106326619.71608
  82851919.46108        51.500          49.500  
  23408554.350 6  23408557.583 6      1892.910 6      1474.941 6 123012794.49406
  95854140.30706        40.750          40.000  
  24571954.553 6  24571954.164 5      3517.722 6      2741.317 5 129126483.58406
 100618037.77805        38.500          32.500  
  22950259.704 7  22950263.966 7     -3084.081 7     -2403.131 7 120604395.11107
  93977447.59507        45.500          42.750  
 16 02 18 00 02 19.0000000  0 11G02G06G12G13G15G17G19G24G25G29G32   
  22163649.410 7                      2745.280 7                 116470758.15407
                        46.000                  
  22654303.537 7  22654307.306 7       486.117 7       378.741 7 119049181.77307
  92765611.60507        44.250          42.000  
  21204833.594 8  21204832.870 7       666.413 8       519.259 7 111432153.51408
  86830250.14707        50.750          44.000  
  24286262.712 6                     -3584.772 6                 127625111.96006
                        40.250                  
  22305117.620 7  22305117.531 6     -2704.954 7     -2107.774 6 117214165.68907
  91335695.17906        46.250          40.750  
  24493094.980 4  24493095.762 5     -3689.189 4     -2875.132 5 128712062.23904
 100295098.23905        29.500          31.000  
  22717962.283 7                     -2614.557 7                 119383700.08607
                        46.750                  
  20233111.931 8  20233114.190 8       912.796 8       711.293 8 106325706.69508
  82851208.01808        51.500          49.500  
  23408194.089 6  23408197.684 6      1892.749 6      1474.961 6 123010901.67606
  95852665.37906        40.750          40.000  
  24571285.129 6  24571285.107 5      3517.932 6      2741.329 5 129122965.78206
 100615296.68005        38.500          32.000  
  22950846.560 7  22950850.643 7     -3084.284 7     -2403.242 7 120607479.29007
  93979850.85707        45.250          42.750  
 16 02 18 00 02 20.0000000  0 11G02G06G12G13G15G17G19G24G25G29G32   
  22163126.834 7                      2744.935 7                 116468012.95407
                        45.750                  
  22654211.010 7  22654214.856 7       485.472 7       378.384 7 119048695.97307
  92765233.05307        44.250          42.000  
  21204706.819 8  21204706.113 7       666.231 8       519.173 7 111431487.20508
  86829730.94107        50.500          44.000  
  24286945.216 6                     -3584.681 6                 127628696.83706
                        40.250                  
  22305632.460 7  22305632.500 6     -2705.354 7     -2108.052 6 117216870.85107
  91337803.08806        46.000          41.000  
  24493797.861 4  24493798.397 5     -3690.296 4     -2874.917 5 128715751.96304
 100297973.30605        29.000          32.000  
  22718459.729 7                     -2614.878 7                 119386314.78607
                        46.500                  
  20232938.298 8  20232940.637 8       912.298 8       710.830 8 106324794.16108
  82850496.94808        51.500          49.500  
  23407833.730 6  23407837.441 6      1892.658 6      1474.879 6 123009008.92906
  95851190.51306        40.250          40.000  
  24570615.848 6  24570615.897 5      3517.522 6      2741.006 5 129119448.16406
 100612555.63505        38.750          32.000  
  22951433.429 7  22951437.418 7     -3084.529 7     -2403.494 7 120610563.67307
  93982254.26807        45.250          42.750  
 16 02 18 00 02 21.0000000  0 11G02G06G12G13G15G17G19G24G25G29G32   
  22162604.316 7                      2744.686 7                 116465268.08507
                        45.750                  
  22654118.738 7  22654122.458 7       484.940 7       377.816 7 119048210.75207
  92764854.96607        44.250          42.000  
  21204580.080 8  21204579.253 7       666.067 8       518.970 7 111430821.04608
  86829211.86007        50.500          44.000  
  24287627.107 6                     -3585.065 6                 127632281.76606
                        40.000                  
  22306147.260 7  22306147.511 6     -2705.612 7     -2108.111 6 117219576.31907
  91339911.24006        46.000          41.000  
  24494500.612 4  24494500.491 5     -3689.758 4     -2875.054 5 128719441.64704
 100300848.45105        29.500          32.000  
  22718957.206 7                     -2615.135 7                 119388929.77407
                        46.500                  
  20232764.697 8  20232766.990 8       911.777 8       710.530 8 106323882.11608
  82849786.26408        51.250          49.500  
  23407473.094 6  23407477.216 6      1892.605 6      1474.665 6 123007116.25806
  95849715.71106        40.250          40.250  
  24569946.652 6  24569946.647 5      3517.387 6      2740.631 5 129115930.66006
 100609814.75205        38.500          32.250  
  22952020.540 7  22952024.318 7     -3084.750 7     -2403.739 7 120613648.26007
  93984657.84507        45.000          42.500  
 16 02 18 00 02 22.0000000  0 11G02G06G12G13G15G17G19G24G25G29G32   
  22162081.865 7                      2744.347 7                 116462523.51507
                        45.750                  
  22654026.390 7  22654030.522 7       484.329 7       377.422 7 119047726.09407
  92764477.29307        44.000          42.000  
  21204453.377 8  21204452.608 7       665.994 8       518.884 7 111430155.00208
  86828692.86307        50.500          44.000  
  24288309.159 6                     -3584.844 6                 127635866.61006
                        39.500                  
  22306662.136 7  22306662.642 6     -2705.876 7     -2108.474 6 117222282.07307
  91342019.61406        45.750          40.750  
  24495202.312 4  24495202.643 5     -3689.936 4     -2875.545 5 128723131.47404
 100303723.63205        29.250          32.000  
  22719454.853 7                     -2615.400 7                 119391545.03007
                        46.500                  
  20232591.247 8  20232593.514 8       911.341 8       710.186 8 106322970.50508
  82849075.92408        51.250          49.500  
  23407112.940 6  23407116.933 6      1892.689 6      1474.726 6 123005223.65406
  95848240.93606        40.500          40.000  
  24569277.098 6  24569277.442 5      3517.324 6      2741.073 5 129112413.29306
 100607073.92005        38.250          31.500  
  22952607.606 7  22952611.201 7     -3084.775 7     -2403.820 7 120616733.01807
  93987061.54707        45.000          42.750  
 16 02 18 00 02 23.0000000  0 11G02G06G12G13G15G17G19G24G25G29G32   
  22161559.789 7                      2744.074 7                 116459779.25707
                        45.750                  
  22653934.181 7  22653938.196 7       483.715 7       377.000 7 119047242.00907
  92764100.08707        44.000          42.000  
  21204326.615 8  21204326.141 7       665.829 8       518.805 7 111429489.09608
  86828173.97507        50.750          44.250  
  24288991.059 6                     -3584.721 6                 127639451.47706
                        39.500                  
  22307177.026 7  22307177.723 6     -2706.232 7     -2108.656 6 117224988.13207
  91344128.22506        45.500          41.000  
  24495904.371 4  24495904.983 5     -3689.750 4     -2875.740 5 128726821.33004
 100306598.86605        29.000          31.250  
  22719952.598 7                     -2615.675 7                 119394160.55807
                        46.500                  
  20232417.842 8  20232420.028 8       910.889 8       709.812 8 106322059.37508
  82848365.94708        51.250          49.250  
  23406752.952 6  23406757.191 6      1892.497 6      1474.817 6 123003331.11806
  95846766.22806        40.250          40.000  
  24568607.580 6  24568607.879 5      3517.127 6      2740.529 5 129108896.06806
 100604333.21605        38.250          31.500  
  22953194.640 7  22953198.303 7     -3085.030 7     -2403.877 7 120619817.97007
  93989465.40207        45.000          43.000  
 16 02 18 00 02 24.0000000  0 11G02G06G12G13G15G17G19G24G25G29G32   
  22161037.700 7                      2743.746 7                 116457035.32907
                        46.000                  
  22653842.262 7  22653846.318 7       483.282 7       376.486 7 119046758.49007
  92763723.32907        44.000          42.000  
  21204200.010 8  21204199.263 7       665.663 8       518.729 7 111428823.32708
  86827655.18507        50.750          44.000  
  24289673.111 6                     -3584.762 6                 127643036.34006
                        39.000                  
  22307691.938 7  22307692.716 6     -2706.552 7     -2108.944 6 117227694.47707
  91346237.06606        45.750          40.750  
  24496606.943 4  24496605.892 5     -3689.781 4     -2875.070 5 128730511.30104
 100309474.10205        29.000          31.250  
  22720450.482 7                     -2615.999 7                 119396776.37807
                        46.500                  
  20232244.589 8  20232246.775 8       910.430 8       709.411 8 106321148.71208
  82847656.33908        51.250          49.250  
  23406392.960 6  23406396.904 6      1892.536 6      1474.722 6 123001438.63606
  95845291.57606        40.500          40.000  
  24567938.375 6  24567939.086 5      3517.029 6      2740.503 5 129105378.94606
 100601592.63305        38.500          31.500  
  22953781.724 7  22953785.579 7     -3085.239 7     -2404.090 7 120622903.11507
  93991869.41007        45.250          42.750  
 16 02 18 00 02 25.0000000  0 11G02G06G12G13G15G17G19G24G25G29G32   
  22160515.647 7                      2743.504 7                 116454291.71307
                        46.000                  
  22653750.370 7  22653754.323 7       482.707 7       375.996 7 119046275.55107
  92763347.01907        44.250          42.250  
  21204073.405 8  21204072.502 7       665.591 8       518.590 7 111428157.69308
  86827136.51407        50.750          43.750  
  24290355.378 6                     -3584.832 6                 127646621.17806
                        39.750                  
  22308207.055 7  22308207.449 6     -2706.735 7     -2109.104 6 117230401.11107
  91348346.13406        45.750          40.750  
  24497309.015 4  24497307.946 5     -3689.782 4     -2875.514 5 128734201.30804
 100312349.46905        28.500          31.500  
  22720948.321 7                     -2616.103 7                 119399392.43707
                        46.500                  
  20232071.412 8  20232073.540 8       910.076 8       708.997 8 106320238.50308
  82846947.09208        51.250          49.250  
  23406032.985 6  23406036.737 6      1892.295 6      1474.530 6 122999546.24906
  95843816.98906        40.500          40.000  
  24567269.058 6  24567269.880 5      3517.055 6      2740.906 5 129101861.98706
 100598852.07605        38.000          32.000  
  22954368.857 7  22954372.855 7     -3085.327 7     -2404.193 7 120625988.45707
  93994273.57007        45.000          43.000  
 16 02 18 00 02 26.0000000  0 11G02G06G12G13G15G17G19G24G25G29G32   
  22159993.594 7                      2743.071 7                 116451548.43007
                        45.750                  
  22653658.572 7  22653662.664 7       481.999 7       375.596 7 119045793.20707
  92762971.15407        44.000          42.000  
  21203946.737 8  21203945.857 7       665.355 8       518.496 7 111427492.20508
  86826617.95107        50.750          44.000  
  24291037.426 6                     -3584.767 6                 127650206.02506
                        39.000                  
  22308722.155 7  22308722.472 6     -2707.075 7     -2109.478 6 117233108.05007
  91350455.43806        45.750          40.750  
  24498010.505 4  24498010.442 5     -3689.797 4     -2875.595 5 128737891.38304
 100315224.85305        28.250          31.750  
  22721446.335 7                     -2616.504 7                 119402008.80207
                        46.750                  
  20231898.279 8  20231900.421 8       909.423 8       708.654 8 106319328.78508
  82846238.21608        51.250          49.250  
  23405672.885 6  23405676.516 6      1892.273 6      1474.498 6 122997653.92406
  95842342.44606        40.500          40.000  
  24566600.045 6  24566599.906 5      3516.759 6      2739.922 5 129098345.16706
 100596111.73305        38.500          31.500  
  22954955.878 7  22954959.702 7     -3085.616 7     -2404.324 7 120629073.98307
  93996677.86907        45.000          42.750  
 16 02 18 00 02 27.0000000  0 11G02G06G12G13G15G17G19G24G25G29G32   
  22159471.626 7                      2742.819 7                 116448805.46707
                        45.500                  
  22653566.859 7  22653571.166 7       481.517 7       375.201 7 119045311.42907
  92762595.74907        43.500          42.250  
  21203820.195 8  21203819.158 7       665.256 8       518.448 7 111426826.85508
  86826099.49207        50.500          43.750  
  24291719.719 6                     -3584.810 6                 127653790.84906
                        39.000                  
  22309237.339 7  22309237.442 6     -2707.290 7     -2109.668 6 117235815.28607
  91352564.98406        45.750          40.500  
                  24498712.880 5                     -2875.334 5                
 100318100.31505                        32.000  
  22721944.362 7                     -2616.761 7                 119404625.44107
                        46.500                  
  20231725.223 8  20231727.441 8       909.049 8       708.325 8 106318419.53808
  82845529.71408        51.250          49.500  
  23405312.911 6  23405316.220 6      1892.316 6      1474.299 6 122995761.66306
  95840867.98006        40.500          40.000  
  24565930.893 6  24565931.148 5      3516.640 6      2740.393 5 129094828.47806
 100593371.46105        38.250          32.250  
  22955543.007 7  22955547.063 7     -3085.868 7     -2404.470 7 120632159.71707
  93999082.33607        45.000          42.750  
 16 02 18 00 02 28.0000000  0 11G02G06G12G13G15G17G19G24G25G29G32   
  22158949.806 7                      2742.460 7                 116446062.82407
                        45.750                  
  22653475.424 7  22653479.470 7       480.955 7       374.711 7 119044830.22807
  92762220.78507        44.000          42.250  
  21203693.612 8  21203692.508 7       665.164 8       518.292 7 111426161.64408
  86825581.14707        50.500          44.000  
  24292401.798 6                     -3584.837 6                 127657375.70506
                        39.250                  
  22309752.533 7  22309752.689 6     -2707.663 7     -2109.748 6 117238522.82607
  91354674.73906        45.500          40.750  
                  24499414.706 5                     -2875.768 5                
 100320975.82505                        31.000  
  22722442.429 7                     -2617.025 7                 119407242.36607
                        46.500                  
  20231552.283 8  20231554.608 8       908.527 8       707.915 8 106317510.76808
  82844821.58308        51.250          49.500  
  23404952.704 6  23404955.919 6      1891.984 6      1474.388 6 122993869.49506
  95839393.54006        40.750          39.750  
  24565261.469 6  24565262.573 5      3516.408 6      2740.130 5 129091311.92706
 100590631.28305        38.250          31.750  
  22956130.395 7  22956134.370 7     -3086.043 7     -2404.645 7 120635245.65107
  94001486.95307        45.000          42.750  
 16 02 18 00 02 29.0000000  0 11G02G06G12G13G15G17G19G24G25G29G32   
  22158427.981 7                      2742.208 7                 116443320.49507
                        45.750                  
  22653383.849 7  22653388.003 7       480.423 7       374.322 7 119044349.58907
  92761846.27107        43.750          42.500  
  21203567.097 8  21203565.965 7       665.037 8       518.237 7 111425496.56508
  86825062.89907        50.500          44.000  
  24293084.177 6                     -3584.847 6                 127660960.50506
                        39.250                  
  22310267.677 7  22310268.384 6     -2707.933 7     -2110.104 6 117241230.64607
  91356784.73306        45.500          40.500  
  24500116.263 4  24500116.706 5     -3690.439 4     -2875.243 5 128748962.11604
 100323851.36015        28.250          31.500  
  22722940.366 7                     -2617.276 7                 119409859.54707
                        46.750                  
  20231379.450 8  20231381.803 8       908.120 8       707.587 8 106316602.46008
  82844113.80708        51.250          49.500  
  23404592.743 6  23404596.043 6      1892.189 6      1474.439 6 122991977.35606
  95837919.15006        40.750          39.750  
  24564592.318 6  24564593.212 5      3516.315 6      2740.014 5 129087795.53006
 100587891.22905        38.250          31.750  
  22956717.684 7  22956721.507 7     -3086.143 7     -2404.701 7 120638331.75307
  94003891.70507        44.750          42.500  
 16 02 18 00 02 30.0000000  0 11G02G06G12G13G15G17G19G24G25G29G32   
  22157906.004 7                      2741.846 7                 116440578.47907
                        45.500                  
  22653292.552 7  22653296.532 7       479.783 7       373.866 7 119043869.53007
  92761472.19707        43.750          42.250  
  21203440.568 8  21203439.463 7       664.903 8       518.055 7 111424831.61008
  86824544.76107        50.500          44.000  
  24293766.493 6                     -3584.760 6                 127664545.30706
                        39.500                  
  22310783.049 7  22310783.711 6     -2708.265 7     -2110.315 6 117243938.77307
  91358894.96206        45.750          40.500  
                  24500818.867 5                     -2876.296 5                
 100326727.00605                        31.250  
  22723438.514 7                     -2617.538 7                 119412476.99407
                        46.500                  
  20231206.712 8  20231209.019 8       907.589 8       707.151 8 106315694.62608
  82843406.41008        51.250          49.500  
  23404232.871 6  23404235.871 6      1891.997 6      1474.472 6 122990085.30206
  95836444.82306        40.750          39.250  
  24563923.027 6  24563923.443 5      3516.219 6      2739.676 5 129084279.24006
 100585151.31205        38.000          31.500  
  22957304.938 7  22957308.779 7     -3086.360 7     -2405.010 7 120641418.04707
  94006296.62007        44.750          42.500  
 16 02 18 00 02 31.0000000  0 11G02G06G12G13G15G17G19G24G25G29G32   
  22157384.269 7                      2741.558 7                 116437836.77807
                        45.500                  
  22653201.367 7  22653205.177 7       479.221 7       373.283 7 119043390.05407
  92761098.58307        43.750          42.250  
  21203313.981 8  21203313.234 7       664.853 8       517.998 7 111424166.79008
  86824026.72107        50.500          44.000  
  24294448.952 6                     -3584.561 6                 127668130.08806
                        39.000                  
  22311298.453 7  22311299.124 6     -2708.413 7     -2110.469 6 117246647.18107
  91361005.40906        45.750          40.750  
                  24501521.990 5                     -2875.656 5                
 100329602.64205                        31.500  
  22723936.648 7                     -2617.784 7                 119415094.72107
                        46.750                  
  20231034.009 8  20231036.325 8       907.116 8       706.819 8 106314787.28308
  82842699.38508        51.250          49.500  
  23403872.673 6  23403875.834 6      1892.186 6      1474.299 6 122988193.28906
  95834970.53706        40.750          39.500  
  24563253.863 6  24563253.840 5      3516.320 6      2739.670 5 129080763.08706
 100582411.42405        37.750          31.750  
  22957892.308 7  22957896.225 7     -3086.595 7     -2405.101 7 120644504.52707
  94008701.66207        44.500          42.500  
 16 02 18 00 02 32.0000000  0 11G02G06G12G13G15G17G19G24G25G29G32   
  22156862.506 7                      2741.243 7                 116435095.40007
                        45.750                  
  22653110.240 7  22653114.175 7       478.543 7       372.962 7 119042911.15007
  92760725.40807        44.000          42.500  
  21203187.460 8  21203186.821 7       664.564 8       517.909 7 111423502.11308
  86823508.78107        50.500          44.000  
  24295131.040 6                     -3584.813 6                 127671714.87506
                        39.500                  
  22311813.906 7  22311814.590 6     -2708.840 7     -2110.828 6 117249355.88907
  91363116.09406        46.000          41.000  
                  24502224.821 5                     -2876.034 5                
 100332478.39405                        31.250  
  22724434.926 7                     -2618.201 7                 119417712.73007
                        47.000                  
  20230861.471 8  20230863.698 8       906.633 8       706.451 8 106313880.41908
  82841992.73508        51.250          49.500  
  23403512.551 6  23403516.177 6      1891.700 6      1474.130 6 122986301.40506
  95833496.32906        40.750          39.250  
  24562584.617 6  24562584.559 5      3515.990 6      2739.945 5 129077247.08706
 100579671.67605        38.000          31.750  
  22958479.477 7  22958483.456 7     -3086.778 7     -2405.270 7 120647591.21307
  94011106.86407        44.750          42.500  
 16 02 18 00 02 33.0000000  0 11G02G06G12G13G15G17G19G24G25G29G32   
  22156340.923 7                      2740.868 7                 116432354.35407
                        45.750                  
  22653019.336 7  22653023.267 7       478.044 7       372.552 7 119042432.82007
  92760352.68307        44.250          42.250  
  21203061.021 8  21203060.238 7       664.484 8       517.803 7 111422837.56808
  86822990.95907        50.500          44.000  
  24295812.975 6                     -3584.703 6                 127675299.64106
                        39.000                  
  22312329.453 7  22312329.958 6     -2709.152 7     -2111.071 6 117252064.89607
  91365227.00706        45.750          40.750  
                  24502926.414 5                     -2875.710 5                
 100335354.15705                        31.250  
  22724933.208 7                     -2618.431 7                 119420331.01207
                        47.000                  
  20230689.014 8  20230691.174 8       906.132 8       706.125 8 106312974.02608
  82841286.45508        51.250          49.500  
  23403152.473 6  23403156.176 6      1891.906 6      1474.040 6 122984409.53006
  95832022.15806        40.750          39.250  
  24561915.743 6  24561915.721 5      3515.677 6      2739.619 5 129073731.22706
 100576932.00805        38.250          31.750  
  22959066.623 7  22959070.719 7     -3086.993 7     -2405.469 7 120650678.07707
  94013512.23107        44.750          42.500  
 16 02 18 00 02 34.0000000  0 11G02G06G12G13G15G17G19G24G25G29G32   
  22155819.344 7                      2740.495 7                 116429613.62107
                        46.000                  
  22652928.437 7  22652932.417 7       477.374 7       372.080 7 119041955.07207
  92759980.40607        44.250          42.250  
  21202934.604 8  21202933.656 7       664.362 8       517.702 7 111422173.16108
  86822473.23607        50.750          43.750  
  24296495.153 6                     -3584.748 6                 127678884.40406
                        39.750                  
  22312845.071 7  22312845.281 6     -2709.510 7     -2111.266 6 117254774.21507
  91367338.15606        46.000          41.000  
                  24503628.665 5                     -2876.093 5                
 100338230.00305                        31.750  
  22725431.400 7                     -2618.725 7                 119422949.56607
                        47.000                  
  20230516.691 8  20230518.762 8       905.668 8       705.704 8 106312068.11008
  82840580.54908        51.500          49.500  
  23402792.490 6  23402796.121 6      1891.747 6      1474.081 6 122982517.74506
  95830548.03206        41.250          39.250  
  24561247.065 6  24561247.231 5      3515.526 6      2739.340 5 129070215.48406
 100574192.52205        38.750          32.250  
  22959653.899 7  22959658.040 7     -3087.203 7     -2405.597 7 120653765.15007
  94015917.71907        44.750          42.500  
 16 02 18 00 02 35.0000000  0 11G02G06G12G13G15G17G19G24G25G29G32   
  22155297.912 7                      2740.236 7                 116426873.21407
                        45.750                  
  22652837.591 7  22652841.661 7       476.779 7       371.485 7 119041477.90807
  92759608.59207        44.250          42.500  
  21202808.191 8  21202807.435 7       664.138 8       517.504 7 111421508.90308
  86821955.63307        50.750          44.000  
  24297176.901 6                     -3584.937 6                 127682469.19006
                        39.000                  
  22313360.689 7  22313360.891 6     -2709.785 7     -2111.559 6 117257483.82907
  91369449.54406        46.000          41.000  
  24504329.547 4  24504331.313 5     -3690.856 4     -2875.788 5 128771105.43904
 100341105.87715        28.750          31.500  
  22725929.700 7                     -2619.062 7                 119425568.40607
                        47.000                  
  20230344.444 8  20230346.559 8       905.114 8       705.287 8 106311162.69508
  82839875.02608        51.500          49.500  
  23402432.770 6  23402435.838 6      1891.590 6      1473.959 6 122980626.05906
  95829073.98606        41.250          39.000  
  24560578.419 6  24560577.927 5      3515.556 6      2739.319 5 129066699.91206
 100571453.06805        39.000          32.000  
  22960241.470 7  22960245.781 7     -3087.453 7     -2405.733 7 120656852.40807
  94018323.37607        45.000          42.500  
 16 02 18 00 02 36.0000000  0 11G02G06G12G13G15G17G19G24G25G29G32   
  22154776.320 7                      2739.815 7                 116424133.13607
                        45.750                  
  22652746.817 7  22652750.846 7       476.214 7       371.259 7 119041001.31307
  92759237.21207        44.000          42.250  
  21202681.791 8  21202681.121 7       663.963 8       517.427 7 111420844.77508
  86821438.12907        50.750          44.000  
  24297859.083 6                     -3584.870 6                 127686053.92006
                        39.500                  
  22313876.554 7  22313876.715 6     -2710.079 7     -2111.743 6 117260193.72807
  91371561.15106        46.250          41.000  
  24505031.712 4  24505033.564 5     -3691.673 4     -2876.142 5 128774796.22504
 100343981.85905        28.000          32.250  
  22726428.147 7                     -2619.316 7                 119428187.52207
                        47.000                  
  20230172.206 8  20230174.330 8       904.562 8       704.946 8 106310257.77008
  82839169.88308        51.500          49.500  
  23402072.675 6  23402075.572 6      1891.586 6      1473.982 6 122978734.40606
  95827599.97806        41.000          39.500  
  24559909.169 6  24559908.695 5      3515.538 6      2739.315 5 129063184.43906
 100568713.77905        38.750          32.000  
  22960829.100 7  22960833.634 7     -3087.678 7     -2405.906 7 120659939.85407
  94020729.18007        45.250          42.500  
 16 02 18 00 02 37.0000000  0 11G02G06G12G13G15G17G19G24G25G29G32   
  22154254.710 7                      2739.615 7                 116421393.36607
                        45.500                  
  22652656.012 7  22652660.287 7       475.744 7       370.636 7 119040525.29607
  92758866.29707        43.750          42.500  
  21202555.450 8  21202554.636 7       663.959 8       517.341 7 111420180.77108
  86820920.72907        50.500          44.000  
  24298541.112 6                     -3584.613 6                 127689638.68206
                        38.750                  
  22314392.244 7  22314392.525 6     -2710.296 7     -2111.888 6 117262903.91807
  91373672.99406        46.250          41.000  
                  24505735.783 5                     -2876.376 5                
 100346857.86205                        31.750  
  22726926.621 7                     -2619.424 7                 119430806.89407
                        47.000                  
  20230000.085 8  20230002.218 8       904.253 8       704.611 8 106309353.30108
  82838465.11208        51.500          49.500  
  23401712.817 6  23401715.383 6      1891.417 6      1473.903 6 122976842.84806
  95826126.04406        41.250          39.500  
  24559240.295 6  24559239.830 5      3515.169 6      2739.205 5 129059669.13506
 100565974.54905        38.250          32.000  
  22961416.903 7  22961421.348 7     -3087.866 7     -2406.040 7 120663027.50207
  94023135.13707        45.500          42.500  
 16 02 18 00 02 38.0000000  0 11G02G06G12G13G15G17G19G24G25G29G32   
  22153733.426 7                      2739.248 7                 116418653.93907
                        45.500                  
  22652565.569 7  22652569.723 7       475.193 7       370.353 7 119040049.86107
  92758495.82707        44.000          42.250  
  21202429.185 8  21202428.385 7       663.761 8       517.211 7 111419516.92408
  86820403.44807        50.500          44.000  
  24299223.437 6                     -3584.829 6                 127693223.42806
                        38.250                  
  22314908.054 7  22314908.479 6     -2710.624 7     -2112.179 6 117265614.41707
  91375785.06006        46.250          41.000  
                  24506438.078 5                     -2875.875 5                
 100349733.90405                        31.500  
  22727425.059 7                     -2619.835 7                 119433426.57507
                        47.000                  
  20229828.115 8  20229830.266 8       903.773 8       704.208 8 106308449.31808
  82837760.71008        51.500          49.500  
  23401352.833 6  23401355.538 6      1891.311 6      1473.657 6 122974951.37406
  95824652.16206        41.000          39.000  
  24558571.385 6  24558571.309 5      3515.123 6      2738.625 5 129056153.96106
 100563235.49005        38.750          32.500  
  22962004.774 7  22962008.781 7     -3087.975 7     -2406.157 7 120666115.33607
  94025541.24207        45.500          42.500  
 16 02 18 00 02 39.0000000  0 11G02G06G12G13G15G17G19G24G25G29G32   
  22153212.097 7                      2738.930 7                 116415914.81307
                        45.500                  
  22652475.251 7  22652479.397 7       474.453 7       369.718 7 119039575.01607
  92758125.82207        43.750          42.500  
  21202302.915 8  21202301.981 7       663.590 8       517.084 7 111418853.21208
  86819886.26407        50.750          44.250  
  24299905.650 6                     -3584.704 6                 127696808.16806
                        38.500                  
  22315424.017 7  22315424.196 6     -2711.046 7     -2112.328 6 117268325.21307
  91377897.36406        46.500          41.250  
                  24507140.373 5                     -2876.698 5                
 100352610.04505                        32.000  
  22727923.686 7                     -2620.150 7                 119436046.51507
                        47.250                  
  20229656.199 8  20229658.390 8       903.261 8       703.811 8 106307545.79008
  82837056.66408        51.500          49.750  
  23400993.002 6  23400995.962 6      1891.172 6      1473.785 6 122973059.95106
  95823178.31606        41.500          39.000  
  24557902.605 6  24557902.895 5      3514.897 6      2738.880 5 129052638.93006
 100560496.46905        38.500          32.500  
  22962592.484 7  22962596.227 7     -3088.184 7     -2406.433 7 120669203.37007
  94027947.49907        45.500          42.500  
 16 02 18 00 02 40.0000000  0 11G02G06G12G13G15G17G19G24G25G29G32   
  22152690.813 7                      2738.669 7                 116413176.02407
                        45.500                  
  22652385.081 7  22652389.168 7       473.961 7       369.212 7 119039100.72407
  92757756.25607        43.750          42.250  
  21202176.659 8  21202175.622 7       663.523 8       517.044 7 111418189.63308
  86819369.18907        50.500          44.000  
  24300587.913 6                     -3584.734 6                 127700392.88606
                        38.500                  
  22315939.903 7  22315940.288 6     -2711.273 7     -2112.717 6 117271036.30607
  91380009.90406        46.500          41.250  
                  24507842.404 5                     -2876.264 5                
 100355486.20705                        31.500  
  22728422.272 7                     -2620.388 7                 119438666.73207
                        47.250                  
  20229484.359 8  20229486.501 8       902.802 8       703.433 8 106306642.74108
  82836352.98808        51.250          49.500  
  23400633.228 6  23400636.077 6      1891.291 6      1473.741 6 122971168.59106
  95821704.54006        41.250          39.000  
  24557233.815 6  24557233.811 5      3514.956 6      2738.323 5 129049124.03706
 100557757.59605        38.750          32.000  
  22963180.216 7  22963183.713 7     -3088.368 7     -2406.463 7 120672291.58407
  94030353.90207        45.500          42.250  
 16 02 18 00 02 41.0000000  0 11G02G06G12G13G15G17G19G24G25G29G32   
  22152169.766 7                      2738.313 7                 116410437.56307
                        45.500                  
  22652295.027 7  22652298.837 7       473.385 7       368.912 7 119038627.03207
  92757387.13107        43.500          42.250  
  21202050.398 8  21202049.486 7       663.340 8       516.941 7 111417526.20108
  86818852.22307        50.500          44.000  
  24301269.924 6                     -3584.771 6                 127703977.60506
                        39.000                  
  22316455.888 7  22316456.447 6     -2711.449 7     -2112.904 6 117273747.69307
  91382122.68506        46.250          41.000  
                  24508544.959 5                     -2876.346 5                
 100358362.42405                        32.000  
  22728920.898 7                     -2620.604 7                 119441287.23007
                        47.000                  
  20229312.613 8  20229314.773 8       902.285 8       703.111 8 106305740.19008
  82835649.69508        51.500          49.500  
  23400273.406 6  23400275.955 6      1891.238 6      1473.571 6 122969277.31006
  95820230.83206        41.250          39.250  
  24556564.673 6  24556564.946 5      3514.740 6      2738.554 5 129045609.28206
 100555018.84705        38.500          32.500  
  22963767.962 7  22963771.405 7     -3088.518 7     -2406.585 7 120675380.01007
  94032760.44807        45.250          42.250  
 16 02 18 00 02 42.0000000  0 11G02G06G12G13G15G17G19G24G25G29G32   
  22151648.787 7                      2737.921 7                 116407699.43207
                        45.750                  
  22652204.817 7  22652208.989 7       472.894 7       368.329 7 119038153.91607
  92757018.48107        43.500          42.500  
  21201924.084 8  21201923.346 7       663.216 8       516.768 7 111416862.90408
  86818335.37507        50.500          44.000  
  24301951.833 6                     -3584.797 6                 127707562.33306
                        38.250                  
  22316971.851 7  22316972.665 6     -2711.830 7     -2113.092 6 117276459.38707
  91384235.68306        46.250          41.000  
                  24509246.981 5                     -2876.331 5                
 100361238.69905                        32.250  
  22729419.694 7                     -2620.959 7                 119443908.01007
                        47.000                  
  20229140.947 8  20229143.062 8       901.787 8       702.705 8 106304838.11908
  82834946.78708        51.250          49.500  
  23399913.530 6  23399916.244 6      1891.209 6      1473.605 6 122967386.12206
  95818757.16406        41.250          39.250  
  24555895.673 6  24555896.134 5      3514.538 6      2738.718 5 129042094.67506
 100552280.15805        38.000          32.500  
  22964355.578 7  22964359.168 7     -3088.703 7     -2406.758 7 120678468.61407
  94035167.16007        45.500          42.250  
 16 02 18 00 02 43.0000000  0 11G02G06G12G13G15G17G19G24G25G29G32   
  22151127.838 7                      2737.698 7                 116404961.60707
                        45.500                  
  22652114.794 7  22652119.261 7       472.296 7       367.969 7 119037681.37507
  92756650.26007        44.000          42.250  
  21201797.899 8  21201797.211 7       663.171 8       516.640 7 111416199.73608
  86817818.62307        50.750          44.250  
  24302633.935 6                     -3584.606 6                 127711147.00906
                        39.000                  
  22317487.970 7  22317488.820 6     -2712.015 7     -2113.264 6 117279171.35807
  91386348.90606        46.500          41.000  
                  24509949.509 5                     -2876.287 5                
 100364115.05205                        31.500  
  22729918.329 7                     -2621.148 7                 119446529.04207
                        46.750                  
  20228969.291 8  20228971.428 8       901.418 8       702.391 8 106303936.51208
  82834244.23708        51.500          49.500  
  23399553.443 6  23399556.394 6      1891.257 6      1473.542 6 122965494.96706
  95817283.56106        41.000          39.500  
  24555226.732 6  24555227.000 5      3514.466 6      2738.325 5 129038580.19106
 100549541.65205        38.000          32.000  
  22964943.502 7  22964946.896 7     -3088.781 7     -2406.906 7 120681557.41207
  94037574.01407        45.500          42.250  
 16 02 18 00 02 44.0000000  0 11G02G06G12G13G15G17G19G24G25G29G32   
  22150606.894 7                      2737.339 7                 116402224.10407
                        45.500                  
  22652025.022 7  22652029.350 7       471.689 7       367.508 7 119037209.40107
  92756282.48607        44.000          42.250  
  21201671.674 8  21201671.053 7       662.956 8       516.569 7 111415536.69308
  86817301.95907        50.750          44.250  
  24303315.893 6                     -3584.692 6                 127714731.72206
                        38.750                  
  22318004.125 7  22318004.818 6     -2712.404 7     -2113.537 6 117281883.62407
  91388462.35606        46.500          41.000  
                  24510651.979 5                     -2876.442 5                
 100366991.42805                        32.000  
  22730417.094 7                     -2621.468 7                 119449150.35307
                        47.000                  
  20228797.822 8  20228799.946 8       900.882 8       701.957 8 106303035.37808
  82833542.05408        51.500          49.500  
  23399193.656 6  23399196.661 6      1891.090 6      1473.535 6 122963603.90206
  95815809.97806        41.000          39.250  
  24554557.777 6  24554558.555 5      3514.413 6      2738.336 5 129035065.83806
 100546803.16905        37.250          32.500  
  22965531.378 7  22965534.669 7     -3089.103 7     -2407.024 7 120684646.38407
  94039980.99907        45.750          42.000  
 16 02 18 00 02 45.0000000  0 11G02G06G12G13G15G17G19G24G25G29G32   
  22150086.147 7                      2737.009 7                 116399486.92707
                        45.750                  
  22651935.294 7  22651939.564 7       471.117 7       367.066 7 119036738.00407
  92755915.16907        43.500          42.250  
  21201545.534 8  21201544.962 7       662.828 8       516.499 7 111414873.79408
  86816785.41307        50.500          44.000  
  24303998.263 6                     -3584.642 6                 127718316.37806
                        38.750                  
  22318520.280 7  22318520.888 6     -2712.717 7     -2113.849 6 117284596.18207
  91390576.04506        46.250          41.000  
                  24511354.551 5                     -2876.504 5                
 100369867.90105                        32.000  
  22730915.925 7                     -2621.728 7                 119451771.94107
                        47.000                  
  20228626.492 8  20228628.575 8       900.447 8       701.594 8 106302134.70808
  82832840.23108        51.250          49.500  
  23398833.820 6  23398836.861 6      1890.921 6      1473.526 6 122961712.88306
  95814336.48306        41.250          39.250  
  24553888.805 6  24553889.525 5      3514.264 6      2738.149 5 129031551.65006
 100544064.83905        37.250          32.500  
  22966119.297 7  22966122.562 6     -3089.204 7     -2407.039 6 120687735.54707
  94042388.14406        45.500          41.750  
 16 02 18 00 02 46.0000000  0 11G02G06G12G13G15G17G19G24G25G29G32   
  22149565.467 7                      2736.701 7                 116396750.06507
                        45.750                  
  22651845.696 7  22651850.043 7       470.640 7       366.629 7 119036267.18807
  92755548.30407        43.750          42.250  
  21201419.390 8  21201418.701 7       662.781 8       516.426 7 111414211.02308
  86816268.97607        50.500          44.000  
  24304680.118 6                     -3584.589 6                 127721901.07506
                        38.500                  
  22319036.596 7  22319037.083 6     -2712.935 7     -2114.088 6 117287309.03807
  91392689.96106        46.250          40.750  
                  24512056.685 5                     -2876.309 5                
 100372744.36705                        31.500  
  22731414.981 7                     -2621.938 7                 119454393.79707
                        47.250                  
  20228455.157 8  20228457.267 8       900.081 8       701.341 8 106301234.50008
  82832138.77408        51.250          49.500  
  23398474.141 6  23398477.057 6      1891.047 6      1473.438 6 122959821.95406
  95812863.02406        41.500          39.250  
  24553220.235 6  24553221.084 5      3513.998 6      2737.979 5 129028037.57706
 100541326.61305        38.000          32.250  
  22966706.994 7  22966710.263 7     -3089.356 7     -2407.391 7 120690824.90807
  94044795.44407        45.750          42.000  
 16 02 18 00 02 47.0000000  0 11G02G06G12G13G15G17G19G24G25G29G32   
  22149044.710 7                      2736.335 7                 116394013.53407
                        45.750                  
  22651756.107 7  22651760.762 7       469.937 7       366.131 7 119035796.94907
  92755181.87807        43.750          42.250  
  21201293.321 8  21201292.329 7       662.579 8       516.298 7 111413548.39408
  86815752.63707        50.500          43.750  
  24305362.309 6                     -3584.813 6                 127725485.72006
                        38.000                  
  22319552.885 7  22319553.238 6     -2713.287 7     -2114.241 6 117290022.18107
  91394804.09806        46.000          40.750  
                  24512758.945 5                     -2876.494 5                
 100375620.93205                        31.750  
  22731914.068 7                     -2622.280 7                 119457015.92707
                        47.250                  
  20228283.930 8  20228286.103 8       899.427 8       700.872 8 106300334.78708
  82831437.69308        51.250          49.500  
  23398114.278 6  23398117.104 6      1890.832 6      1473.359 6 122957931.10706
  95811389.62206        41.500          39.250  
  24552551.436 6  24552553.466 5      3513.824 6      2738.135 5 129024523.66206
 100538588.45405        37.250          32.000  
  22967295.012 7  22967298.156 7     -3089.729 7     -2407.545 7 120693914.46407
  94047202.88507        45.750          42.000  
 16 02 18 00 02 48.0000000  0 11G02G06G12G13G15G17G19G24G25G29G32   
  22148524.012 7                      2736.090 7                 116391277.32507
                        45.750                  
  22651666.778 7  22651671.245 7       469.387 7       365.672 7 119035327.29507
  92754815.91307        43.500          42.000  
  21201167.253 8  21201166.318 7       662.453 8       516.141 7 111412885.91108
  86815236.41407        50.250          44.000  
  24306044.347 6                     -3584.680 6                 127729070.38606
                        38.500                  
  22320069.308 7  22320069.335 6     -2713.651 7     -2114.423 6 117292735.63707
  91396918.46006        46.500          40.750  
                  24513461.195 5                     -2876.561 5                
 100378497.57905                        30.750  
  22732413.132 7                     -2622.510 7                 119459638.34107
                        47.250                  
  20228112.930 8  20228115.081 8       898.972 8       700.519 8 106299435.55908
  82830736.99708        51.250          49.500  
  23397754.532 6  23397757.197 6      1890.818 6      1473.282 6 122956040.32206
  95809916.28506        41.500          39.500  
  24551883.152 6  24551884.413 5      3513.655 6      2737.692 5 129021009.87606
 100535850.48505        37.250          31.500  
  22967883.035 7  22967886.053 7     -3089.805 7     -2407.614 7 120697004.20307
  94049610.46607        46.000          42.000  
 16 02 18 00 02 49.0000000  0 11G02G06G12G13G15G17G19G24G25G29G32   
  22148003.524 7                      2735.698 7                 116388541.44307
                        45.750                  
  22651577.479 7  22651581.839 7       468.766 7       365.268 7 119034858.22907
  92754450.40707        43.500          42.250  
  21201041.287 8  21201040.138 7       662.300 8       516.061 7 111412223.55508
  86814720.29107        50.500          44.000  
  24306726.498 6                     -3584.682 6                 127732655.03906
                        37.500                  
  22320585.749 7  22320585.754 6     -2713.816 7     -2114.672 6 117295449.36007
  91399033.06106        46.500          41.000  
                  24514163.544 5                     -2876.583 5                
 100381374.24005                        31.000  
  22732912.241 7                     -2622.878 7                 119462261.03207
                        47.250                  
  20227941.882 8  20227944.068 8       898.550 8       700.124 8 106298536.80208
  82830036.66808        51.250          49.250  
  23397394.897 6  23397397.473 6      1890.626 6      1473.440 6 122954149.60406
  95808442.98406        41.250          39.000  
  24551214.359 6  24551216.085 5      3513.393 6      2737.620 5 129017496.23306
 100533112.57805        37.250          32.000  
  22968471.152 7  22968474.148 7     -3090.080 7     -2407.816 7 120700094.14607
  94052018.21507        46.000          42.000  
 16 02 18 00 02 50.0000000  0 11G02G06G12G13G15G17G19G24G25G29G32   
  22147483.059 7                      2735.410 7                 116385805.87507
                        46.000                  
  22651488.431 7  22651492.769 7       468.202 7       364.898 7 119034389.70607
  92754085.32407        43.750          42.250  
  21200915.290 8  21200914.195 7       662.150 8       515.934 7 111411561.32008
  86814204.26907        50.500          43.750  
  24307408.738 6                     -3584.673 6                 127736239.63906
                        38.500                  
  22321102.356 7  22321102.436 6     -2714.214 7     -2114.935 6 117298163.38207
  91401147.87706        46.750          40.750  
                  24514866.644 5                     -2876.918 5                
 100384250.99505                        32.000  
  22733411.283 7                     -2623.058 7                 119464883.97607
                        47.250                  
  20227770.864 8  20227773.091 8       898.007 8       699.742 8 106297638.52408
  82829336.70908        51.250          49.250  
  23397034.972 6  23397037.485 6      1890.763 6      1473.145 6 122952258.91606
  95806969.74906        41.500          39.000  
  24550545.967 6  24550546.674 5      3513.314 6      2737.792 5 129013982.70406
 100530374.73505        38.000          32.000  
  22969059.090 7  22969062.198 6     -3090.346 7     -2408.048 6 120703184.25207
  94054426.09406        45.750          41.750  
 16 02 18 00 02 51.0000000  0 11G02G06G12G13G15G17G19G24G25G29G32   
  22146962.665 7                      2735.127 7                 116383070.62207
                        45.750                  
  22651399.379 7  22651403.962 7       467.628 7       364.481 7 119033921.77807
  92753720.70407        44.000          42.250  
  21200789.262 8  21200788.140 7       662.049 8       515.815 7 111410899.23208
  86813688.35407        50.500          43.750  
  24308090.665 6                     -3584.598 6                 127739824.28306
                        38.250                  
  22321618.900 7  22321619.191 6     -2714.456 7     -2115.239 6 117300877.70007
  91403262.93506        46.500          40.750  
                  24515569.534 5                     -2877.152 5                
 100387127.75905                        31.500  
  22733910.540 7                     -2623.318 7                 119467507.21007
                        47.000                  
  20227599.986 8  20227602.249 8       897.591 8       699.410 8 106296740.72108
  82828637.12408        51.250          49.500  
  23396675.176 6  23396678.042 6      1890.546 6      1473.106 6 122950368.34506
  95805496.57106        41.750          39.000  
  24549877.692 6  24549878.086 5      3513.262 6      2737.567 5 129010469.30106
 100527637.02405        37.500          31.500  
  22969647.045 7  22969650.220 6     -3090.472 7     -2408.064 6 120706274.56107
  94056834.12306        45.750          41.750  
 16 02 18 00 02 52.0000000  0 11G02G06G12G13G15G17G19G24G25G29G32   
  22146442.289 7                      2734.827 7                 116380335.70507
                        46.000                  
  22651310.456 7  22651315.031 7       467.085 7       363.899 7 119033454.42707
  92753356.53507        43.750          42.000  
  21200663.328 8  21200662.358 7       661.927 8       515.801 7 111410237.27908
  86813172.54707        50.500          44.000  
  24308773.142 6                     -3584.441 6                 127743408.87006
                        38.500                  
  22322135.466 7  22322135.752 6     -2714.685 7     -2115.385 6 117303592.31507
  91405378.21406        46.500          41.000  
                  24516271.954 5                     -2876.932 5                
 100390004.60005                        31.750  
  22734409.627 7                     -2623.603 7                 119470130.72207
                        47.000                  
  20227429.201 8  20227431.406 8       897.140 8       699.013 8 106295843.39008
  82827937.90708        51.250          49.500  
  23396315.519 6  23396318.211 6      1890.409 6      1473.014 6 122948477.83706
  95804023.43606        41.750          39.500  
  24549209.118 6  24549209.574 5      3513.154 6      2737.078 5 129006956.06306
 100524899.48005        37.500          31.750  
  22970235.109 7  22970238.306 7     -3090.581 7     -2408.225 7 120709365.05907
  94059242.29907        45.750          42.000  
 16 02 18 00 02 53.0000000  0 11G02G06G12G13G15G17G19G24G25G29G32   
  22145921.939 7                      2734.448 7                 116377601.11207
                        46.000                  
  22651221.771 7  22651226.148 7       466.504 7       363.561 7 119032987.64507
  92752992.81207        43.750          42.250  
  21200537.358 8  21200536.352 7       661.778 8       515.663 7 111409575.47108
  86812656.85207        50.500          44.000  
  24309454.876 6                     -3584.598 6                 127746993.49706
                        37.750                  
  22322651.907 7  22322652.480 6     -2715.035 7     -2115.591 6 117306307.22507
  91407493.72806        46.250          40.750  
                  24516975.425 5                     -2876.788 5                
 100392881.46205                        32.000  
  22734908.767 7                     -2623.956 7                 119472754.51507
                        46.750                  
  20227258.578 8  20227260.702 8       896.586 8       698.617 8 106294946.55108
  82827239.07008        51.000          49.500  
  23395955.965 7  23395958.934 6      1890.411 7      1473.057 6 122946587.36907
  95802550.36506        42.000          39.750  
  24548540.261 6  24548540.646 5      3512.988 6      2737.771 5 129003442.95406
 100522161.94705        37.250          32.000  
  22970823.261 7  22970826.400 6     -3090.849 7     -2408.343 6 120712455.75807
  94061650.62306        45.500          41.750  
 16 02 18 00 02 54.0000000  0 11G02G06G12G13G15G17G19G24G25G29G32   
  22145401.492 7                      2734.042 7                 116374866.84607
                        46.000                  
  22651132.906 7  22651137.279 7       465.852 7       362.953 7 119032521.45207
  92752629.54607        43.750          42.500  
  21200411.428 8  21200410.601 7       661.583 8       515.604 7 111408913.79208
  86812141.25807        50.250          44.000  
  24310137.411 6                     -3584.748 6                 127750578.07906
                        37.750                  
  22323168.398 7  22323169.028 6     -2715.350 7     -2115.892 6 117309022.42207
  91409609.47106        46.000          40.750  
                  24517677.993 5                     -2877.069 5                
 100395758.37805                        31.750  
  22735408.019 7                     -2624.323 7                 119475378.57307
                        47.000                  
  20227088.057 8  20227090.225 8       896.110 8       698.252 8 106294050.19108
  82826540.61008        51.000          49.500  
  23395596.013 6  23395599.165 6      1890.329 6      1473.132 6 122944696.99406
  95801077.32306        41.500          39.500  
  24547871.807 6  24547872.362 5      3512.833 6      2737.634 5 128999929.99206
 100519424.58605        37.500          32.750  
  22971411.369 7  22971414.360 6     -3091.040 7     -2408.484 6 120715546.62507
  94064059.09306        46.000          41.750  
 16 02 18 00 02 55.0000000  0 11G02G06G12G13G15G17G19G24G25G29G32   
  22144881.196 7                      2733.801 7                 116372132.88007
                        46.000                  
  22651044.372 7  22651048.670 7       465.377 7       362.620 7 119032055.81907
  92752266.71307        43.500          42.250  
  21200285.538 8  21200284.908 7       661.506 8       515.477 7 111408252.23808
  86811625.75907        50.250          44.000  
  24310819.374 6                     -3584.450 6                 127754162.64706
                        37.000                  
  22323684.977 7  22323685.755 6     -2715.652 7     -2116.021 6 117311737.92407
  91411725.43006        46.250          41.000  
                  24518380.803 5                     -2877.160 5                
 100398635.40305                        31.500  
  22735907.450 7                     -2624.484 7                 119478002.88407
                        46.750                  
  20226917.536 8  20226919.696 8       895.632 8       697.944 8 106293154.29208
  82825842.50208        51.000          49.500  
  23395236.123 6  23395239.571 6      1890.231 6      1472.984 6 122942806.68106
  95799604.36206        41.500          39.750  
  24547202.835 6  24547203.979 5      3512.798 6      2736.979 5 128996417.14006
 100516687.30805        37.250          32.500  
  22971999.602 7  22972002.723 6     -3091.244 7     -2408.710 6 120718637.69207
  94066467.71306        45.750          41.750  
 16 02 18 00 02 56.0000000  0 11G02G06G12G13G15G17G19G24G25G29G32   
  22144361.008 7                      2733.541 7                 116369399.24207
                        45.750                  
  22650955.736 7  22650960.158 7       464.785 7       362.135 7 119031590.77107
  92751904.33307        43.250          42.500  
  21200159.631 8  21200158.974 7       661.319 8       515.407 7 111407590.82108
  86811110.36307        50.000          44.000  
  24311501.627 6                     -3584.744 6                 127757747.21306
                        36.750                  
  22324201.723 7  22324202.536 6     -2715.879 7     -2116.381 6 117314453.69407
  91413841.62206        46.250          40.750  
                  24519083.066 5                     -2877.180 5                
 100401512.42305                        31.750  
  22736406.783 7                     -2624.731 7                 119480627.46107
                        46.750                  
  20226747.149 8  20226749.282 8       895.168 8       697.493 8 106292258.86808
  82825144.77108        50.750          49.500  
  23394876.300 6  23394879.802 6      1890.175 6      1472.916 6 122940916.40606
  95798131.42306        41.250          40.000  
  24546534.421 6  24546535.244 5      3512.768 6      2737.190 5 128992904.43206
 100513950.13005        37.500          33.000  
  22972587.719 7  22972591.023 6     -3091.187 7     -2408.840 6 120721728.92107
  94068876.47906        46.000          41.750  
 16 02 18 00 02 57.0000000  0 11G02G06G12G13G15G17G19G24G25G29G32   
  22143840.784 7                      2733.112 7                 116366665.94107
                        45.750                  
  22650867.479 7  22650871.929 7       464.220 7       361.684 7 119031126.28607
  92751542.41607        43.500          42.500  
  21200033.773 8  21200032.977 7       661.218 8       515.212 7 111406929.54608
  86810595.09007        50.250          44.000  
  24312183.474 6                     -3584.450 6                 127761331.77806
                        36.500                  
  22324718.732 7  22324719.304 6     -2716.183 7     -2116.576 6 117317169.77707
  91415958.05206        46.000          40.750  
                  24519785.062 5                     -2877.562 5                
 100404389.50805                        31.500  
  22736906.272 7                     -2625.005 7                 119483252.30807
                        46.500                  
  20226576.870 8  20226578.931 8       894.689 8       697.184 8 106291363.93608
  82824447.42208        51.000          49.500  
  23394516.429 6  23394519.890 6      1890.161 6      1472.860 6 122939026.22806
  95796658.55606        41.000          39.250  
  24545866.016 6  24545867.174 5      3512.636 6      2736.743 5 128989391.87206
 100511213.06605        37.500          32.250  
  22973176.131 7  22973179.363 6     -3091.570 7     -2409.097 6 120724820.38107
  94071285.39506        45.750          41.750  
 16 02 18 00 02 58.0000000  0 11G02G06G12G13G15G17G19G24G25G29G32   
  22143320.658 7                      2732.838 7                 116363932.95207
                        45.500                  
  22650779.223 7  22650783.668 7       463.631 7       361.281 7 119030662.40707
  92751180.94407        43.250          42.500  
  21199907.932 8  21199907.239 7       661.083 8       515.169 7 111406268.41408
  86810079.91507        50.250          44.000  
  24312865.083 6                     -3584.584 6                 127764916.33506
                        36.250                  
  22325235.486 7  22325236.130 6     -2716.583 7     -2116.931 6 117319886.15407
  91418074.71506        46.000          40.750  
                  24520487.827 5                     -2877.133 5                
 100407266.69505                        31.750  
  22737405.819 7                     -2625.186 7                 119485877.42807
                        46.750                  
  20226406.680 8  20226408.795 8       894.190 8       696.749 8 106290469.48808
  82823750.45108        51.000          49.750  
  23394156.682 6  23394159.964 6      1890.059 6      1472.820 6 122937136.13306
  95795185.74706        41.250          39.750  
  24545198.014 6  24545198.770 5      3512.325 6      2737.105 5 128985879.44806
 100508476.10605        37.750          32.500  
  22973764.614 7  22973767.596 7     -3091.666 7     -2409.193 7 120727911.99807
  94073694.45607        45.750          42.000  
 16 02 18 00 02 59.0000000  0 11G02G06G12G13G15G17G19G24G25G29G32   
  22142800.595 7                      2732.498 7                 116361200.29907
                        45.500                  
  22650690.855 7  22650695.563 7       463.109 7       360.800 7 119030199.09007
  92750819.92207        43.000          42.500  
  21199782.168 8  21199781.309 7       660.963 8       515.075 7 111405607.40808
  86809564.84607        50.000          43.750  
  24313547.171 6                     -3584.600 6                 127768500.86206
                        37.250                  
  22325752.486 7  22325753.040 6     -2716.744 7     -2116.975 6 117322602.81507
  91420191.59106        46.000          41.000  
                  24521190.667 5                     -2877.341 5                
 100410143.86105                        31.500  
  22737905.443 7                     -2625.508 7                 119488502.82407
                        46.500                  
  20226236.557 8  20226238.641 8       893.791 8       696.466 8 106289575.49208
  82823053.82908        51.000          49.500  
  23393796.900 6  23393800.254 6      1890.092 6      1472.880 6 122935246.09606
  95793712.99006        41.250          40.000  
  24544529.676 6  24544530.383 5      3511.952 6      2736.838 5 128982367.17706
 100505739.26205        37.000          33.000  
  22974353.102 7  22974356.013 7     -3091.938 7     -2409.327 7 120731003.81507
  94076103.65907        45.750          42.250  
 16 02 18 00 03 00.0000000  0 11G02G06G12G13G15G17G19G24G25G29G32   
  22142280.585 7                      2732.071 7                 116358467.95907
                        45.500                  
  22650602.804 7  22650607.396 7       462.339 7       360.405 7 119029736.35707
  92750459.34107        43.250          42.500  
  21199656.448 8  21199655.384 7       660.733 8       514.833 7 111404946.54108
  86809049.88807        50.500          43.500  
  24314229.129 6                     -3584.533 6                 127772085.39206
                        36.500                  
  22326269.526 7  22326270.121 6     -2717.123 7     -2117.182 6 117325319.77507
  91422308.69806        46.000          41.250  
                  24521893.454 5                     -2877.059 5                
 100413021.10405                        30.750  
  22738405.070 7                     -2625.824 7                 119491128.49707
                        46.500                  
  20226066.537 8  20226068.732 8       893.210 8       696.065 8 106288681.97608
  82822357.58008        51.250          49.500  
  23393437.377 6  23393440.534 6      1889.888 6      1472.719 6 122933356.12406
  95792240.27706        41.500          39.500  
  24543861.330 6  24543862.153 5      3512.142 6      2736.674 5 128978855.01506
 100503002.56905        37.250          32.250  
  22974941.527 7  22974944.635 7     -3092.122 7     -2409.533 7 120734095.81807
  94078513.01907        45.750          42.000  
 16 02 18 00 03 01.0000000  0 11G02G06G12G13G15G17G19G24G25G29G32   
  22141760.487 7                      2731.819 7                 116355735.96507
                        45.500                  
  22650514.709 7  22650519.364 7       461.906 7       359.959 7 119029274.18507
  92750099.20607        43.500          42.250  
  21199530.693 8  21199529.758 7       660.722 8       514.896 7 111404285.79608
  86808535.01807        50.250          43.750  
  24314911.468 6                     -3584.474 6                 127775669.87706
                        36.750                  
  22326786.544 7  22326787.514 6     -2717.384 7     -2117.442 6 117328037.02007
  91424426.01006        46.000          41.250  
                  24522595.311 5                     -2877.010 5                
 100415898.38905                        31.000  
  22738904.837 7                     -2626.025 7                 119493754.43307
                        46.750                  
  20225896.570 8  20225898.735 8       892.899 8       695.710 8 106287788.90908
  82821661.68308        51.000          49.500  
  23393077.876 6  23393080.805 6      1889.718 6      1472.605 6 122931466.20806
  95790767.62406        41.750          39.500  
  24543193.274 6  24543193.131 5      3511.966 6      2736.818 5 128975342.99806
 100500265.93405        37.500          32.750  
  22975529.917 7  22975533.006 7     -3092.341 7     -2409.536 7 120737188.00307
  94080922.49207        45.750          42.250  
 16 02 18 00 03 02.0000000  0 11G02G06G12G13G15G17G19G24G25G29G32   
  22141240.687 7                      2731.449 7                 116353004.32007
                        45.500                  
  22650427.060 7  22650431.434 7       461.303 7       359.482 7 119028812.62907
  92749739.54307        43.500          42.500  
  21199405.031 8  21199403.833 7       660.503 8       514.714 7 111403625.21008
  86808020.27507        50.000          43.500  
  24315593.310 6                     -3584.382 6                 127779254.40906
                        36.000                  
  22327303.700 7  22327304.823 6     -2717.733 7     -2117.663 6 117330754.56307
  91426543.58906        46.000          41.500  
                  24523298.425 5                     -2877.212 5                
 100418775.81605                        31.250  
  22739404.675 7                     -2626.400 7                 119496380.66907
                        46.750                  
  20225726.635 8  20225728.777 8       892.299 8       695.354 8 106286896.37808
  82820966.20008        50.750          49.500  
  23392718.523 6  23392721.448 6      1889.899 6      1472.491 6 122929576.38806
  95789295.04606        41.750          40.000  
  24542524.918 6  24542525.960 5      3511.836 6      2736.449 5 128971831.15406
 100497529.41005        36.250          33.250  
  22976118.436 7  22976121.454 7     -3092.567 7     -2409.781 7 120740280.39807
  94083332.15707        45.750          42.000  
 16 02 18 00 03 03.0000000  0 11G02G06G12G13G15G17G19G24G25G29G32   
  22140720.964 7                      2731.188 7                 116350272.99507
                        45.500                  
  22650339.439 7  22650343.495 7       460.711 7       358.949 7 119028351.63307
  92749380.34707        43.250          42.250  
  21199279.414 8  21199278.019 7       660.390 8       514.624 7 111402964.74808
  86807505.63207        50.000          43.500  
  24316275.831 6                     -3584.485 6                 127782838.86806
                        36.500                  
  22327820.960 7  22327822.225 6     -2717.984 7     -2117.984 6 117333472.40207
  91428661.38906        46.000          41.250  
                  24524001.592 5                     -2877.533 5                
 100421653.23605                        31.000  
  22739904.446 7                     -2626.626 7                 119499007.16907
                        46.750                  
  20225556.897 8  20225559.066 8       891.855 8       694.987 8 106286004.30708
  82820271.08308        50.750          49.500  
  23392358.992 6  23392362.341 6      1889.539 6      1472.499 6 122927686.63506
  95787822.50806        41.750          40.250  
  24541855.995 6  24541857.801 5      3511.642 6      2736.110 5 128968319.44206
 100494793.01205        36.750          32.500  
  22976706.901 7  22976709.848 7     -3092.604 7     -2409.791 7 120743372.97307
  94085741.95107        45.750          42.000  
 16 02 18 00 03 04.0000000  0 11G02G06G12G13G15G17G19G24G25G29G32   
  22140201.415 7                      2730.710 7                 116347541.98907
                        45.750                  
  22650251.795 7  22650255.855 7       460.057 7       358.560 7 119027891.20807
  92749021.56707        43.250          42.000  
  21199153.789 8  21199152.277 7       660.140 8       514.464 7 111402304.41908
  86806991.09307        50.000          43.500  
  24316957.794 6                     -3584.711 6                 127786423.38306
                        36.250                  
  22328338.237 7  22328339.422 6     -2718.372 7     -2118.147 6 117336190.52807
  91430779.39806        46.000          41.000  
                  24524704.312 5                     -2877.285 5                
 100424530.69105                        30.750  
  22740404.284 7                     -2626.948 7                 119501633.93107
                        46.750                  
  20225387.199 8  20225389.372 8       891.329 8       694.601 8 106285112.70708
  82819576.32908        50.750          49.500  
  23391999.504 6  23392002.670 6      1889.408 6      1472.497 6 122925796.93906
  95786350.02106        41.750          39.500  
  24541187.787 6  24541189.249 5      3511.416 6      2736.200 5 128964807.85006
 100492056.69605        36.500          32.500  
  22977295.336 7  22977298.506 7     -3092.979 7     -2410.033 7 120746465.72707
  94088151.89407        46.000          42.000  
 16 02 18 00 03 05.0000000  0 11G02G06G12G13G15G17G19G24G25G29G32   
  22139681.920 7                      2730.509 7                 116344811.30007
                        45.750                  
  22650164.375 7  22650168.297 7       459.498 7       358.083 7 119027431.37007
  92748663.24607        43.250          42.250  
  21199028.158 8  21199026.768 7       660.180 8       514.381 7 111401644.21308
  86806476.64707        50.000          43.500  
  24317639.931 5                     -3584.397 5                 127790007.81605
                        35.750                  
  22328855.568 7  22328856.471 6     -2718.550 7     -2118.365 6 117338908.93907
  91432897.64306        46.000          41.000  
                  24525406.603 5                     -2877.428 5                
 100427408.23905                        30.500  
  22740904.189 7                     -2627.137 7                 119504260.97407
                        47.000                  
  20225217.626 8  20225219.835 8       890.888 8       694.215 8 106284221.57108
  82818881.94008        50.750          49.500  
  23391640.022 7  23391642.834 6      1889.577 7      1472.324 6 122923907.31507
  95784877.58806        42.750          39.750  
  24540519.561 6  24540520.285 5      3511.381 6      2735.726 5 128961296.41606
 100489320.51005        36.750          32.250  
  22977883.967 7  22977887.074 6     -3093.041 7     -2410.155 6 120749558.67407
  94090561.97406        46.000          41.750  
 16 02 18 00 03 06.0000000  0 11G02G06G12G13G15G17G19G24G25G29G32   
  22139162.290 7                      2730.182 7                 116342080.93807
                        45.750                  
  22650077.125 7  22650080.644 7       458.981 7       357.663 7 119026972.09407
  92748305.37507        43.500          42.000  
  21198902.492 8  21198901.289 7       659.950 8       514.312 7 111400984.16508
  86805962.32307        50.000          43.500  
  24318322.086 6                     -3584.380 6                 127793592.28406
                        36.500                  
  22329372.993 7  22329373.735 6     -2718.897 7     -2118.583 6 117341627.65207
  91435016.12006        46.000          41.000  
                  24526109.434 5                     -2877.250 5                
 100430285.80905                        31.000  
  22741404.206 7                     -2627.484 7                 119506888.29407
                        47.000                  
  20225048.214 8  20225050.267 8       890.362 8       693.812 8 106283330.92708
  82818187.93308        50.750          49.500  
  23391280.539 6  23391283.598 6      1889.520 6      1472.314 6 122922017.76406
  95783405.20706        41.750          39.750  
  24539851.420 6  24539852.453 5      3511.287 6      2736.047 5 128957785.08906
 100486584.43905        36.250          32.250  
  22978472.584 7  22978475.692 7     -3093.302 7     -2410.246 7 120752651.81907
  94092972.21107        46.000          42.000  
 16 02 18 00 03 07.0000000  0 11G02G06G12G13G15G17G19G24G25G29G32   
  22138642.625 7                      2729.821 7                 116339350.88407
                        45.500                  
  22649989.821 7  22649993.291 7       458.275 7       357.131 7 119026513.39707
  92747947.94907        43.500          42.000  
  21198776.849 8  21198775.632 7       659.852 8       514.180 7 111400324.22908
  86805448.08307        50.250          43.500  
  24319004.554 5                     -3584.443 5                 127797176.71305
                        35.750                  
  22329890.382 7  22329890.811 6     -2719.135 7     -2118.873 6 117344346.63707
  91437134.80606        45.750          40.750  
                  24526812.709 5                     -2877.669 5                
 100433163.45105                        31.250  
  22741904.218 7                     -2627.637 7                 119509515.85307
                        46.750                  
  20224878.825 8  20224880.824 8       889.933 8       693.503 8 106282440.72408
  82817494.26508        50.750          49.500  
  23390920.797 7  23390924.070 6      1889.460 7      1472.317 6 122920128.27307
  95781932.88306        42.250          40.000  
  24539183.624 6  24539183.843 5      3511.106 6      2736.130 5 128954273.90206
 100483848.44105        36.500          32.250  
  22979061.313 7  22979064.010 6     -3093.486 7     -2410.610 6 120755745.12707
  94095382.58906        46.000          41.750  
 16 02 18 00 03 08.0000000  0 11G02G06G12G13G15G17G19G24G25G29G32   
  22138123.300 7                      2729.633 7                 116336621.17407
                        45.750                  
  22649902.655 7  22649906.425 7       457.855 7       356.772 7 119026055.29407
  92747590.98907        43.750          42.250  
  21198651.294 8  21198650.092 7       659.771 8       514.102 7 111399664.45108
  86804933.97307        50.250          43.500  
  24319686.865 6                     -3584.371 6                 127800761.14006
                        36.500                  
  22330407.713 7  22330408.062 6     -2719.462 7     -2119.063 6 117347065.93407
  91439253.73606        46.000          40.750  
                  24527515.259 5                     -2877.669 5                
 100436041.19805                        31.250  
  22742404.293 7                     -2627.940 7                 119512143.72907
                        46.750                  
  20224709.587 8  20224711.514 8       889.511 8       693.105 8 106281551.02408
  82816800.99708        51.000          49.500  
  23390561.261 7  23390564.118 6      1889.437 7      1472.198 6 122918238.87607
  95780460.61306        42.250          40.500  
  24538515.545 6  24538514.986 5      3510.963 6      2735.864 5 128950762.88406
 100481112.56205        36.250          32.250  
  22979650.096 7  22979652.672 6     -3093.648 7     -2410.572 6 120758838.64907
  94097793.11606        46.000          41.750  
 16 02 18 00 03 09.0000000  0 11G02G06G12G13G15G17G19G24G25G29G32   
  22137603.863 7                      2729.258 7                 116333891.79507
                        45.750                  
  22649815.664 7  22649819.479 7       457.394 7       356.399 7 119025597.76807
  92747234.47807        43.750          42.250  
  21198525.789 8  21198524.435 7       659.667 8       513.940 7 111399004.80708
  86804419.97107        50.250          43.500  
  24320368.900 5                     -3584.296 5                 127804345.58205
                        35.750                  
  22330925.147 7  22330925.706 6     -2719.608 7     -2119.405 6 117349785.51707
  91441372.89706        45.750          40.750  
                  24528218.488 5                     -2877.606 5                
 100438918.92005                        31.000  
  22742904.453 7                     -2628.185 7                 119514771.87307
                        46.750                  
  20224540.377 8  20224542.326 8       889.066 8       692.695 8 106280661.80108
  82816108.09308        51.000          49.500  
  23390201.738 7  23390204.492 6      1889.349 7      1472.081 6 122916349.54107
  95778988.39306        42.250          40.250  
  24537846.966 5  24537847.096 5      3511.006 5      2735.656 5 128947251.99505
 100478376.83705        35.250          32.750  
  22980238.718 7  22980241.451 7     -3093.724 7     -2410.665 7 120761932.35607
  94100203.79507        46.000          42.000  
 16 02 18 00 03 10.0000000  0 11G02G06G12G13G15G17G19G24G25G29G32   
  22137084.484 7                      2728.896 7                 116331162.73007
                        45.500                  
  22649728.727 7  22649732.617 7       456.597 7       355.738 7 119025140.83807
  92746878.42407        43.750          42.500  
  21198400.302 8  21198399.198 7       659.413 8       513.880 7 111398345.30808
  86803906.06907        50.250          43.500  
  24321050.880 6                     -3584.366 6                 127807930.00206
                        36.750                  
  22331442.670 7  22331443.251 6     -2720.009 7     -2119.483 6 117352505.40907
  91443492.28206        45.750          40.750  
                  24528920.283 5                     -2877.622 5                
 100441796.72705                        30.750  
  22743404.559 7                     -2628.505 7                 119517400.29207
                        46.750                  
  20224371.242 8  20224373.272 8       888.462 8       692.302 8 106279773.06208
  82815415.57008        51.250          49.500  
  23389842.107 7  23389844.817 6      1889.179 7      1472.227 6 122914460.27007
  95777516.25006        42.000          40.250  
  24537178.566 5  24537178.615 5      3510.610 5      2735.849 5 128943741.25105
 100475641.16805        35.500          32.250  
  22980827.528 7  22980830.198 6     -3094.066 7     -2410.841 6 120765026.26707
  94102614.62006        46.000          41.750  
 16 02 18 00 03 11.0000000  0 11G02G06G12G13G15G17G19G24G25G29G32   
  22136565.168 7                      2728.517 7                 116328433.99107
                        45.500                  
  22649641.826 7  22649645.944 7       456.021 7       355.352 7 119024684.46407
  92746522.80507        43.750          42.500  
  21198274.775 8  21198273.617 7       659.246 8       513.801 7 111397685.93008
  86803392.25607        50.250          43.500  
  24321732.700 5                     -3584.659 5                 127811514.43105
                        35.750                  
  22331960.238 7  22331960.623 6     -2720.361 7     -2119.740 6 117355225.57307
  91445611.88706        45.750          40.750  
                  24529622.855 5                     -2877.780 5                
 100444674.61305                        31.250  
  22743904.768 7                     -2628.833 7                 119520028.98307
                        46.750                  
  20224202.215 8  20224204.227 8       887.922 8       691.922 8 106278884.79908
  82814723.41208        51.250          49.500  
  23389482.544 7  23389485.039 6      1889.127 7      1472.108 6 122912571.07207
  95776044.13606        42.000          39.500  
  24536510.192 5  24536511.176 5      3510.243 5      2735.463 5 128940230.65905
 100472905.64605        35.000          32.500  
  22981416.271 7  22981418.686 6     -3094.229 7     -2411.086 6 120768120.33007
  94105025.59506        46.000          41.750  
 16 02 18 00 03 12.0000000  0 11G02G06G12G13G15G17G19G24G25G29G32   
  22136045.932 7                      2728.196 7                 116325705.57807
                        45.750                  
  22649555.255 7  22649559.154 7       455.491 7       354.909 7 119024228.67107
  92746167.64407        44.000          42.250  
  21198149.350 8  21198148.326 7       659.065 8       513.678 7 111397026.69208
  86802878.57307        50.250          43.500  
  24322415.248 6                     -3584.296 6                 127815098.79506
                        36.500                  
  22332477.967 7  22332478.164 6     -2720.616 7     -2119.866 6 117357946.03907
  91447731.72606        46.000          40.500  
                  24530326.662 5                     -2877.749 5                
 100447552.51005                        32.000  
  22744405.013 7                     -2629.208 7                 119522657.94607
                        46.500                  
  20224033.312 8  20224035.307 8       887.495 8       691.611 8 106277997.02408
  82814031.64108        51.000          49.500  
  23389123.173 7  23389125.919 6      1889.071 7      1471.931 6 122910681.94807
  95774572.10006        42.000          39.750  
  24535842.691 6  24535843.120 5      3510.383 6      2735.339 5 128936720.18406
 100470170.21605        36.000          32.500  
  22982005.251 7  22982007.835 7     -3094.445 7     -2411.240 7 120771214.60007
  94107436.70407        46.250          42.000  
 16 02 18 00 03 13.0000000  0 11G02G06G12G13G15G17G19G24G25G29G32   
  22135526.821 7                      2727.924 7                 116322977.47807
                        45.750                  
  22649468.729 7  22649472.351 7       454.953 7       354.509 7 119023773.45407
  92745812.94307        43.750          42.250  
  21198023.975 8  21198022.875 7       659.036 8       513.584 7 111396367.58408
  86802364.98207        50.250          43.750  
  24323096.871 5                     -3584.347 5                 127818683.19805
                        35.500                  
  22332995.839 7  22332996.045 6     -2720.990 7     -2120.068 6 117360666.79907
  91449851.79006        46.000          40.500  
                  24531030.146 5                     -2877.748 5                
 100450430.47805                        31.750  
  22744905.357 7                     -2629.322 7                 119525287.16207
                        46.750                  
  20223864.459 8  20223866.373 8       887.070 8       691.247 8 106277109.70008
  82813340.21608        51.000          49.500  
  23388763.718 7  23388766.244 6      1888.923 7      1472.012 6 122908792.88007
  95773100.10506        42.000          40.000  
  24535174.756 6  24535175.221 5      3510.244 6      2735.272 5 128933209.86006
 100467434.89405        36.000          32.500  
  22982594.034 7  22982596.735 6     -3094.567 7     -2411.296 6 120774309.05107
  94109847.95706        46.000          41.750  
 16 02 18 00 03 14.0000000  0 11G02G06G12G13G15G17G19G24G25G29G32   
  22135007.795 7                      2727.547 7                 116320249.70807
                        45.750                  
  22649382.333 7  22649385.959 7       454.220 7       353.976 7 119023318.82907
  92745458.67107        44.000          42.250  
  21197898.591 8  21197897.473 7       658.862 8       513.386 7 111395708.61308
  86801851.50107        50.250          43.750  
  24323779.129 5                     -3584.506 5                 127822267.54205
                        35.500                  
  22333513.572 7  22333513.747 6     -2721.236 7     -2120.259 6 117363387.83307
  91451972.07606        45.750          40.500  
                  24531732.768 5                     -2878.135 5                
 100453308.49005                        31.500  
  22745405.709 7                     -2629.686 7                 119527916.67007
                        46.500                  
  20223695.759 8  20223697.570 8       886.572 8       690.836 8 106276222.85008
  82812649.16508        51.250          49.500  
  23388404.235 7  23388406.797 6      1888.948 7      1472.097 6 122906903.87707
  95771628.14406        42.000          40.000  
  24534507.008 5  24534507.930 5      3510.121 5      2735.062 5 128929699.67705
 100464699.67605        35.750          32.250  
  22983182.875 7  22983185.554 6     -3094.915 7     -2411.600 6 120777403.70007
  94112259.36806        46.000          41.750  
 16 02 18 00 03 15.0000000  0 11G02G06G12G13G15G17G19G24G25G29G32   
  22134488.949 7                      2727.215 7                 116317522.26307
                        45.750                  
  22649295.972 7  22649299.460 7       453.806 7       353.654 7 119022864.75307
  92745104.85407        44.250          42.500  
  21197773.171 8  21197772.218 7       658.681 8       513.280 7 111395049.77808
  86801338.12407        50.250          43.750  
  24324460.363 5                     -3584.466 5                 127825851.91205
                        35.500                  
  22334031.449 7  22334031.704 6     -2721.580 7     -2120.804 6 117366109.16507
  91454092.60306        45.750          40.750  
                  24532435.613 5                     -2878.538 5                
 100456186.59105                        31.250  
  22745906.155 7                     -2629.954 7                 119530546.44007
                        46.750                  
  20223527.125 8  20223528.972 8       886.006 8       690.424 8 106275336.48808
  82811958.49308        51.250          49.750  
  23388044.569 7  23388047.453 6      1888.955 7      1471.740 6 122905014.94707
  95770156.27106        42.000          39.750  
  24533838.939 5  24533839.596 5      3509.763 5      2735.040 5 128926189.63705
 100461964.58705        35.500          32.000  
  22983771.837 7  22983774.426 6     -3095.006 7     -2411.641 6 120780498.51807
  94114670.92106        46.000          41.750  
 16 02 18 00 03 16.0000000  0 11G02G06G12G13G15G17G19G24G25G29G32   
  22133970.097 7                      2726.943 7                 116314795.16407
                        45.750                  
  22649209.782 7  22649213.194 7       453.193 7       353.076 7 119022411.30107
  92744751.52207        44.500          42.500  
  21197647.737 8  21197646.932 7       658.656 8       513.147 7 111394391.09608
  86800824.86407        50.250          43.750  
  24325142.357 5                     -3584.385 5                 127829436.27105
                        35.250                  
  22334549.321 7  22334549.884 6     -2721.806 7     -2120.747 6 117368830.80207
  91456213.35106        45.750          40.750  
                  24533137.609 5                     -2878.173 5                
 100459064.68105                        30.500  
  22746406.699 7                     -2630.128 7                 119533176.50007
                        46.750                  
  20223358.504 8  20223360.521 8       885.618 8       690.090 8 106274450.62908
  82811268.21308        51.500          49.750  
  23387685.140 7  23387687.702 6      1888.680 7      1471.732 6 122903126.12007
  95768684.44306        42.000          39.500  
  24533170.525 5  24533171.509 5      3509.871 5      2734.837 5 128922679.72605
 100459229.61405        35.000          32.250  
  22984360.821 7  22984363.303 7     -3095.015 7     -2411.608 7 120783593.54407
  94117082.61507        46.000          42.000  
