     2.11           OBSERVATION DATA    G (GPS)             RINEX VERSION / TYPE
teqc  2015Nov6      NGS Web User        20160116 23:22:28UTCPGM / RUN BY / DATE
Solaris x86 5.10|AMD64|cc SC5.8 -xarch=amd64|=+|=+          COMMENT
teqc  2015Nov6      NOAA/NOS/NGS/CORS   20160116 10:44:02UTCCOMMENT
teqc  2015Nov6      UCB SEISMO LAB      20160116 01:38:02UTCCOMMENT
                                                            COMMENT
BARD Data:  Bay Area Regional Deformation Network           COMMENT
            Berkeley Seismological Laboratory               COMMENT
            202 McCone Hall                                 COMMENT
            University of California                        COMMENT
            Berkeley, CA 94720-4760 USA                     COMMENT
                                                            COMMENT
NCEDC Archive:         ftp://www.ncedc.org                  COMMENT
                      http://www.ncedc.org                  COMMENT
                                                            COMMENT
Questions:                 bard@seismo.berkeley.edu         COMMENT
                                                            COMMENT
Linux 2.4.21-27.ELsmp|Opteron|gcc -static|Linux x86_64|=+   COMMENT
BIT 2 OF LLI FLAGS DATA COLLECTED UNDER A/S CONDITION       COMMENT
 SNR is mapped to RINEX snr flag value [0-9]                COMMENT
  L1 & L2: min(max(int(snr_dBHz/6), 0), 9)                  COMMENT
teqc edited: all SBAS satellites excluded                   COMMENT
teqc edited: all Compass satellites excluded                COMMENT
teqc edited: all QZSS satellites excluded                   COMMENT
TIBB                                                        MARKER NAME
Ingrid Johanson     BSL                                     OBSERVER / AGENCY
618-00916           TPS NET-G3A         4.0 Dec,21,2012 p1  REC # / TYPE / VERS
CR519992107         ASH701945B_M    SCIT                    ANT # / TYPE
 -2704026.1340 -4253051.2450  3895879.3050                  APPROX POSITION XYZ
        0.0083        0.0000        0.0000                  ANTENNA: DELTA H/E/N
     1     1                                                WAVELENGTH FACT L1/2
     7    L1    L2    C1    P1    P2    S1    S2            # / TYPES OF OBSERV
     1.0000                                                 INTERVAL
teqc windowed: start @ 2016 Jan 15 00:00:00.000             COMMENT
teqc windowed:  end  @ 2016 Jan 15 01:00:00.000             COMMENT
teqc edited: all GLONASS satellites excluded                COMMENT
  2016     1    15     0     0    0.0000000     GPS         TIME OF FIRST OBS
                                                            END OF HEADER
 16  1 15  0  0  0.0000000  0  8G23G16G32G09G06G07G03G26
 108366448.066 8  84441403.31047  20621438.522                    20621431.8894
        51.400          42.5004
 111249945.514 8  86688272.33346  21170147.558                    21170142.5274
        49.700          38.6004
 125072191.968 7  97458855.48044  23800448.808                    23800447.0994
        42.100          25.0004
 115115615.669 8  89700491.31546  21905766.103                    21905763.9784
        48.200          37.4004
 126711080.740 6  98735911.83643  24112316.011                    24112317.2884
        38.900          23.9004
 121911997.547 7  94996371.03245  23199081.237                    23199077.8924
        45.700          31.4004
 111112751.529 8  86581367.45746  21144042.564                    21144041.2254
        49.900          40.8004
 118593180.976 7  92410295.03145  22567517.717                    22567516.7694
        44.100          32.3004
 16  1 15  0  0  1.0000000  0  8G23G16G32G09G06G07G03G26
 108365698.401 8  84440819.15747  20621295.932                    20621289.1844
        52.200          42.6004
 111249739.296 8  86688111.64546  21170108.305                    21170103.3714
        51.100          38.6004
 125075616.484 7  97461523.93344  23801100.419                    23801098.7154
        42.100          25.0004
 115113413.405 8  89698775.26846  21905347.208                    21905344.9094
        49.400          37.4004
 126711640.815 6  98736348.26043  24112422.907                    24112423.9114
        38.900          23.9004
 121909378.250 7  94994330.02445  23198582.968                    23198579.4544
        45.300          31.4004
 111115105.847 8  86583201.99146  21144490.613                    21144489.2774
        50.200          40.8004
 118594973.682 7  92411691.94345  22567858.755                    22567857.9644
        43.900          32.3004
 16  1 15  0  0  2.0000000  0  8G23G16G32G09G06G07G03G26
 108364949.009 8  84440235.21647  20621153.436                    20621146.6834
        51.900          42.3004
 111249533.827 8  86687951.54146  21170069.139                    21170064.2574
        51.400          38.6004
 125079041.160 7  97464192.51144  23801752.093                    23801750.3154
        42.600          25.0004
 115111211.313 8  89697059.35346  21904928.198                    21904925.9834
        49.700          37.4004
 126712201.439 6  98736785.10943  24112529.577                    24112530.6774
        38.900          23.9004
 121906759.197 7  94992289.20145  23198084.540                    23198081.0154
        45.100          31.4004
 111117460.666 8  86585036.91646  21144938.780                    21144937.4284
        50.100          40.8004
 118596766.947 7  92413089.29245  22568200.091                    22568199.2924
        44.800          32.3004
 16  1 15  0  0  3.0000000  0  8G23G16G32G09G06G07G03G26
 108364199.845 8  84439651.45047  20621010.779                    20621004.0914
        52.800          42.5004
 111249329.029 8  86687791.95846  21170030.111                    21170025.2284
        50.500          38.6004
 125082465.977 7  97466861.19844  23802403.722                    23802401.9284
        42.600          25.0004
 115109009.298 8  89695343.49946  21904509.149                    21904506.9594
        48.400          37.8004
 126712762.566 6  98737222.35143  24112636.744                    24112637.4634
        37.200          23.9004
 121904140.310 7  94990248.51045  23197586.142                    23197582.7674
        45.100          31.4004
 111119815.929 8  86586872.18346  21145387.055                    21145385.4764
        50.800          40.8004
 118598560.728 7  92414487.04545  22568541.378                    22568540.6084
        44.300          32.3004
 16  1 15  0  0  4.0000000  0  8G23G16G32G09G06G07G03G26
 108363450.976 8  84439067.91647  20620868.290                    20620861.6364
        52.000          42.6004
 111249124.977 8  86687632.95746  21169991.357                    21169986.4414
        49.900          38.6004
 125085890.920 6  97469529.98344  23803055.325                    23803053.7274
        41.500          25.0004
 115106807.451 8  89693627.77746  21904090.209                    21904087.9324
        48.400          37.8004
 126713324.274 6  98737660.04643  24112743.396                    24112744.3594
        37.200          23.9004
 121901521.682 7  94988208.02045  23197087.970                    23197084.3504
        45.600          31.4004
 111122171.708 8  86588707.85346  21145835.125                    21145833.8604
        50.100          41.1004
 118600355.067 7  92415885.23045  22568882.929                    22568882.1284
        44.300          32.3004
 16  1 15  0  0  5.0000000  0  8G23G16G32G09G06G07G03G26
 108362702.435 8  84438484.63747  20620725.803                    20620719.1564
        52.900          42.6004
 111248921.722 8  86687474.57746  21169953.038                    21169947.6924
        49.100          38.6004
 125089316.102 6  97472198.95244  23803707.420                    23803705.4244
        41.500          25.0004
 115104605.792 8  89691912.20246  21903671.239                    21903669.0064
        48.800          37.8004
 126713886.578 6  98738098.20743  24112850.330                    24112851.3314
        37.200          23.9004
 121898903.335 7  94986167.75245  23196589.723                    23196586.1974
        44.900          31.4004
 111124528.058 8  86590543.97046  21146283.600                    21146282.2614
        50.600          41.1004
 118602150.048 7  92417283.91645  22569224.276                    22569223.7134
        44.700          32.3004
 16  1 15  0  0  6.0000000  0  8G23G16G32G09G06G07G03G26
 108361954.103 8  84437901.52047  20620583.334                    20620576.7474
        52.900          42.3004
 111248719.142 8  86687316.72246  21169914.472                    21169909.2284
        49.500          38.6004
 125092741.350 6  97474867.97344  23804359.293                    23804357.0294
        41.500          25.0004
 115102404.228 8  89690196.69746  21903252.184                    21903250.0814
        48.200          37.8004
 126714449.348 6  98738536.72943  24112957.862                    24112958.4234
        37.200          23.9004
 121896285.157 7  94984127.61245  23196091.386                    23196087.9684
        45.800          31.4004
 111126884.825 8  86592380.41046  21146732.086                    21146730.7354
        51.500          41.2004
 118603945.549 7  92418683.00845  22569566.264                    22569565.2914
        44.700          32.3004
 16  1 15  0  0  7.0000000  0  8G23G16G32G09G06G07G03G26
 108361206.100 8  84437318.66147  20620441.156                    20620434.3544
        52.600          42.5004
 111248517.318 8  86687159.45746  21169875.754                    21169870.8004
        50.000          38.6004
 125096166.826 7  97477537.17244  23805010.982                    23805008.9434
        42.300          25.0004
 115100202.834 8  89688481.32846  21902833.198                    21902831.0944
        48.500          37.8004
 126715012.726 6  98738975.72543  24113064.471                    24113065.7084
        37.200          23.9004
 121893667.256 7  94982087.68945  23195592.948                    23195589.9374
        45.800          31.4004
 111129242.125 8  86594217.26746  21147180.611                    21147179.3734
        50.900          41.2004
 118605741.642 7  92420082.56145  22569907.857                    22569907.0804
        45.100          32.3004
 16  1 15  0  0  8.0000000  0  8G23G16G32G09G06G07G03G26
 108360458.335 8  84436735.98347  20620298.933                    20620292.1194
        53.600          42.4004
 111248316.208 8  86687002.74446  21169837.362                    21169832.4954
        49.100          38.5004
 125099592.409 7  97480206.45644  23805662.767                    23805660.7874
        42.300          25.0004
 115098001.568 8  89686766.05946  21902414.431                    21902412.2414
        48.100          37.8004
 126715576.618 6  98739415.12143  24113171.712                    24113173.0364
        37.200          23.3004
 121891049.549 7  94980047.91845  23195094.840                    23195091.8574
        44.200          31.0004
 111131599.912 8  86596054.50146  21147629.358                    21147628.0104
        50.300          41.5004
 118607538.263 7  92421482.52645  22570249.871                    22570248.9474
        45.800          32.3004
 16  1 15  0  0  9.0000000  0  8G23G16G32G09G06G07G03G26
 108359710.816 8  84436153.50247  20620156.762                    20620149.8354
        52.600          42.4004
 111248115.800 8  86686846.58546  21169799.263                    21169794.4064
        50.600          38.5004
 125103018.123 7  97482875.84144  23806314.891                    23806312.7364
        42.600          25.0004
 115095800.413 8  89685050.87546  21901995.442                    21901993.4714
        48.600          37.8004
 126716141.052 6  98739854.94343  24113279.081                    24113280.5694
        36.000          23.3004
 121888432.048 7  94978008.30945  23194596.876                    23194593.8164
        44.200          31.0004
 111133958.171 8  86597892.10646  21148078.035                    21148076.8024
        49.300          41.2004
 118609335.438 7  92422882.92345  22570591.872                    22570591.0174
        45.200          32.3004
 16  1 15  0  0 10.0000000  0  8G23G16G32G09G06G07G03G26
 108358963.594 8  84435571.25047  20620014.622                    20620007.6244
        51.900          42.6004
 111247916.139 8  86686691.00746  21169761.239                    21169756.3924
        51.200          38.5004
 125106444.015 7  97485545.36644  23806967.000                    23806964.5824
        42.600          25.0004
 115093599.422 8  89683335.81746  21901576.795                    21901574.5744
        48.700          38.0004
 126716706.040 6  98740295.19543  24113385.739                    24113388.1244
        36.000          23.3004
 121885814.797 7  94975968.89545  23194098.765                    23194095.6864
        44.800          31.0004
 111136316.922 8  86599730.09346  21148526.998                    21148525.6854
        50.000          41.2004
 118611133.178 7  92424283.76045  22570933.846                    22570933.1254
        45.200          32.3004
 16  1 15  0  0 11.0000000  0  8G23G16G32G09G06G07G03G26
 108358216.626 8  84434989.19647  20619872.275                    20619865.3994
        53.000          42.6004
 111247717.202 8  86686535.99146  21169723.155                    21169718.4784
        49.800          38.7004
 125109870.031 7  97488214.98944  23807618.961                    23807616.5294
        42.600          25.0004
 115091398.548 8  89681620.85146  21901158.081                    21901155.8374
        48.500          38.0004
 126717271.556 6  98740735.85943  24113494.096                    24113495.6444
        36.000          23.3004
 121883197.759 7  94973929.64245  23193600.528                    23193597.8294
        44.800          31.0004
 111138676.159 8  86601568.46046  21148975.908                    21148974.6604
        49.600          41.3004
 118612931.489 7  92425685.04245  22571276.296                    22571275.2934
        46.200          32.6004
 16  1 15  0  0 12.0000000  0  8G23G16G32G09G06G07G03G26
 108357469.988 8  84434407.39947  20619730.212                    20619723.4554
        52.600          42.5004
 111247519.028 8  86686381.57146  21169685.515                    21169680.7914
        50.100          38.7004
 125113296.259 7  97490884.77544  23808270.678                    23808268.4294
        42.200          25.0004
 115089197.882 8  89679906.04946  21900738.982                    21900737.0844
        48.900          38.0004
 126717837.670 6  98741176.99043  24113601.657                    24113603.4304
        36.000          23.3004
 121880580.982 7  94971890.59845  23193102.437                    23193099.8504
        44.300          31.0004
 111141035.956 8  86603407.26246  21149424.891                    21149423.7184
        50.200          41.3004
 118614730.406 7  92427086.79745  22571618.741                    22571617.6644
        47.000          32.6004
 16  1 15  0  0 13.0000000  0  8G23G16G32G09G06G07G03G26
 108356723.588 8  84433825.78947  20619588.046                    20619581.3084
        53.400          42.5004
 111247321.554 8  86686227.69646  21169648.043                    21169643.2644
        50.600          38.7004
 125116722.612 7  97493554.65844  23808922.397                    23808920.4414
        42.200          25.0004
 115086997.309 8  89678191.32146  21900320.523                    21900318.4064
        49.200          38.0004
 126718404.278 6  98741618.50443  24113709.391                    24113711.2094
        36.000          23.3004
 121877964.424 7  94969851.72245  23192604.876                    23192601.8684
        44.300          31.0004
 111143396.198 8  86605246.41046  21149874.063                    21149872.9164
        50.000          41.3004
 118616529.832 7  92428488.94745  22571961.209                    22571960.0784
        45.900          32.6004
 16  1 15  0  0 14.0000000  0  8G23G16G32G09G06G07G03G26
 108355977.517 8  84433244.43547  20619446.201                    20619439.2954
        52.100          42.5004
 111247124.879 8  86686074.44446  21169610.789                    21169605.8554
        50.600          38.5004
 125120149.172 7  97496224.70444  23809574.493                    23809572.3944
        42.000          25.0004
 115084796.947 8  89676476.75646  21899901.869                    21899899.6524
        49.100          38.2004
 126718971.513 6  98742060.50843  24113817.299                    24113819.1764
        36.000          23.3004
 121875348.153 7  94967813.07245  23192106.802                    23192103.9244
        44.700          31.0004
 111145756.993 8  86607085.99146  21150323.288                    21150322.0814
        49.200          41.3004
 118618329.882 7  92429891.58245  22572303.558                    22572302.6124
        45.400          32.6004
 16  1 15  0  0 15.0000000  0  8G23G16G32G09G06G07G03G26
 108355231.690 8  84432663.26847  20619304.274                    20619297.3914
        52.300          42.6004
 111246928.899 8  86685921.73646  21169573.637                    21169568.6424
        50.200          38.5004
 125123575.838 7  97498894.83044  23810226.750                    23810224.4704
        42.000          25.0004
 115082596.678 7  89674762.26046  21899482.860                    21899481.0214
        46.800          38.2004
 126719539.256 6  98742502.90643  24113926.212                    24113927.1794
        36.000          23.3004
 121872732.074 7  94965774.56945  23191609.135                    23191606.0574
        44.700          31.0004
 111148118.261 8  86608925.93946  21150772.875                    21150771.4674
        50.600          41.5004
 118620130.467 7  92431294.63745  22572646.271                    22572645.2414
        45.600          32.6004
 16  1 15  0  0 16.0000000  0  8G23G16G32G09G06G07G03G26
 108354486.087 8  84432082.27847  20619162.306                    20619155.5714
        51.300          42.5004
 111246733.591 8  86685769.54846  21169536.508                    21169531.4204
        48.000          38.5004
 125127002.597 7  97501565.02944  23810878.947                    23810876.5054
        42.000          25.0004
 115080396.513 8  89673047.84746  21899064.034                    21899062.3204
        48.100          38.2004
 126720107.489 6  98742945.68643  24114034.148                    24114035.3484
        36.000          23.3004
 121870116.174 7  94963736.20845  23191111.417                    23191108.2664
        44.900          31.0004
 111150479.958 8  86610766.22346  21151222.381                    21151220.9034
        50.000          41.4004
 118621931.554 7  92432698.08145  22572988.891                    22572987.8954
        45.500          32.6004
 16  1 15  0  0 17.0000000  0  8G23G16G32G09G06G07G03G26
 108353740.815 8  84431501.54847  20619020.423                    20619013.8144
        51.100          42.4004
 111246539.083 8  86685617.98546  21169499.572                    21169494.4834
        49.100          38.5004
 125130429.601 6  97504235.42144  23811530.992                    23811528.6454
        41.700          25.0004
 115078196.556 8  89671333.59946  21898645.587                    21898643.6814
        48.800          38.2004
 126720676.314 6  98743388.92843  24114142.367                    24114143.7514
        37.200          23.3004
 121867500.565 7  94961698.07145  23190613.567                    23190610.3494
        45.100          31.0004
 111152842.238 8  86612606.95946  21151671.973                    21151670.4164
        50.600          41.4004
 118623733.295 7  92434102.03545  22573331.752                    22573330.8604
        45.500          32.6004
 16  1 15  0  0 18.0000000  0  8G23G16G32G09G06G07G03G26
 108352995.761 8  84430920.98447  20618878.862                    20618871.9424
        53.200          42.4004
 111246345.243 8  86685466.94146  21169462.637                    21169457.5644
        50.800          38.9004
 125133856.682 6  97506905.87144  23812182.668                    23812180.8384
        41.700          25.0004
 115075996.677 8  89669619.41146  21898227.135                    21898225.1264
        49.900          38.2004
 126721245.643 6  98743832.56343  24114250.644                    24114252.0094
        37.200          23.3004
 121864885.125 7  94959660.06445  23190116.167                    23190112.6824
        44.700          31.0004
 111155204.918 8  86614448.00746  21152121.517                    21152119.9664
        50.000          41.2004
 118625535.506 7  92435506.35545  22573674.523                    22573673.8604
        45.000          32.6004
 16  1 15  0  0 19.0000000  0  8G23G16G32G09G06G07G03G26
 108352251.059 8  84430340.69847  20618737.062                    20618730.2834
        51.400          42.4004
 111246152.204 8  86685316.52046  21169425.974                    21169420.8044
        49.100          38.9004
 125137283.988 6  97509576.49844  23812834.786                    23812832.9494
        41.500          25.0004
 115073797.048 8  89667905.41846  21897808.338                    21897806.5424
        49.200          38.2004
 126721815.595 6  98744276.68143  24114359.418                    24114360.4104
        37.200          23.3004
 121862269.996 7  94957622.30345  23189618.792                    23189615.0114
        46.000          31.0004
 111157568.195 8  86616289.52346  21152571.490                    21152569.7084
        49.100          41.2004
 118627338.360 7  92436911.17645  22574017.588                    22574016.9744
        44.000          32.6004
 16  1 15  0  0 20.0000000  0  8G23G16G32G09G06G07G03G26
 108351506.653 8  84429760.63947  20618595.366                    20618588.6364
        52.900          42.4004
 111245959.925 8  86685166.69246  21169389.303                    21169384.1234
        50.800          38.9004
 125140711.481 6  97512247.26944  23813487.003                    23813485.1884
        41.500          25.0004
 115071597.545 8  89666191.52246  21897389.703                    21897388.0774
        48.100          38.2004
 126722386.130 6  98744721.25643  24114467.885                    24114469.1034
        37.200          23.3004
 121859655.113 7  94955584.73445  23189120.742                    23189117.3904
        45.500          31.0004
 111159931.972 8  86618131.42646  21153021.138                    21153019.4434
        50.500          41.3004
 118629141.829 7  92438316.47845  22574360.811                    22574360.0594
        45.300          32.6004
 16  1 15  0  0 21.0000000  0  8G23G16G32G09G06G07G03G26
 108350762.509 8  84429180.78547  20618453.804                    20618447.0374
        51.800          42.7004
 111245768.361 8  86685017.42046  21169352.756                    21169347.6694
        50.600          38.7004
 125144139.106 6  97514918.14444  23814139.504                    23814137.5644
        41.500          25.0004
 115069398.170 8  89664477.72446  21896970.983                    21896969.5524
        48.600          38.1004
 126722957.169 6  98745166.22343  24114576.906                    24114577.8164
        37.200          23.3004
 121857040.442 7  94953547.32945  23188623.156                    23188619.7914
        45.500          31.0004
 111162296.236 8  86619973.71046  21153471.149                    21153469.4074
        50.500          41.3004
 118630945.821 7  92439722.18645  22574704.238                    22574703.4344
        45.800          32.6004
 16  1 15  0  0 22.0000000  0  8G23G16G32G09G06G07G03G26
 108350018.744 8  84428601.22847  20618312.235                    20618305.4474
        51.800          42.7004
 111245577.618 8  86684868.78946  21169316.290                    21169311.3734
        49.200          38.7004
 125147566.977 6  97517589.21144  23814791.304                    23814789.8454
        41.400          25.0004
 115067199.056 8  89662764.13146  21896552.629                    21896551.0904
        48.200          38.1004
 126723528.871 6  98745611.70543  24114685.466                    24114686.6114
        37.200          23.3004
 121854426.108 7  94951510.18645  23188125.529                    23188122.2774
        45.700          31.0004
 111164661.093 8  86621816.45346  21153921.127                    21153919.3534
        50.000          41.0004
 118632750.483 7  92441128.41445  22575047.610                    22575046.8464
        45.700          32.6004
 16  1 15  0  0 23.0000000  0  8G23G16G32G09G06G07G03G26
 108349275.097 8  84428021.76447  20618170.735                    20618163.9304
        52.000          42.1004
 111245387.459 8  86684720.61446  21169280.209                    21169275.1344
        49.400          38.7004
 125150994.850 6  97520260.28044  23815443.825                    23815442.1644
        41.400          25.0004
 115064999.918 7  89661050.52046  21896134.156                    21896132.5094
        47.800          38.1004
 126724100.957 6  98746057.48843  24114794.251                    24114795.4524
        37.400          23.3004
 121851811.845 7  94949473.09945  23187628.098                    23187624.8084
        44.500          31.0004
 111167026.295 8  86623659.46746  21154371.206                    21154369.4824
        51.800          41.0004
 118634555.555 7  92442534.96445  22575390.999                    22575390.2764
        45.700          32.5004
 16  1 15  0  0 24.0000000  0  8G23G16G32G09G06G07G03G26
 108348531.773 8  84427442.55047  20618029.157                    20618022.4674
        52.200          42.5004
 111245198.077 8  86684573.04446  21169244.312                    21169239.1084
        51.300          38.7004
 125154422.888 6  97522931.47344  23816095.922                    23816094.3934
        41.400          25.0004
 115062800.967 8  89659337.05546  21895715.812                    21895714.0844
        48.000          38.1004
 126724673.635 6  98746503.73143  24114903.437                    24114904.3834
        37.400          23.3004
 121849197.863 7  94947436.23045  23187130.491                    23187127.4144
        45.600          31.0004
 111169392.043 8  86625502.91046  21154821.320                    21154819.6464
        51.100          41.3004
 118636361.223 7  92443941.98045  22575734.714                    22575733.9744
        45.200          32.5004
 16  1 15  0  0 25.0000000  0  8G23G16G32G09G06G07G03G26
 108347788.719 8  84426863.54647  20617887.590                    20617881.0724
        51.300          42.5004
 111245009.406 8  86684426.02946  21169208.465                    21169203.1864
        51.500          38.6004
 125157851.107 6  97525602.81044  23816748.738                    23816746.8574
        41.600          25.0004
 115060602.181 8  89657623.71846  21895297.423                    21895295.7204
        48.400          38.1004
 126725246.870 6  98746950.40843  24115012.668                    24115013.3554
        37.400          23.3004
 121846584.096 7  94945399.52845  23186633.083                    23186630.1514
        44.300          30.9004
 111171758.280 8  86627346.73046  21155271.550                    21155269.8734
        51.500          41.3004
 118638167.452 7  92445349.43245  22576078.730                    22576077.6214
        46.100          32.5004
 16  1 15  0  0 26.0000000  0  8G23G16G32G09G06G07G03G26
 108347045.991 8  84426284.79847  20617746.301                    20617739.8234
        51.700          42.4004
 111244821.520 8  86684279.62446  21169172.717                    21169167.4384
        51.400          38.6004
 125161279.539 6  97528274.31344  23817400.604                    23817399.3044
        41.600          25.0004
 115058403.566 8  89655910.51546  21894879.000                    21894877.3784
        48.300          38.1004
 126725820.669 6  98747397.52543  24115122.099                    24115122.5694
        37.400          23.3004
 121843970.608 7  94943363.04445  23186135.770                    23186132.7704
        45.200          30.9004
 111174125.048 8  86629190.96446  21155722.005                    21155720.3244
        50.200          41.3004
 118639974.319 7  92446757.38045  22576422.212                    22576421.5044
        45.700          32.5004
 16  1 15  0  0 27.0000000  0  8G23G16G32G09G06G07G03G26
 108346303.470 8  84425706.20947  20617604.907                    20617598.5864
        52.200          42.4004
 111244634.294 8  86684133.73546  21169136.977                    21169131.8114
        50.900          38.6004
 125164708.045 6  97530945.87344  23818053.424                    23818051.8024
        41.600          25.0004
 115056205.040 8  89654197.37946  21894460.666                    21894459.0274
        49.700          38.1004
 126726394.988 6  98747845.04743  24115231.526                    24115231.8084
        37.400          23.3004
 121841357.296 7  94941326.69845  23185638.722                    23185635.5644
        45.200          30.9004
 111176492.244 8  86631035.53346  21156172.388                    21156170.6824
        50.300          41.5004
 118641781.654 7  92448165.69345  22576766.138                    22576765.4544
        45.700          32.5004
 16  1 15  0  0 28.0000000  0  8G23G16G32G09G06G07G03G26
 108345561.279 8  84425127.87847  20617463.898                    20617457.3194
        52.200          42.5004
 111244447.858 8  86683988.45946  21169101.719                    21169096.3704
        50.900          38.5004
 125168136.746 6  97533617.58744  23818705.452                    23818704.2594
        41.700          25.0004
 115054006.697 8  89652484.38846  21894042.444                    21894040.7274
        49.000          38.1004
 126726969.867 6  98748293.00543  24115340.636                    24115341.3224
        37.400          23.3004
 121838744.270 7  94939290.57545  23185141.285                    23185138.3164
        45.100          30.9004
 111178859.994 8  86632880.53246  21156623.077                    21156621.3434
        51.900          41.5004
 118643589.613 7  92449574.49145  22577110.053                    22577109.6074
        45.700          32.5004
 16  1 15  0  0 29.0000000  0  8G23G16G32G09G06G07G03G26
 108344819.316 8  84424549.72547  20617322.635                    20617315.9474
        51.000          42.3004
 111244262.112 8  86683843.72446  21169066.197                    21169061.1004
        50.900          38.5004
 125171565.563 6  97536289.39044  23819358.275                    23819356.6804
        41.700          25.0004
 115051808.456 8  89650771.47646  21893624.212                    21893622.3104
        49.800          38.1004
 126727545.286 6  98748741.38543  24115449.421                    24115450.7234
        38.700          23.3004
 121836131.428 7  94937254.59445  23184643.921                    23184641.2084
        44.600          30.9004
 111181228.203 8  86634725.89046  21157073.794                    21157071.9054
        50.300          41.3004
 118645398.093 7  92450983.69745  22577454.559                    22577453.6504
        45.700          32.5004
 16  1 15  0  0 30.0000000  0  8G23G16G32G09G06G07G03G26
 108344077.668 8  84423971.81847  20617181.626                    20617174.8864
        50.900          42.7004
 111244077.139 8  86683699.59046  21169030.836                    21169025.8704
        51.100          38.5004
 125174994.590 6  97538961.35844  23820011.218                    23820009.1864
        41.700          25.0004
 115049610.411 8  89649058.71646  21893205.912                    21893204.0544
        49.500          38.1004
 126728121.262 6  98749190.19743  24115559.128                    24115560.3034
        38.700          23.3004
 121833518.867 7  94935218.83145  23184146.864                    23184144.0954
        43.700          30.9004
 111183596.938 8  86636571.66046  21157524.481                    21157522.7614
        50.700          41.3004
 118647207.180 7  92452393.37145  22577798.617                    22577797.8954
        45.900          32.5004
 16  1 15  0  0 31.0000000  0  8G23G16G32G09G06G07G03G26
 108343336.283 8  84423394.11547  20617040.412                    20617033.8274
        51.500          42.7004
 111243892.864 8  86683556.00046  21168995.955                    21168990.8204
        50.500          38.7004
 125178423.737 6  97541633.41644  23820663.683                    23820661.7564
        41.500          25.0004
 115047412.487 8  89647346.05046  21892787.771                    21892785.7624
        49.000          38.1004
 126728697.769 6  98749639.42543  24115669.087                    24115669.9244
        38.700          23.3004
 121830906.512 7  94933183.23045  23183650.033                    23183646.9854
        45.600          30.9004
 111185966.139 8  86638417.79146  21157975.367                    21157973.6184
        50.000          41.2004
 118649016.794 7  92453803.45945  22578142.861                    22578142.3094
        45.400          32.5004
 16  1 15  0  0 32.0000000  0  8G23G16G32G09G06G07G03G26
 108342595.160 8  84422816.61647  20616899.389                    20616892.6794
        52.700          42.8004
 111243709.323 8  86683412.98046  21168960.861                    21168955.8404
        51.000          38.7004
 125181853.017 6  97544305.57944  23821316.004                    23821314.3874
        41.500          24.4004
 115045214.698 8  89645633.48846  21892369.652                    21892367.5674
        49.600          38.1004
 126729274.818 6  98750089.07543  24115778.897                    24115779.7284
        38.700          23.3004
 121828294.367 7  94931147.78945  23183152.865                    23183149.9444
        45.600          30.9004
 111188335.842 8  86640264.30946  21158426.109                    21158424.4674
        50.800          41.2004
 118650826.966 7  92455213.98345  22578487.104                    22578486.7994
        45.100          32.5004
 16  1 15  0  0 33.0000000  0  8G23G16G32G09G06G07G03G26
 108341854.359 8  84422239.36747  20616758.547                    20616751.7364
        51.700          42.5004
 111243526.584 8  86683270.58646  21168926.119                    21168921.0734
        50.400          38.7004
 125185282.486 6  97546977.89044  23821968.807                    23821966.9524
        41.500          24.4004
 115043017.077 8  89643921.05746  21891951.628                    21891949.3674
        48.000          38.2004
 126729852.469 6  98750539.19243  24115888.936                    24115889.6684
        38.700          23.3004
 121825682.500 7  94929112.56645  23182655.620                    23182652.8914
        46.200          30.9004
 111190706.083 8  86642111.25046  21158877.198                    21158875.4894
        50.700          41.2004
 118652637.764 7  92456624.99445  22578831.911                    22578831.2364
        45.500          32.5004
 16  1 15  0  0 34.0000000  0  8G23G16G32G09G06G07G03G26
 108341113.787 8  84421662.29747  20616617.484                    20616610.8494
        52.200          42.3004
 111243344.519 8  86683128.71846  21168891.425                    21168886.4184
        50.000          38.7004
 125188712.058 6  97549650.28244  23822621.380                    23822619.6564
        41.800          24.4004
 115040819.582 7  89642208.72346  21891533.413                    21891531.2104
        47.900          38.2004
 126730430.623 6  98750989.70343  24115998.851                    24115999.6194
        38.700          23.3004
 121823070.825 7  94927077.49245  23182158.830                    23182155.8404
        46.000          30.9004
 111193076.762 8  86643958.53146  21159328.381                    21159326.6854
        50.300          41.4004
 118654449.040 7  92458036.37845  22579176.360                    22579176.0034
        44.800          32.5004
 16  1 15  0  0 35.0000000  0  8G23G16G32G09G06G07G03G26
 108340373.494 8  84421085.44447  20616476.796                    20616469.9304
        51.500          42.6004
 111243163.197 8  86682987.42946  21168856.910                    21168851.8864
        50.200          38.7004
 125192141.813 6  97552322.81644  23823273.887                    23823272.2874
        41.800          24.4004
 115038622.213 8  89640496.48946  21891115.006                    21891113.1464
        49.600          38.2004
 126731009.319 6  98751440.63643  24116108.885                    24116109.6694
        37.900          23.3004
 121820459.381 7  94925042.60045  23181661.683                    23181658.9074
        45.000          30.9004
 111195447.934 8  86645806.19646  21159779.459                    21159777.8694
        49.500          41.4004
 118656260.922 7  92459448.23645  22579521.307                    22579520.8074
        44.800          32.5004
 16  1 15  0  0 36.0000000  0  8G23G16G32G09G06G07G03G26
 108339633.454 8  84420508.78947  20616335.855                    20616329.1914
        51.300          42.6004
 111242982.574 8  86682846.68346  21168822.444                    21168817.5044
        48.100          38.7004
 125195571.678 6  97554995.43644  23823926.795                    23823925.0084
        41.800          24.4004
 115036425.001 7  89638784.37846  21890697.019                    21890695.0354
        47.900          38.1004
 126731588.543 6  98751891.97843  24116219.111                    24116219.8584
        37.900          23.3004
 121817848.140 7  94923007.86745  23181164.984                    23181162.0044
        45.500          30.9004
 111197819.594 8  86647654.24546  21160230.836                    21160229.1394
        50.900          40.9004
 118658073.316 7  92460860.48945  22579865.848                    22579865.6424
        45.700          32.4004
 16  1 15  0  0 37.0000000  0  8G23G16G32G09G06G07G03G26
 108338893.805 8  84419932.44047  20616195.038                    20616188.4864
        52.400          42.4004
 111242802.789 8  86682706.59346  21168788.489                    21168783.2824
        50.200          38.7004
 125199001.803 6  97557668.25744  23824579.664                    23824577.7464
        41.300          24.4004
 115034228.024 8  89637072.45146  21890278.843                    21890277.0024
        49.400          38.1004
 126732168.414 6  98752343.82543  24116329.499                    24116330.2864
        37.900          23.3004
 121815237.240 7  94920973.40045  23180668.328                    23180665.0894
        45.500          30.9004
 111200191.850 8  86649502.75646  21160682.147                    21160680.5434
        50.600          40.9004
 118659886.377 7  92462273.26345  22580210.778                    22580210.6984
        44.900          32.4004
 16  1 15  0  0 38.0000000  0  8G23G16G32G09G06G07G03G26
 108338154.471 8  84419356.33547  20616054.397                    20616047.7774
        52.500          42.5004
 111242623.791 8  86682567.11446  21168754.339                    21168749.1834
        51.400          38.7004
 125202432.131 6  97560341.23544  23825232.225                    23825230.5754
        41.300          24.4004
 115032031.218 8  89635360.65546  21889860.752                    21889858.8584
        49.000          38.1004
 126732748.907 6  98752796.15843  24116440.039                    24116440.7514
        37.900          23.3004
 121812626.613 7  94918939.14645  23180171.526                    23180168.2774
        45.000          30.9004
 111202564.644 8  86651351.68746  21161133.452                    21161131.9844
        50.500          41.1004
 118661700.104 7  92463686.55645  22580556.149                    22580555.8434
        44.800          32.4004
 16  1 15  0  0 39.0000000  0  8G23G16G32G09G06G07G03G26
 108337415.346 8  84418780.39347  20615913.547                    20615907.0694
        51.900          42.6004
 111242445.445 8  86682428.14446  21168720.474                    21168715.3144
        51.100          38.7004
 125205862.538 6  97563014.27644  23825884.717                    23825883.3574
        41.300          24.4004
 115029834.510 8  89633648.93646  21889442.730                    21889440.8314
        49.100          38.1004
 126733329.830 6  98753248.82443  24116550.580                    24116551.3134
        37.900          23.3004
 121810016.145 7  94916905.01345  23179674.830                    23179671.5444
        45.800          31.4004
 111204937.868 8  86653200.95346  21161585.122                    21161583.6634
        50.100          41.1004
 118663514.265 7  92465100.18845  22580901.433                    22580901.1254
        44.800          32.4004
 16  1 15  0  0 40.0000000  0  8G23G16G32G09G06G07G03G26
 108336676.472 8  84418204.64847  20615773.041                    20615766.4694
        52.300          42.6004
 111242267.812 8  86682289.73046  21168686.708                    21168681.4624
        50.300          38.7004
 125209293.090 6  97565687.43144  23826537.829                    23826536.1334
        40.900          24.4004
 115027637.915 8  89631937.30446  21889024.729                    21889022.8424
        49.200          38.1004
 126733911.298 6  98753701.91443  24116661.112                    24116661.9964
        37.900          23.3004
 121807405.899 7  94914871.05545  23179178.339                    23179174.8634
        45.100          31.4004
 111207311.563 8  86655050.58546  21162036.792                    21162035.4384
        50.200          41.3004
 118665328.986 7  92466514.25645  22581246.752                    22581246.4894
        45.500          32.4004
 16  1 15  0  0 41.0000000  0  8G23G16G32G09G06G07G03G26
 108335937.803 8  84417629.06147  20615632.379                    20615625.9624
        51.500          42.5004
 111242090.825 8  86682151.82046  21168652.998                    21168647.7654
        50.000          38.5004
 125212723.713 6  97568360.63844  23827190.436                    23827188.9074
        40.900          24.4004
 115025441.389 8  89630225.72646  21888606.714                    21888604.7774
        49.400          38.1004
 126734493.230 6  98754155.36443  24116772.082                    24116772.7434
        37.700          23.3004
 121804795.786 7  94912837.20245  23178681.602                    23178678.2154
        45.500          31.4004
 111209685.675 8  86656900.54246  21162488.612                    21162487.2704
        50.400          41.3004
 118667144.191 7  92467928.70045  22581592.277                    22581591.9294
        45.400          32.4004
 16  1 15  0  0 42.0000000  0  8G23G16G32G09G06G07G03G26
 108335199.494 8  84417053.75647  20615492.018                    20615485.4814
        52.800          42.5004
 111241914.653 8  86682014.54446  21168619.429                    21168614.2274
        49.600          38.5004
 125216154.571 6  97571034.03344  23827843.577                    23827841.9124
        40.900          24.4004
 115023245.100 8  89628514.33546  21888188.751                    21888186.8874
        48.700          38.1004
 126735075.822 6  98754609.33243  24116882.948                    24116883.6444
        37.700          23.3004
 121802186.003 7  94910803.60745  23178184.990                    23178181.6844
        45.700          31.4004
 111212060.353 8  86658750.93946  21162940.387                    21162939.1524
        50.500          41.2004
 118668960.027 7  92469343.63845  22581937.718                    22581937.4434
        45.200          32.4004
 16  1 15  0  0 43.0000000  0  8G23G16G32G09G06G07G03G26
 108334461.451 8  84416478.65647  20615351.562                    20615345.0114
        52.100          42.6004
 111241739.212 8  86681877.83546  21168586.116                    21168580.8514
        49.900          38.5004
 125219585.578 6  97573707.54244  23828496.467                    23828494.7544
        41.500          24.4004
 115021048.933 8  89626803.03846  21887770.720                    21887768.9804
        48.600          38.3004
 126735658.895 6  98755063.67343  24116994.088                    24116994.6544
        37.700          23.3004
 121799576.437 7  94908770.17945  23177688.425                    23177685.0704
        45.600          31.4004
 111214435.527 8  86660601.72646  21163392.356                    21163391.0634
        49.800          41.2004
 118670776.426 7  92470759.01145  22582283.212                    22582283.1884
        45.200          32.4004
 16  1 15  0  0 44.0000000  0  8G23G16G32G09G06G07G03G26
 108333723.710 8  84415903.79447  20615211.097                    20615204.6464
        52.700          42.6004
 111241564.513 8  86681741.70646  21168552.850                    21168547.7194
        49.200          38.5004
 125223016.715 6  97576381.15244  23829148.942                    23829147.5724
        41.500          24.4004
 115018852.940 8  89625091.87546  21887352.848                    21887351.0044
        49.000          38.3004
 126736242.578 6  98755518.48943  24117105.032                    24117105.7804
        37.700          23.3004
 121796967.116 7  94906736.94245  23177191.759                    23177188.6154
        45.600          31.4004
 111216811.220 8  86662452.91346  21163844.649                    21163843.1294
        49.800          40.9004
 118672593.413 7  92472174.84545  22582629.044                    22582628.8704
        44.700          32.4004
 16  1 15  0  0 45.0000000  0  8G23G16G32G09G06G07G03G26
 108332986.315 8  84415329.19947  20615070.822                    20615064.3584
        52.000          42.5004
 111241390.610 8  86681606.19846  21168519.682                    21168514.6824
        49.200          38.7004
 125226448.110 6  97579054.96644  23829802.172                    23829800.3734
        41.700          24.4004
 115016657.155 7  89623380.87646  21886935.033                    21886933.1734
        47.800          38.3004
 126736826.860 6  98755973.77243  24117216.469                    24117216.9614
        37.700          23.3004
 121794358.088 7  94904703.93645  23176695.674                    23176692.1314
        46.300          31.4004
 111219187.456 8  86664304.52346  21164296.573                    21164295.3604
        50.500          41.1004
 118674411.014 7  92473591.15845  22582975.079                    22582974.7094
        45.300          32.4004
 16  1 15  0  0 46.0000000  0  8G23G16G32G09G06G07G03G26
 108332249.104 8  84414754.74847  20614930.702                    20614924.0094
        52.000          42.3004
 111241217.368 8  86681471.20546  21168486.682                    21168481.5704
        50.300          38.7004
 125229879.563 6  97581728.82344  23830454.953                    23830453.2994
        41.700          24.4004
 115014461.428 8  89621669.92146  21886517.290                    21886515.2994
        48.400          38.3004
 126737411.595 6  98756429.41043  24117327.517                    24117328.0454
        38.600          23.3004
 121791749.225 7  94902671.05645  23176199.086                    23176195.6754
        46.500          31.4004
 111221564.125 8  86666156.47446  21164749.004                    21164747.5334
        50.400          41.1004
 118676229.117 7  92475007.86245  22583320.847                    22583320.7204
        45.800          32.4004
 16  1 15  0  0 47.0000000  0  8G23G16G32G09G06G07G03G26
 108331512.200 8  84414180.53747  20614790.533                    20614783.7534
        52.300          42.3004
 111241044.873 8  86681336.79346  21168453.965                    21168448.8514
        50.500          38.7004
 125233311.183 6  97584402.81144  23831108.549                    23831106.3134
        41.700          24.4004
 115012265.876 8  89619959.10546  21886099.432                    21886097.5544
        49.000          38.6004
 126737996.898 6  98756885.49243  24117439.000                    24117439.3654
        38.600          23.3004
 121789140.618 7  94900638.37545  23175702.697                    23175699.2754
        46.600          31.4004
 111223941.300 8  86668008.81646  21165201.267                    21165199.9374
        50.200          40.8004
 118678047.780 7  92476425.00345  22583667.085                    22583666.8194
        45.400          32.4004
 16  1 15  0  0 48.0000000  0  8G23G16G32G09G06G07G03G26
 108330775.558 8  84413606.52947  20614650.378                    20614643.6034
        51.400          42.4004
 111240873.104 8  86681202.95046  21168421.292                    21168416.0564
        50.500          38.5004
 125236742.966 6  97587076.92544  23831761.358                    23831759.3364
        41.700          24.4004
 115010070.447 8  89618248.38246  21885681.699                    21885679.7814
        49.800          38.6004
 126738582.752 6  98757342.00443  24117550.469                    24117550.8894
        38.600          23.3004
 121786532.215 7  94898605.85545  23175206.578                    23175202.8334
        46.200          31.4004
 111226318.964 8  86669861.54046  21165653.491                    21165652.3694
        51.300          40.8004
 118679867.023 7  92477842.59445  22584013.251                    22584013.1314
        45.400          32.4004
 16  1 15  0  0 49.0000000  0  8G23G16G32G09G06G07G03G26
 108330039.147 8  84413032.70147  20614510.159                    20614503.5274
        49.800          42.4004
 111240702.024 8  86681069.64046  21168388.741                    21168383.3994
        50.100          38.5004
 125240174.845 6  97589751.11544  23832414.781                    23832412.4704
        41.700          24.4004
 115007875.143 8  89616537.76046  21885263.877                    21885262.0604
        49.100          38.6004
 126739169.089 6  98757798.89243  24117661.869                    24117662.5384
        38.600          23.3004
 121783924.030 7  94896573.50145  23174710.514                    23174706.3434
        46.500          31.4004
 111228697.093 8  86671714.62746  21166106.113                    21166104.9154
        49.000          40.8004
 118681686.765 7  92479260.57645  22584359.483                    22584359.3834
        43.800          32.4004
 16  1 15  0  0 50.0000000  0  8G23G16G32G09G06G07G03G26
 108329303.085 8  84412459.14547  20614370.312                    20614363.4364
        52.200          42.7004
 111240531.727 8  86680936.94146  21168356.438                    21168351.0874
        49.900          38.5004
 125243606.939 6  97592425.47344  23833067.868                    23833065.5714
        41.700          24.4004
 115005680.035 8  89614827.28646  21884846.370                    21884844.2784
        48.600          38.6004
 126739756.070 6  98758256.28043  24117773.464                    24117774.2304
        38.600          23.3004
 121781316.104 7  94894541.35045  23174214.350                    23174210.0704
        46.100          31.4004
 111231075.762 8  86673568.13646  21166558.862                    21166557.5294
        49.700          40.8004
 118683507.142 7  92480679.05245  22584705.715                    22584705.7304
        45.000          32.4004
 16  1 15  0  0 51.0000000  0  8G23G16G32G09G06G07G03G26
 108328567.262 8  84411885.77747  20614230.190                    20614223.3674
        52.400          42.5004
 111240362.148 8  86680804.80246  21168324.121                    21168318.7884
        50.100          38.6004
 125247039.149 6  97595099.91944  23833720.960                    23833718.7344
        41.700          24.4004
 115003485.052 8  89613116.91246  21884428.659                    21884426.5704
        49.200          38.3004
 126740343.534 6  98758714.04143  24117885.292                    24117885.9104
        38.600          23.3004
 121778708.411 7  94892509.38245  23173718.064                    23173713.8714
        44.700          31.4004
 111233454.903 8  86675422.01046  21167011.588                    21167010.1754
        50.100          41.0004
 118685328.039 7  92482097.93345  22585052.308                    22585052.2884
        45.100          32.4004
 16  1 15  0  0 52.0000000  0  8G23G16G32G09G06G07G03G26
 108327831.747 8  84411312.64747  20614090.187                    20614083.4434
        50.500          42.6004
 111240193.302 8  86680673.23646  21168292.140                    21168286.5904
        49.700          38.6004
 125250471.529 6  97597774.49944  23834374.179                    23834371.9494
        41.700          24.4004
 115001290.219 8  89611406.65446  21884010.966                    21884008.8824
        49.400          38.3004
 126740931.568 6  98759172.25043  24117996.637                    24117997.7834
        38.400          23.3004
 121776100.944 7  94890477.59145  23173221.677                    23173217.7774
        46.200          31.4004
 111235834.549 8  86677276.27846  21167464.483                    21167462.9554
        50.800          41.0004
 118687149.527 7  92483517.27445  22585399.023                    22585398.9304
        45.100          32.4004
 16  1 15  0  0 53.0000000  0  8G23G16G32G09G06G07G03G26
 108327096.596 8  84410739.80147  20613950.298                    20613943.6244
        52.200          42.6004
 111240025.285 8  86680542.31546  21168260.085                    21168254.5894
        48.900          38.6004
 125253904.143 7  97600449.26144  23835027.286                    23835025.0834
        42.200          24.4004
 114999095.638 8  89609696.59246  21883593.191                    21883591.3704
        48.900          38.3004
 126741520.263 6  98759630.97243  24118109.042                    24118109.7724
        38.400          21.9004
 121773493.835 7  94888446.07845  23172725.505                    23172721.5774
        46.500          31.4004
 111238214.777 8  86679131.00046  21167917.471                    21167915.9394
        50.800          41.1004
 118688971.665 7  92484937.12045  22585745.742                    22585745.5854
        45.900          32.4004
 16  1 15  0  0 54.0000000  0  8G23G16G32G09G06G07G03G26
 108326361.637 8  84410167.10747  20613810.468                    20613803.7484
        51.500          42.8004
 111239857.920 8  86680411.90346  21168228.222                    21168222.7834
        50.000          38.6004
 125257336.861 7  97603124.10444  23835680.138                    23835678.3134
        42.200          24.4004
 114996901.106 8  89607986.56946  21883175.794                    21883173.6324
        49.000          38.4004
 126742109.389 6  98760090.02943  24118221.315                    24118221.8514
        38.400          21.9004
 121770886.845 7  94886414.65845  23172229.025                    23172225.5794
        46.800          31.4004
 111240595.425 8  86680986.05146  21168370.490                    21168368.9994
        50.000          41.1004
 118690794.304 7  92486357.35845  22586093.190                    22586092.4074
        44.800          32.4004
 16  1 15  0  0 55.0000000  0  8G23G16G32G09G06G07G03G26
 108325626.902 8  84409594.58547  20613670.612                    20613663.9064
        52.500          42.7004
 111239691.241 8  86680282.02446  21168196.193                    21168191.1184
        50.400          38.6004
 125260769.660 7  97605799.01244  23836333.417                    23836331.6174
        42.200          24.4004
 114994706.666 8  89606276.62046  21882758.065                    21882756.1264
        50.000          38.4004
 126742699.015 6  98760549.47643  24118333.406                    24118333.8764
        38.400          21.9004
 121768280.052 7  94884383.39145  23171732.776                    23171729.4834
        46.800          31.5004
 111242976.510 8  86682841.44146  21168823.640                    21168822.0934
        50.400          40.9004
 118692617.441 7  92487777.98545  22586439.479                    22586439.3044
        44.900          32.4004
 16  1 15  0  0 56.0000000  0  8G23G16G32G09G06G07G03G26
 108324892.495 8  84409022.31847  20613530.830                    20613524.2024
        51.900          42.6004
 111239525.331 8  86680152.74546  21168164.732                    21168159.6174
        49.900          38.6004
 125264202.624 6  97608474.04844  23836986.845                    23836984.9134
        41.700          24.4004
 114992512.430 8  89604566.82946  21882340.772                    21882338.5414
        49.900          38.4004
 126743289.252 6  98761009.40143  24118445.620                    24118446.2514
        38.400          21.9004
 121765673.517 7  94882352.32945  23171236.922                    23171233.5594
        45.700          31.5004
 111245358.147 8  86684697.26046  21169276.804                    21169275.2784
        50.100          40.9004
 118694441.183 7  92489199.08045  22586786.858                    22586786.3414
        44.900          32.4004
 16  1 15  0  0 57.0000000  0  8G23G16G32G09G06G07G03G26
 108324158.384 8  84408450.28247  20613391.253                    20613384.4624
        52.200          42.6004
 111239360.162 8  86680024.04546  21168133.314                    21168128.1644
        49.100          38.6004
 125267635.785 6  97611149.23744  23837640.303                    23837638.2094
        41.700          24.4004
 114990318.356 8  89602857.16146  21881923.178                    21881920.9454
        49.000          38.4004
 126743880.060 6  98761469.76943  24118557.829                    24118558.8454
        38.100          21.9004
 121763067.244 7  94880321.46745  23170740.827                    23170737.4764
        45.500          31.5004
 111247740.285 8  86686553.47246  21169730.181                    21169728.6034
        49.500          40.8004
 118696265.467 7  92490620.59845  22587134.156                    22587133.5124
        45.200          32.4004
 16  1 15  0  0 58.0000000  0  8G23G16G32G09G06G07G03G26
 108323424.526 8  84407878.44747  20613251.351                    20613244.8924
        52.900          42.7004
 111239195.713 8  86679895.90246  21168102.040                    21168096.8814
        48.900          38.6004
 125271069.050 6  97613824.50844  23838293.464                    23838291.5714
        41.700          24.4004
 114988124.392 8  89601147.58146  21881505.545                    21881503.4644
        49.100          38.3004
 126744471.366 6  98761930.52543  24118670.730                    24118671.3434
        38.100          21.9004
 121760461.169 7  94878290.76145  23170244.883                    23170241.4754
        45.200          31.5004
 111250122.890 8  86688410.04546  21170183.627                    21170181.9874
        50.600          40.8004
 118698090.354 7  92492042.58845  22587481.190                    22587480.6884
        44.000          32.4004
 16  1 15  0  0 59.0000000  0  8G23G16G32G09G06G07G03G26
 108322691.012 8  84407306.87747  20613111.978                    20613105.2614
        52.700          42.6004
 111239032.068 8  86679768.38746  21168070.741                    21168065.8514
        49.700          38.6004
 125274502.551 6  97616499.96144  23838946.804                    23838944.9164
        41.600          24.4004
 114985930.647 8  89599438.17146  21881088.321                    21881085.9624
        49.100          38.3004
 126745063.289 6  98762391.76143  24118783.547                    24118783.9684
        38.100          21.9004
 121757855.407 7  94876260.30045  23169749.032                    23169745.6264
        45.000          31.5004
 111252506.057 8  86690267.06046  21170637.102                    21170635.4434
        50.100          40.9004
 118699915.826 7  92493465.03145  22587828.358                    22587828.0894
        45.000          32.4004
 16  1 15  0  1  0.0000000  0  8G23G16G32G09G06G07G03G26
 108321957.813 8  84406735.55047  20612972.432                    20612965.7234
        51.900          42.7004
 111238869.210 8  86679641.48646  21168039.560                    21168034.8394
        50.000          38.6004
 125277936.249 6  97619175.56844  23839600.364                    23839598.4244
        41.600          24.4004
 114983737.096 8  89597728.91046  21880670.623                    21880668.4954
        48.400          38.3004
 126745655.845 6  98762853.49143  24118895.695                    24118896.7944
        38.100          21.9004
 121755249.903 7  94874230.03845  23169253.101                    23169249.7674
        45.000          31.5004
 111254889.769 8  86692124.50146  21171090.650                    21171089.0904
        51.400          40.9004
 118701741.900 7  92494887.94645  22588175.754                    22588175.5914
        44.500          32.4004
 16  1 15  0  1  1.0000000  0  8G23G16G32G09G06G07G03G26
 108321224.761 8  84406164.34147  20612832.874                    20612826.2434
        52.200          42.6004
 111238706.917 8  86679515.02446  21168008.781                    21168003.9504
        50.000          38.6004
 125281369.944 7  97621851.17344  23840253.861                    23840251.7904
        42.000          24.4004
 114981543.570 8  89596019.67146  21880253.249                    21880250.9924
        49.200          38.3004
 126746248.754 6  98763315.49343  24119008.928                    24119009.7144
        38.100          21.9004
 121752644.490 7  94872199.84845  23168757.410                    23168753.9734
        45.700          31.5004
 111257273.821 8  86693982.20446  21171544.391                    21171542.7644
        51.500          40.7004
 118703568.417 7  92496311.20345  22588523.372                    22588523.1574
        44.500          32.5004
 16  1 15  0  1  2.0000000  0  8G23G16G32G09G06G07G03G26
 108320492.046 8  84405593.39547  20612693.441                    20612686.7754
        52.900          42.6004
 111238545.442 8  86679389.19946  21167978.196                    21167973.1214
        48.900          38.6004
 125284803.863 7  97624526.95344  23840907.730                    23840905.2944
        42.000          24.4004
 114979350.231 8  89594310.57846  21879835.939                    21879833.6484
        49.400          38.3004
 126746842.279 6  98763777.97843  24119121.797                    24119122.7384
        38.100          21.9004
 121750039.384 7  94870169.89745  23168261.769                    23168258.2874
        45.200          31.5004
 111259658.433 8  86695840.34246  21171998.044                    21171996.4584
        49.300          40.7004
 118705395.548 7  92497734.94145  22588871.063                    22588870.9764
        44.900          32.5004
 16  1 15  0  1  3.0000000  0  8G23G16G32G09G06G07G03G26
 108319759.612 8  84405022.66747  20612554.276                    20612547.3854
        52.400          42.4004
 111238384.685 8  86679263.93546  21167947.585                    21167942.4544
        49.800          38.6004
 125288237.947 7  97627202.86144  23841561.119                    23841558.8424
        42.000          24.4004
 114977157.029 8  89592601.59246  21879418.498                    21879416.2024
        50.100          38.3004
 126747436.353 6  98764240.89143  24119235.391                    24119235.7944
        38.900          21.9004
 121747434.502 7  94868140.12045  23167766.052                    23167762.6524
        45.200          31.5004
 111262043.545 8  86697698.87246  21172451.931                    21172450.3274
        50.400          40.8004
 118707223.245 7  92499159.12045  22589219.117                    22589218.7074
        45.300          32.5004
 16  1 15  0  1  4.0000000  0  8G23G16G32G09G06G07G03G26
 108319027.358 8  84404452.07747  20612414.897                    20612408.0824
        52.300          42.6004
 111238224.576 8  86679139.17446  21167917.103                    21167911.9984
        50.600          38.6004
 125291672.067 7  97629878.80044  23842214.402                    23842212.3694
        42.600          24.4004
 114974963.894 8  89590892.65846  21879001.097                    21878998.8494
        49.000          38.3004
 126748030.865 6  98764704.14543  24119347.799                    24119348.9564
        38.900          21.9004
 121744829.746 7  94866110.44345  23167270.355                    23167266.9664
        45.200          31.5004
 111264429.056 8  86699557.71146  21172905.883                    21172904.2974
        49.700          40.8004
 118709051.395 7  92500583.65345  22589566.866                    22589566.5074
        45.300          32.5004
 16  1 15  0  1  5.0000000  0  8G23G16G32G09G06G07G03G26
 108318295.465 8  84403881.77047  20612275.759                    20612268.8744
        51.200          42.8004
 111238065.279 8  86679015.04746  21167886.697                    21167881.7124
        50.300          38.6004
 125295106.414 7  97632554.91344  23842867.732                    23842865.9254
        42.600          24.4004
 114972770.986 8  89589183.89846  21878583.762                    21878581.4434
        49.600          38.2004
 126748626.008 6  98765167.89043  24119461.266                    24119462.2164
        38.900          21.9004
 121742225.335 7  94864081.03345  23166774.559                    23166771.3214
        45.200          31.5004
 111266815.140 8  86701416.99646  21173359.774                    21173358.3874
        49.900          40.9004
 118710880.219 7  92502008.71345  22589915.181                    22589914.6114
        45.300          32.5004
 16  1 15  0  1  6.0000000  0  8G23G16G32G09G06G07G03G26
 108317563.810 8  84403311.64847  20612136.457                    20612129.5454
        51.400          42.8004
 111237906.664 8  86678891.45246  21167856.551                    21167851.4984
        49.300          38.6004
 125298540.874 7  97635231.11644  23843521.502                    23843519.4344
        42.100          24.4004
 114970578.189 8  89587475.22646  21878166.549                    21878164.1654
        49.600          38.2004
 126749221.692 6  98765632.05943  24119574.973                    24119575.5094
        38.900          21.9004
 121739621.110 7  94862051.76845  23166279.153                    23166275.7504
        45.400          31.5004
 111269201.664 8  86703276.62546  21173813.905                    21173812.5474
        50.000          40.9004
 118712709.524 7  92503434.14445  22590263.253                    22590262.6504
        45.300          32.5004
 16  1 15  0  1  7.0000000  0  8G23G16G32G09G06G07G03G26
 108316832.505 8  84402741.79947  20611997.239                    20611990.4194
        52.200          42.6004
 111237748.859 8  86678768.48646  21167826.452                    21167821.4294
        49.000          38.6004
 125301975.567 7  97637907.49744  23844175.147                    23844173.0494
        42.100          24.4004
 114968385.599 8  89585766.71746  21877749.467                    21877746.8624
        49.800          38.2004
 126749817.935 6  98766096.66343  24119688.509                    24119689.0144
        38.900          21.9004
 121737017.187 7  94860022.73845  23165783.626                    23165780.2034
        45.800          31.5004
 111271588.768 8  86705136.70646  21174268.256                    21174266.7724
        50.800          41.0004
 118714539.495 7  92504860.09645  22590611.102                    22590610.9464
        45.300          32.5004
 16  1 15  0  1  8.0000000  0  8G23G16G32G09G06G07G03G26
 108316101.421 8  84402172.12247  20611858.033                    20611851.2914
        53.400          42.7004
 111237591.728 8  86678646.04946  21167796.605                    21167791.5724
        50.300          38.5004
 125305410.329 7  97640583.93344  23844828.642                    23844826.7044
        42.100          24.4004
 114966193.102 8  89584058.27646  21877332.226                    21877329.5674
        49.100          38.2004
 126750414.707 6  98766561.68043  24119801.341                    24119802.6384
        38.800          21.9004
 121734413.413 7  94857993.82345  23165288.586                    23165284.6754
        46.000          31.5004
 111273976.304 8  86706997.12446  21174722.598                    21174721.1234
        50.800          41.0004
 118716369.917 7  92506286.39545  22590959.511                    22590959.2044
        45.700          32.5004
 16  1 15  0  1  9.0000000  0  8G23G16G32G09G06G07G03G26
 108315370.629 8  84401602.67247  20611719.049                    20611712.2204
        53.400          42.5004
 111237435.343 8  86678524.19346  21167766.911                    21167761.8744
        49.800          38.5004
 125308845.283 7  97643260.51944  23845481.862                    23845480.3814
        42.100          24.4004
 114964000.782 8  89582349.97546  21876915.227                    21876912.3404
        49.400          38.0004
 126751012.043 6  98767027.13743  24119914.527                    24119916.3504
        38.800          21.9004
 121731809.911 7  94855965.12245  23164793.234                    23164789.2194
        45.700          31.5004
 111276364.361 8  86708857.94946  21175177.177                    21175175.5284
        50.500          41.0004
 118718200.987 7  92507713.20445  22591308.144                    22591307.6644
        45.700          32.5004
 16  1 15  0  1 10.0000000  0  8G23G16G32G09G06G07G03G26
 108314640.176 8  84401033.48747  20611579.934                    20611573.1714
        52.800          42.2004
 111237279.749 8  86678402.95046  21167737.210                    21167732.2144
        50.600          38.5004
 125312280.424 7  97645937.25144  23846135.754                    23846134.0624
        42.100          24.4004
 114961808.627 8  89580641.80246  21876497.828                    21876495.1604
        48.400          38.0004
 126751609.955 6  98767493.04443  24120028.935                    24120030.1244
        38.800          21.9004
 121729206.691 7  94853936.64145  23164297.604                    23164293.8714
        46.000          31.5004
 111278752.946 8  86710719.18246  21175631.489                    21175630.0774
        50.500          41.0004
 118720032.631 7  92509140.46145  22591656.542                    22591656.1914
        45.600          32.5004
 16  1 15  0  1 11.0000000  0  8G23G16G32G09G06G07G03G26
 108313909.923 8  84400464.45847  20611441.113                    20611434.2184
        51.300          42.2004
 111237124.798 8  86678282.21046  21167707.974                    21167702.8534
        49.800          38.5004
 125315715.677 6  97648614.07144  23846789.626                    23846787.8384
        41.400          24.3004
 114959616.570 7  89578933.70846  21876080.633                    21876078.0794
        46.500          38.0004
 126752208.366 6  98767959.33743  24120142.961                    24120144.0194
        38.800          21.9004
 121726603.630 7  94851908.28145  23163802.044                    23163798.5014
        46.200          31.1004
 111281141.959 8  86712580.74946  21176086.357                    21176084.7184
        50.200          40.7004
 118721864.777 7  92510568.10745  22592005.441                    22592004.7874
        44.200          32.5004
 16  1 15  0  1 12.0000000  0  8G23G16G32G09G06G07G03G26
 108313179.936 8  84399895.63647  20611302.009                    20611295.3394
        52.300          42.4004
 111236970.586 8  86678162.04646  21167678.471                    21167673.5224
        49.700          38.9004
 125319151.058 6  97651290.98844  23847443.396                    23847441.6254
        41.400          24.3004
 114957424.637 8  89577225.70846  21875663.448                    21875660.8774
        48.300          38.0004
 126752807.292 6  98768426.03443  24120256.479                    24120258.0614
        38.800          21.9004
 121724000.787 7  94849880.09245  23163306.866                    23163303.1644
        45.800          31.1004
 111283531.440 8  86714442.67946  21176541.131                    21176539.4104
        49.600          40.7004
 118723697.462 7  92511996.17345  22592354.582                    22592353.4704
        44.700          32.5004
 16  1 15  0  1 13.0000000  0  8G23G16G32G09G06G07G03G26
 108312450.237 8  84399327.04147  20611163.135                    20611156.5284
        52.800          42.4004
 111236817.094 8  86678042.44446  21167649.291                    21167644.2704
        49.500          38.9004
 125322586.590 6  97653968.02344  23848097.059                    23848095.3314
        41.900          24.3004
 114955232.857 7  89575517.83046  21875246.342                    21875243.8644
        47.000          37.9004
 126753406.760 6  98768893.15243  24120370.893                    24120372.2154
        38.900          21.9004
 121721398.175 7  94847852.08345  23162811.782                    23162807.8644
        45.500          31.1004
 111285921.434 8  86716305.01246  21176995.978                    21176994.2314
        51.000          40.8004
 118725530.722 7  92513424.68645  22592703.280                    22592702.3294
        46.200          32.5004
 16  1 15  0  1 14.0000000  0  8G23G16G32G09G06G07G03G26
 108311720.852 8  84398758.68747  20611024.240                    20611017.6724
        52.200          42.9004
 111236664.381 8  86677923.44746  21167620.143                    21167615.1534
        49.400          38.9004
 125326022.291 6  97656645.19344  23848750.861                    23848749.2404
        41.900          24.3004
 114953041.274 8  89573810.10346  21874829.050                    21874826.7904
        48.300          37.9004
 126754006.820 6  98769360.72843  24120485.111                    24120486.4174
        38.900          21.9004
 121718795.844 7  94845824.29245  23162316.500                    23162312.6134
        45.600          31.1004
 111288311.953 8  86718167.75246  21177450.704                    21177449.0954
        49.900          40.8004
 118727364.571 7  92514853.66045  22593052.526                    22593051.3534
        45.400          32.4004
 16  1 15  0  1 15.0000000  0  8G23G16G32G09G06G07G03G26
 108310991.748 8  84398190.55547  20610885.636                    20610878.9794
        53.100          42.9004
 111236512.403 8  86677805.02346  21167591.318                    21167586.2214
        49.700          38.6004
 125329458.154 6  97659322.48744  23849404.680                    23849403.0774
        41.900          24.3004
 114950849.836 8  89572102.48946  21874412.129                    21874409.7554
        48.900          37.9004
 126754607.459 6  98769828.75743  24120599.448                    24120600.7874
        38.900          21.9004
 121716193.755 7  94843796.69245  23161821.254                    23161817.5224
        46.300          31.1004
 111290702.969 8  86720030.88046  21177905.718                    21177904.0474
        50.500          40.8004
 118729198.976 7  92516283.06645  22593401.470                    22593400.5064
        45.400          32.4004
 16  1 15  0  1 16.0000000  0  8G23G16G32G09G06G07G03G26
 108310262.939 8  84397622.65247  20610746.979                    20610740.3304
        52.400          42.6004
 111236361.169 8  86677687.18046  21167562.433                    21167557.4474
        49.100          38.6004
 125332894.185 7  97661999.91244  23850058.537                    23850056.9284
        42.200          24.3004
 114948658.555 8  89570394.99846  21873994.911                    21873992.8114
        48.600          37.9004
 126755208.622 6  98770297.19643  24120714.075                    24120715.2714
        38.900          21.9004
 121713591.903 7  94841769.27345  23161326.223                    23161322.3854
        46.300          31.1004
 111293094.491 8  86721894.40346  21178360.715                    21178359.1094
        49.800          40.8004
 118731033.977 7  92517712.93745  22593750.475                    22593749.7424
        45.400          32.4004
 16  1 15  0  1 17.0000000  0  8G23G16G32G09G06G07G03G26
 108309534.354 8  84397054.92247  20610608.370                    20610601.6314
        52.600          42.6004
 111236210.629 8  86677569.87646  21167534.027                    21167528.8134
        48.900          38.6004
 125336330.316 7  97664677.41544  23850712.234                    23850710.8874
        42.200          24.3004
 114946467.384 8  89568687.59446  21873577.900                    21873575.8614
        48.900          37.8004
 126755810.254 6  98770765.99943  24120828.282                    24120829.6654
        38.900          21.9004
 121710990.244 7  94839742.00345  23160831.078                    23160827.2614
        46.700          31.1004
 111295486.462 8  86723758.27646  21178815.777                    21178814.3484
        49.700          40.7004
 118732869.482 7  92519143.20145  22594099.754                    22594098.9934
        45.500          32.4004
 16  1 15  0  1 18.0000000  0  8G23G16G32G09G06G07G03G26
 108308806.133 8  84396487.47847  20610469.878                    20610463.0194
        52.500          42.6004
 111236060.892 8  86677453.19846  21167505.363                    21167500.2844
        49.400          38.8004
 125339766.660 7  97667355.08544  23851366.679                    23851364.8704
        42.400          24.3004
 114944276.413 8  89566980.34746  21873161.085                    21873159.0194
        48.000          37.8004
 126756412.545 6  98771235.31843  24120943.362                    24120944.2614
        38.600          21.9004
 121708388.872 7  94837714.96045  23160335.951                    23160332.2024
        44.900          31.1004
 111297878.989 8  86725622.58346  21179271.009                    21179269.6534
        49.500          40.7004
 118734705.613 7  92520573.95345  22594448.983                    22594448.3754
        45.400          32.4004
 16  1 15  0  1 19.0000000  0  8G23G16G32G09G06G07G03G26
 108308078.119 9  84395920.19547  20610331.279                    20610324.5164
        54.100          42.6004
 111235911.823 8  86677337.04146  21167477.124                    21167471.8164
        50.200          38.8004
 125343203.103 7  97670032.83144  23852020.482                    23852018.8204
        42.400          24.3004
 114942085.537 8  89565273.17246  21872743.981                    21872742.0624
        48.200          37.8004
 126757015.336 6  98771705.02543  24121058.242                    24121058.9484
        38.600          21.9004
 121705787.665 7  94835688.04745  23159840.736                    23159837.2894
        45.600          31.1004
 111300271.952 8  86727487.23046  21179726.315                    21179724.9534
        49.600          40.8004
 118736542.259 7  92522005.10645  22594798.610                    22594797.9174
        45.600          32.4004
 16  1 15  0  1 20.0000000  0  8G23G16G32G09G06G07G03G26
 108307350.444 8  84395353.17547  20610192.846                    20610186.0354
        53.100          42.6004
 111235763.544 8  86677221.49946  21167448.943                    21167443.7534
        51.100          38.8004
 125346639.738 7  97672710.72644  23852674.215                    23852672.8014
        42.400          24.3004
 114939894.869 8  89563566.15946  21872327.051                    21872325.3354
        48.400          37.8004
 126757618.701 6  98772175.18043  24121172.691                    24121173.6764
        38.600          21.9004
 121703186.758 7  94833661.36845  23159345.927                    23159342.4444
        45.500          31.1004
 111302665.455 8  86729352.29946  21180182.049                    21180180.3854
        51.200          40.8004
 118738379.499 7  92523436.72145  22595148.340                    22595147.5344
        45.800          32.4004
 16  1 15  0  1 21.0000000  0  8G23G16G32G09G06G07G03G26
 108306623.002 8  84394786.33547  20610054.466                    20610047.6124
        52.100          42.5004
 111235615.950 8  86677106.49246  21167420.764                    21167415.5964
        50.500          38.8004
 125350076.506 6  97675388.72344  23853328.001                    23853326.8274
        41.700          24.3004
 114937704.289 8  89561859.21646  21871910.278                    21871908.4734
        48.600          37.8004
 126758222.551 6  98772645.71143  24121286.806                    24121288.5694
        38.600          21.9004
 121700586.065 7  94831634.85345  23158851.192                    23158847.5664
        45.100          31.1004
 111305059.424 8  86731217.73146  21180637.372                    21180635.9194
        49.700          40.9004
 118740217.278 7  92524868.75445  22595498.103                    22595497.3674
        45.800          32.4004
 16  1 15  0  1 22.0000000  0  8G23G16G32G09G06G07G03G26
 108305895.910 8  84394219.76847  20609916.192                    20609909.3314
        52.500          42.8004
 111235469.161 8  86676992.11046  21167392.857                    21167387.7264
        50.200          38.7004
 125353513.471 6  97678066.87544  23853982.413                    23853980.7554
        41.700          24.3004
 114935513.942 7  89560152.45446  21871493.304                    21871491.6394
        47.800          37.8004
 126758827.061 6  98773116.75843  24121402.184                    24121403.6124
        38.600          21.9004
 121697985.676 7  94829608.57745  23158356.803                    23158352.7414
        46.300          31.1004
 111307453.950 8  86733083.59346  21181093.098                    21181091.5664
        49.800          41.0004
 118742055.683 7  92526301.27845  22595847.771                    22595847.1294
        46.100          32.4004
 16  1 15  0  1 23.0000000  0  8G23G16G32G09G06G07G03G26
 108305169.045 8  84393653.37947  20609777.744                    20609770.8994
        53.400          42.3004
 111235323.045 8  86676878.25446  21167365.257                    21167359.9174
        51.800          38.7004
 125356950.542 6  97680745.10944  23854636.832                    23854634.7134
        41.700          24.3004
 114933323.676 7  89558445.75846  21871076.330                    21871074.9114
        47.400          37.8004
 126759432.039 6  98773588.16843  24121517.189                    24121518.6694
        38.600          21.9004
 121695385.443 7  94827582.41945  23157861.566                    23157857.9724
        45.700          31.1004
 111309848.902 8  86734949.79046  21181548.970                    21181547.3184
        50.000          41.0004
 118743894.567 7  92527734.17545  22596197.621                    22596197.0284
        45.700          32.4004
 16  1 15  0  1 24.0000000  0  8G23G16G32G09G06G07G03G26
 108304442.485 8  84393087.22847  20609639.457                    20609632.6184
        50.900          42.3004
 111235177.696 8  86676764.99646  21167337.407                    21167332.3394
        50.800          38.7004
 125360387.797 6  97683423.48744  23855290.791                    23855288.7284
        41.700          24.3004
 114931133.601 7  89556739.20946  21870659.809                    21870658.2374
        46.500          37.8004
 126760037.603 6  98774060.03443  24121631.898                    24121633.8154
        38.500          21.9004
 121692785.499 7  94825556.49045  23157366.761                    23157363.2724
        44.300          31.1004
 111312244.400 8  86736816.41246  21182004.787                    21182003.1974
        50.100          41.0004
 118745734.090 7  92529167.56945  22596547.838                    22596547.0834
        44.700          32.4004
 16  1 15  0  1 25.0000000  0  8G23G16G32G09G06G07G03G26
 108303716.133 8  84392521.24047  20609501.424                    20609494.3624
        52.400          42.5004
 111235033.005 8  86676652.25246  21167309.922                    21167304.8204
        50.900          38.4004
 125363825.117 6  97686101.91744  23855945.035                    23855942.8174
        41.700          24.3004
 114928943.595 8  89555032.71446  21870242.881                    21870241.5354
        48.500          37.7004
 126760643.613 6  98774532.24743  24121747.845                    24121749.0894
        38.500          21.9004
 121690185.697 7  94823530.66945  23156871.854                    23156868.4924
        45.500          31.1004
 111314640.289 8  86738683.33746  21182460.687                    21182459.1624
        51.400          41.0004
 118747574.058 7  92530601.30945  22596897.894                    22596897.2504
        45.000          32.4004
 16  1 15  0  1 26.0000000  0  8G23G16G32G09G06G07G03G26
 108302990.109 8  84391955.50747  20609363.101                    20609356.2904
        52.400          42.6004
 111234889.105 8  86676540.12246  21167282.331                    21167277.3404
        50.500          38.4004
 125367262.663 7  97688780.52144  23856599.171                    23856597.0454
        42.000          24.3004
 114926753.776 7  89553326.36146  21869826.330                    21869824.8864
        47.200          37.7004
 126761250.247 6  98775004.94943  24121863.783                    24121864.5034
        38.500          21.9004
 121687586.190 7  94821505.08045  23156377.261                    23156373.9214
        45.500          31.5004
 111317036.734 8  86740550.69646  21182916.767                    21182915.1534
        51.100          40.7004
 118749414.668 7  92532035.55045  22597248.088                    22597247.4734
        46.000          32.6004
 16  1 15  0  1 27.0000000  0  8G23G16G32G09G06G07G03G26
 108302264.385 8  84391390.00847  20609224.948                    20609218.1384
        52.300          42.5004
 111234745.949 8  86676428.57346  21167255.102                    21167250.0894
        51.000          38.4004
 125370700.350 7  97691459.23344  23857253.261                    23857251.2014
        42.000          24.3004
 114924564.139 8  89551620.15346  21869409.695                    21869408.2394
        49.100          37.7004
 126761857.402 6  98775478.05743  24121978.902                    24121980.0274
        38.500          21.9004
 121684986.922 7  94819479.67845  23155882.864                    23155879.3784
        45.100          31.5004
 111319433.694 8  86742418.45746  21183372.879                    21183371.3444
        50.200          40.7004
 118751255.819 7  92533470.21745  22597598.641                    22597597.9014
        46.000          32.6004
 16  1 15  0  1 28.0000000  0  8G23G16G32G09G06G07G03G26
 108301538.963 8  84390824.74347  20609086.875                    20609080.1284
        51.600          42.5004
 111234603.551 8  86676317.61646  21167228.044                    21167223.0494
        50.900          38.4004
 125374138.220 6  97694138.08944  23857907.489                    23857905.4404
        41.700          24.3004
 114922374.668 8  89549914.07246  21868993.096                    21868991.5824
        48.600          37.7004
 126762465.175 6  98775951.64643  24122094.383                    24122095.8264
        38.500          21.9004
 121682387.898 7  94817454.46645  23155388.186                    23155384.9234
        45.600          31.5004
 111321831.162 8  86744286.61246  21183829.208                    21183827.4904
        50.300          40.8004
 118753097.559 7  92534905.33745  22597949.142                    22597948.3384
        45.500          32.6004
 16  1 15  0  1 29.0000000  0  8G23G16G32G09G06G07G03G26
 108300813.821 8  84390259.69947  20608948.922                    20608942.2234
        51.600          42.4004
 111234461.894 8  86676207.23546  21167201.038                    21167196.0224
        49.500          38.9004
 125377576.262 6  97696817.08044  23858562.122                    23858559.6774
        41.700          24.3004
 114920185.347 8  89548208.11046  21868576.488                    21868574.9294
        48.600          37.9004
 126763073.473 6  98776425.64443  24122210.587                    24122211.6174
        38.500          21.9004
 121679789.127 7  94815429.45045  23154893.704                    23154890.2804
        45.700          31.5004
 111324229.124 7  86746155.15646  21184285.336                    21184283.9224
        47.400          40.8004
 118754939.882 7  92536340.91445  22598299.389                    22598298.9534
        45.300          32.6004
 16  1 15  0  1 30.0000000  0  8G23G16G32G09G06G07G03G26
 108300088.875 8  84389694.80647  20608810.953                    20608804.2274
        53.500          42.6004
 111234320.858 8  86676097.33646  21167174.220                    21167169.2124
        49.400          38.9004
 125381014.326 7  97699496.09044  23859216.054                    23859213.9384
        42.600          24.3004
 114917996.091 8  89546502.19746  21868159.704                    21868158.2994
        48.300          37.9004
 126763682.203 6  98776899.97843  24122326.297                    24122327.4184
        38.500          21.9004
 121677190.484 7  94813404.53345  23154399.385                    23154395.7014
        47.000          31.5004
 111326627.498 8  86748024.01746  21184741.831                    21184740.3234
        50.400          40.8004
 118756782.674 7  92537776.85645  22598650.093                    22598649.5224
        45.900          32.6004
 16  1 15  0  1 31.0000000  0  8G23G16G32G09G06G07G03G26
 108299364.284 8  84389130.18947  20608672.982                    20608666.3584
        52.400          42.8004
 111234180.650 8  86675988.08346  21167147.377                    21167142.5144
        50.600          38.9004
 125384452.632 7  97702175.28644  23859870.206                    23859868.1844
        42.600          24.3004
 114915807.057 8  89544796.45946  21867743.061                    21867741.7444
        49.400          37.9004
 126764291.577 6  98777374.81643  24122442.762                    24122443.4264
        38.500          21.9004
 121674592.161 7  94811379.86645  23153904.776                    23153901.1754
        46.100          31.5004
 111329026.435 8  86749893.32046  21185198.089                    21185196.8194
        49.600          40.8004
 118758626.095 7  92539213.28945  22599000.926                    22599000.3834
        45.400          32.6004
 16  1 15  0  1 32.0000000  0  8G23G16G32G09G06G07G03G26
 108298639.954 8  84388565.77647  20608535.203                    20608528.4734
        52.300          42.6004
 111234041.159 8  86675879.39046  21167120.928                    21167116.0194
        51.200          38.8004
 125387891.060 7  97704854.57844  23860524.526                    23860522.3524
        42.600          24.3004
 114913618.154 8  89543090.82446  21867326.523                    21867325.2784
        48.700          37.9004
 126764901.483 6  98777850.06843  24122558.056                    24122559.3634
        38.500          21.9004
 121671994.052 7  94809355.36645  23153410.141                    23153406.8364
        46.600          31.5004
 111331425.841 8  86751762.98746  21185654.661                    21185653.4814
        50.200          40.8004
 118760470.059 7  92540650.14245  22599351.872                    22599351.3004
        46.600          32.6004
 16  1 15  0  1 33.0000000  0  8G23G16G32G09G06G07G03G26
 108297915.883 8  84388001.56347  20608397.355                    20608390.7134
        52.700          42.6004
 111233902.382 8  86675771.25646  21167094.568                    21167089.5914
        51.400          38.8004
 125391329.637 6  97707533.98544  23861178.685                    23861176.6664
        41.900          24.3004
 114911429.355 8  89541385.26846  21866910.074                    21866908.7864
        48.500          37.9004
 126765511.909 6  98778325.72643  24122675.213                    24122675.4814
        38.500          21.9004
 121669396.164 7  94807331.03845  23152915.735                    23152912.4454
        45.800          31.5004
 111333825.731 8  86753633.02846  21186111.284                    21186110.1804
        50.200          40.8004
 118762314.563 7  92542087.42145  22599703.103                    22599702.3704
        46.600          32.6004
 16  1 15  0  1 34.0000000  0  8G23G16G32G09G06G07G03G26
 108297192.143 8  84387437.61047  20608259.783                    20608252.9824
        51.600          42.4004
 111233764.390 8  86675663.73146  21167068.329                    21167063.3484
        51.400          38.8004
 125394768.427 6  97710213.56144  23861832.912                    23861831.0524
        41.900          24.3004
 114909240.792 8  89539679.89746  21866493.615                    21866492.3124
        48.000          37.9004
 126766122.919 6  98778801.84043  24122791.244                    24122791.8484
        39.400          21.9004
 121666798.559 7  94805306.92945  23152421.259                    23152418.1454
        45.600          31.5004
 111336226.162 8  86755503.49446  21186568.142                    21186566.9644
        49.900          40.7004
 118764159.699 7  92543525.18745  22600054.131                    22600053.4224
        45.400          32.6004
 16  1 15  0  1 35.0000000  0  8G23G16G32G09G06G07G03G26
 108296468.623 8  84386873.82947  20608122.067                    20608115.2704
        53.100          42.5004
 111233627.068 8  86675556.72646  21167042.205                    21167037.2144
        50.300          38.5004
 125398207.281 7  97712893.18544  23862487.522                    23862485.4864
        42.400          24.3004
 114907052.281 8  89537974.56646  21866077.188                    21866075.9324
        48.300          37.9004
 126766734.414 6  98779278.33243  24122907.199                    24122908.1464
        39.400          21.9004
 121664201.098 7  94803282.93445  23151926.918                    23151923.8904
        45.600          31.5004
 111338627.021 8  86757374.29346  21187024.956                    21187023.8254
        51.000          40.7004
 118766005.301 7  92544963.31945  22600405.390                    22600404.6174
        45.900          32.6004
 16  1 15  0  1 36.0000000  0  8G23G16G32G09G06G07G03G26
 108295745.420 8  84386310.29447  20607984.517                    20607977.7484
        53.300          42.2004
 111233490.513 8  86675450.32346  21167016.202                    21167011.1734
        51.100          38.5004
 125401646.326 7  97715572.95744  23863141.702                    23863139.9284
        42.400          24.3004
 114904863.977 8  89536269.39546  21865660.639                    21865659.4574
        48.900          37.9004
 126767346.504 6  98779755.28643  24123023.253                    24123024.7054
        39.400          21.9004
 121661603.953 7  94801259.18345  23151432.868                    23151429.7504
        45.500          31.5004
 111341028.389 8  86759245.48846  21187481.831                    21187480.7754
        49.900          41.0004
 118767851.493 7  92546401.90945  22600756.490                    22600756.0894
        45.700          32.6004
 16  1 15  0  1 37.0000000  0  8G23G16G32G09G06G07G03G26
 108295022.442 8  84385746.93347  20607846.878                    20607840.0714
        51.700          42.2004
 111233354.636 8  86675344.44546  21166990.235                    21166985.3484
        50.100          38.5004
 125405085.457 7  97718252.79844  23863795.957                    23863794.4364
        42.400          24.3004
 114902675.756 8  89534564.29146  21865244.331                    21865243.0594
        48.400          38.0004
 126767959.077 6  98780232.61643  24123140.399                    24123141.2374
        39.400          22.6004
 121659006.955 7  94799235.54945  23150938.663                    23150935.5004
        45.600          31.5004
 111343430.205 8  86761117.03446  21187938.917                    21187937.9064
        49.900          41.0004
 118769698.215 7  92547840.91445  22601108.017                    22601107.4444
        44.900          32.6004
 16  1 15  0  1 38.0000000  0  8G23G16G32G09G06G07G03G26
 108294299.737 8  84385183.78647  20607709.343                    20607702.5414
        51.900          42.7004
 111233219.493 8  86675239.13946  21166964.564                    21166959.6064
        50.900          38.5004
 125408524.729 7  97720932.74844  23864450.777                    23864448.8694
        42.900          24.3004
 114900487.682 8  89532859.30346  21864828.085                    21864826.7724
        49.500          38.0004
 126768572.182 6  98780710.36343  24123257.106                    24123257.7974
        39.400          22.6004
 121656410.191 7  94797212.09845  23150444.216                    23150441.3344
        45.500          31.5004
 111345832.512 8  86762988.96146  21188396.046                    21188394.9974
        50.500          41.1004
 118771545.484 7  92549280.34345  22601459.434                    22601458.9644
        45.000          32.8004
 16  1 15  0  1 39.0000000  0  8G23G16G32G09G06G07G03G26
 108293577.353 8  84384620.88947  20607571.884                    20607564.9774
        52.600          42.5004
 111233085.113 8  86675134.43046  21166939.092                    21166934.1144
        49.800          38.6004
 125411964.203 7  97723612.85744  23865105.126                    23865103.4094
        42.900          24.3004
 114898299.779 7  89531154.44546  21864411.790                    21864410.4124
        47.600          38.0004
 126769185.874 6  98781188.56343  24123373.741                    24123374.5714
        38.900          22.6004
 121653813.687 7  94795188.84945  23149950.136                    23149947.2374
        45.500          31.5004
 111348235.342 8  86764861.29646  21188853.414                    21188852.2284
        49.500          41.1004
 118773393.334 7  92550720.22645  22601811.119                    22601810.6164
        45.000          32.8004
 16  1 15  0  1 40.0000000  0  8G23G16G32G09G06G07G03G26
 108292855.305 8  84384058.25347  20607434.478                    20607427.6794
        53.500          42.4004
 111232951.514 8  86675030.32446  21166913.587                    21166908.6544
        50.500          38.6004
 125415403.848 7  97726293.09544  23865760.143                    23865757.8754
        42.200          24.3004
 114896112.092 8  89529449.75746  21863995.700                    21863994.1364
        48.400          38.1004
 126769800.169 6  98781667.23043  24123491.029                    24123491.4384
        38.900          22.6004
 121651217.482 7  94793165.83045  23149456.131                    23149453.0904
        45.500          31.5004
 111350638.718 8  86766734.05546  21189310.984                    21189309.5944
        49.300          40.9004
 118775241.804 7  92552160.58945  22602162.814                    22602162.3854
        45.100          32.8004
 16  1 15  0  1 41.0000000  0  8G23G16G32G09G06G07G03G26
 108292133.538 8  84383495.83847  20607297.203                    20607290.3004
        52.000          42.4004
 111232818.649 8  86674926.79446  21166888.236                    21166883.3274
        50.800          38.6004
 125418843.646 7  97728973.45544  23866414.714                    23866412.4734
        42.200          24.3004
 114893924.557 8  89527745.18646  21863579.525                    21863577.8774
        49.500          38.1004
 126770415.012 6  98782146.32843  24123607.723                    24123608.4254
        38.900          22.6004
 121648621.504 7  94791142.99145  23148961.791                    23148959.0584
        45.800          31.5004
 111353042.588 8  86768607.20146  21189768.321                    21189766.9844
        51.300          40.9004
 118777090.826 7  92553601.38545  22602514.691                    22602514.3104
        46.400          32.8004
 16  1 15  0  1 42.0000000  0  8G23G16G32G09G06G07G03G26
 108291412.046 8  84382933.63347  20607159.772                    20607152.9784
        52.100          43.0004
 111232686.539 8  86674823.85146  21166862.978                    21166858.1974
        50.400          38.8004
 125422283.588 7  97731653.92744  23867069.060                    23867067.0974
        42.200          24.3004
 114891737.169 8  89526040.72746  21863163.361                    21863161.5914
        48.500          38.1004
 126771030.399 6  98782625.84943  24123725.768                    24123725.5154
        38.900          22.6004
 121646025.762 7  94789120.33845  23148467.874                    23148464.9614
        45.500          31.0004
 111355446.949 8  86770480.72646  21190225.696                    21190224.6124
        50.700          40.8004
 118778940.410 7  92555042.62045  22602866.558                    22602866.2304
        45.800          32.8004
 16  1 15  0  1 43.0000000  0  8G23G16G32G09G06G07G03G26
 108290690.841 8  84382371.65647  20607022.542                    20607015.7054
        51.300          42.6004
 111232555.135 8  86674721.45846  21166837.992                    21166833.2564
        50.200          38.8004
 125425723.675 7  97734334.50944  23867723.893                    23867721.8574
        42.200          24.3004
 114889549.920 8  89524336.37946  21862747.350                    21862745.2784
        49.300          38.1004
 126771646.310 6  98783105.77743  24123842.675                    24123842.7074
        38.900          22.6004
 121643430.241 7  94787097.85645  23147973.984                    23147971.1134
        45.500          31.0004
 111357851.792 8  86772354.63046  21190683.210                    21190682.2274
        50.700          40.8004
 118780790.578 7  92556484.31145  22603218.608                    22603218.2424
        45.900          32.8004
 16  1 15  0  1 44.0000000  0  8G23G16G32G09G06G07G03G26
 108289969.912 8  84381809.89547  20606885.544                    20606878.5754
        52.600          42.5004
 111232424.475 8  86674619.64646  21166813.131                    21166808.4584
        50.700          38.8004
 125429163.906 7  97737015.20544  23868378.775                    23868376.4284
        42.100          24.3004
 114887362.818 8  89522632.14546  21862331.224                    21862329.1644
        49.600          38.3004
 126772262.755 6  98783586.12443  24123959.983                    24123960.0354
        38.100          22.6004
 121640834.957 7  94785075.55645  23147480.053                    23147477.2484
        45.300          31.0004
 111360257.140 8  86774228.92646  21191141.054                    21191139.9934
        48.300          41.0004
 118782641.282 7  92557926.41745  22603571.021                    22603570.4484
        45.900          32.8004
 16  1 15  0  1 45.0000000  0  8G23G16G32G09G06G07G03G26
 108289249.196 8  84381248.29647  20606748.252                    20606741.4114
        51.800          42.6004
 111232294.480 8  86674518.35246  21166788.468                    21166783.6134
        50.800          38.6004
 125432604.240 7  97739695.98444  23869032.944                    23869031.1734
        42.100          24.3004
 114885175.796 8  89520927.97346  21861914.925                    21861913.0244
        49.200          38.3004
 126772879.695 6  98784066.85843  24124077.094                    24124077.3164
        38.100          22.6004
 121638239.847 7  94783053.39445  23146986.399                    23146983.4364
        45.100          31.0004
 111362662.899 8  86776103.54246  21191599.045                    21191597.8004
        49.300          41.0004
 118784492.488 7  92559368.91545  22603923.128                    22603922.7724
        45.900          32.8004
 16  1 15  0  1 46.0000000  0  8G23G16G32G09G06G07G03G26
 108288528.862 8  84380686.99447  20606611.273                    20606604.3334
        52.400          42.6004
 111232165.330 8  86674417.71446  21166763.898                    21166759.0254
        50.900          38.6004
 125436044.798 7  97742376.93444  23869688.046                    23869685.7954
        42.100          24.3004
 114882989.042 8  89519224.01046  21861498.689                    21861496.8684
        49.400          38.3004
 126773497.291 6  98784548.09943  24124194.797                    24124194.8204
        38.100          22.6004
 121635645.098 7  94781031.51245  23146492.681                    23146489.6154
        44.500          31.0004
 111365069.243 8  86777978.61546  21192056.809                    21192055.6794
        50.000          40.8004
 118786344.349 7  92560811.92145  22604275.453                    22604275.1624
        46.300          32.8004
 16  1 15  0  1 47.0000000  0  8G23G16G32G09G06G07G03G26
 108287808.761 8  84380125.87747  20606474.064                    20606467.2554
        52.300          42.8004
 111232036.853 8  86674317.60046  21166739.562                    21166734.4414
        50.500          38.6004
 125439485.481 7  97745057.98444  23870343.078                    23870340.5454
        42.300          24.3004
 114880802.365 8  89517520.10846  21861082.582                    21861080.9424
        49.200          38.3004
 126774115.368 6  98785029.71743  24124311.886                    24124312.3644
        38.100          22.6004
 121633050.485 7  94779009.73445  23145999.119                    23145995.8834
        44.800          31.0004
 111367476.055 8  86779854.05146  21192514.848                    21192513.6584
        50.800          40.8004
 118788196.703 7  92562255.31445  22604628.121                    22604627.6184
        45.300          32.8004
 16  1 15  0  1 48.0000000  0  8G23G16G32G09G06G07G03G26
 108287088.911 8  84379564.95347  20606337.079                    20606330.2594
        51.800          42.7004
 111231909.093 8  86674218.04846  21166715.375                    21166710.2004
        48.900          38.6004
 125442926.281 7  97747739.12644  23870997.600                    23870995.2354
        42.300          24.3004
 114878615.833 8  89515816.31746  21860666.498                    21860664.7594
        50.100          38.3004
 126774733.969 6  98785511.74143  24124429.563                    24124430.0934
        39.300          22.6004
 121630456.116 7  94776988.14845  23145505.102                    23145502.3044
        44.800          31.0004
 111369883.321 8  86781729.84146  21192972.961                    21192971.6864
        48.000          40.7004
 118790049.616 7  92563699.14245  22604980.527                    22604980.2324
        45.900          32.8004
 16  1 15  0  1 49.0000000  0  8G23G16G32G09G06G07G03G26
 108286369.352 8  84379004.25947  20606200.204                    20606193.3104
        52.500          42.8004
 111231782.063 8  86674119.06246  21166691.296                    21166686.0154
        49.700          38.5004
 125446367.204 7  97750420.36344  23871652.406                    23871650.0284
        43.100          24.8004
 114876429.442 8  89514112.63946  21860250.519                    21860248.6724
        48.900          38.3004
 126775353.106 6  98785994.18643  24124546.936                    24124547.9054
        39.300          22.6004
 121627861.966 7  94774966.73345  23145011.725                    23145008.7064
        44.500          31.0004
 111372291.077 8  86783606.01346  21193431.206                    21193429.8844
        49.800          40.7004
 118791903.085 7  92565143.40345  22605333.326                    22605332.9664
        46.200          32.8004
 16  1 15  0  1 50.0000000  0  8G23G16G32G09G06G07G03G26
 108285650.057 8  84378443.77047  20606063.236                    20606056.4174
        51.800          42.8004
 111231655.754 8  86674020.64046  21166667.281                    21166661.9334
        50.700          38.5004
 125449808.287 7  97753101.72544  23872307.048                    23872304.7974
        43.100          24.8004
 114874243.192 8  89512409.06646  21859834.526                    21859832.5974
        49.100          38.3004
 126775972.807 6  98786477.06943  24124664.255                    24124665.8554
        39.300          22.6004
 121625268.051 7  94772945.49945  23144518.137                    23144515.0734
        45.300          31.0004
 111374699.318 8  86785482.56446  21193889.761                    21193888.0654
        50.200          40.9004
 118793757.085 7  92566588.07645  22605686.209                    22605685.6844
        46.100          32.7004
 16  1 15  0  1 51.0000000  0  8G23G16G32G09G06G07G03G26
 108284931.108 8  84377883.54947  20605926.588                    20605919.6664
        52.200          42.5004
 111231530.244 8  86673922.84146  21166643.563                    21166638.0944
        50.500          38.5004
 125453249.606 7  97755783.27144  23872962.017                    23872959.6154
        43.100          24.8004
 114872057.140 8  89510705.64946  21859418.400                    21859416.4114
        48.500          38.2004
 126776593.082 6  98786960.40043  24124782.776                    24124783.8354
        39.300          22.6004
 121622674.414 7  94770924.48345  23144024.547                    23144021.6434
        45.600          31.0004
 111377108.108 8  86787359.54446  21194347.962                    21194346.4884
        50.900          41.2004
 118795611.716 7  92568033.24245  22606039.385                    22606038.6814
        46.100          32.7004
 16  1 15  0  1 52.0000000  0  8G23G16G32G09G06G07G03G26
 108284212.478 8  84377323.57847  20605789.754                    20605782.9584
        53.400          42.6004
 111231405.501 8  86673825.63946  21166619.871                    21166614.2944
        50.800          38.5004
 125456691.070 7  97758464.93044  23873616.682                    23873614.5414
        43.100          24.8004
 114869871.275 7  89509002.37846  21859002.478                    21859000.5004
        47.900          38.2004
 126777213.950 6  98787444.19243  24124901.209                    24124901.9584
        39.300          22.6004
 121620081.054 7  94768903.68245  23143531.208                    23143528.1714
        45.600          31.0004
 111379517.422 8  86789236.93246  21194806.261                    21194805.0674
        50.300          41.2004
 118797466.960 7  92569478.88745  22606392.612                    22606391.7534
        45.500          32.7004
 16  1 15  0  1 53.0000000  0  8G23G16G32G09G06G07G03G26
 108283494.026 8  84376763.74447  20605652.998                    20605646.2714
        52.600          42.5004
 111231281.379 8  86673728.92446  21166596.303                    21166590.6404
        50.400          38.5004
 125460132.579 7  97761146.62644  23874271.826                    23874269.5024
        43.500          24.8004
 114867685.452 8  89507299.14346  21858586.411                    21858584.5974
        48.800          38.2004
 126777835.254 6  98787928.32343  24125019.155                    24125020.2254
        39.100          22.6004
 121617487.827 7  94766882.98645  23143037.841                    23143034.7014
        45.600          31.0004
 111381927.118 8  86791114.61946  21195265.013                    21195263.6344
        49.900          40.9004
 118799322.638 7  92570924.87045  22606745.980                    22606744.9264
        45.400          32.7004
 16  1 15  0  1 54.0000000  0  8G23G16G32G09G06G07G03G26
 108282775.922 8  84376204.18247  20605516.288                    20605509.6334
        52.700          42.7004
 111231158.061 8  86673632.83246  21166572.913                    21166567.2254
        51.200          38.5004
 125463574.307 7  97763828.49044  23874926.617                    23874924.4914
        43.500          24.8004
 114865499.841 8  89505596.07046  21858170.615                    21858168.6324
        49.900          38.2004
 126778457.171 6  98788412.93243  24125137.806                    24125138.5484
        39.100          22.6004
 121614894.894 7  94764862.51645  23142544.388                    23142541.2514
        45.300          31.0004
 111384337.380 8  86792992.74446  21195723.524                    21195722.2894
        50.700          40.9004
 118801178.942 7  92572371.34045  22607099.044                    22607098.1834
        45.600          32.7004
 16  1 15  0  1 55.0000000  0  8G23G16G32G09G06G07G03G26
 108282058.118 8  84375644.85347  20605379.855                    20605373.0714
        51.300          42.7004
 111231035.496 8  86673537.32946  21166549.601                    21166543.9354
        52.100          38.5004
 125467016.238 7  97766510.51244  23875581.466                    23875579.4094
        42.800          24.8004
 114863314.408 8  89503893.13946  21857754.623                    21857752.7374
        48.500          38.1004
 126779079.628 6  98788897.96143  24125256.545                    24125256.9714
        39.100          22.6004
 121612302.218 7  94762842.24645  23142051.189                    23142047.8144
        45.600          31.0004
 111386748.149 8  86794871.26346  21196182.535                    21196180.9884
        50.300          40.9004
 118803035.823 7  92573818.25945  22607451.901                    22607451.3764
        45.800          32.7004
 16  1 15  0  1 56.0000000  0  8G23G16G32G09G06G07G03G26
 108281340.514 8  84375085.68147  20605243.287                    20605236.5184
        50.100          42.5004
 111230913.587 8  86673442.33746  21166526.160                    21166520.7804
        50.300          38.5004
 125470458.224 7  97769192.57644  23876236.530                    23876234.4234
        42.800          24.8004
 114861129.058 7  89502190.27146  21857338.855                    21857336.8474
        46.700          38.1004
 126779702.570 6  98789383.37043  24125375.453                    24125375.3754
        39.100          22.6004
 121609709.696 7  94760822.09645  23141558.132                    23141554.4594
        45.300          31.0004
 111389159.327 8  86796750.10246  21196641.402                    21196639.9074
        49.700          40.9004
 118804893.175 7  92575265.54745  22607805.509                    22607804.8984
        46.300          32.7004
 16  1 15  0  1 57.0000000  0  8G23G16G32G09G06G07G03G26
 108280623.211 8  84374526.74347  20605106.824                    20605100.0164
        52.700          42.8004
 111230792.422 8  86673347.92446  21166503.020                    21166497.7314
        50.600          38.5004
 125473900.347 7  97771874.75044  23876891.564                    23876889.5064
        43.000          24.8004
 114858943.854 8  89500487.51646  21856922.973                    21856920.9164
        48.300          38.1004
 126780326.058 6  98789869.20543  24125494.499                    24125494.0374
        39.200          22.6004
 121607117.418 7  94758802.13745  23141065.180                    23141061.1584
        44.700          31.0004
 111391571.016 8  86798629.34146  21197100.168                    21197098.8754
        50.300          40.7004
 118806751.115 7  92576713.29245  22608158.847                    22608158.3944
        45.900          32.7004
 16  1 15  0  1 58.0000000  0  8G23G16G32G09G06G07G03G26
 108279906.174 8  84373968.01147  20604970.472                    20604963.4884
        51.800          42.6004
 111230671.983 8  86673254.07946  21166480.234                    21166474.8274
        51.400          38.5004
 125477342.621 7  97774557.03944  23877546.997                    23877544.5044
        43.000          24.8004
 114856758.795 8  89498784.87546  21856507.195                    21856505.0264
        48.400          38.1004
 126780950.088 6  98790355.46343  24125612.818                    24125612.7894
        39.200          22.6004
 121604525.366 7  94756782.35545  23140571.964                    23140567.9124
        46.400          30.9004
 111393983.169 8  86800508.94246  21197559.238                    21197557.8164
        50.400          40.7004
 118808609.606 7  92578161.46645  22608512.595                    22608512.0074
        45.900          32.7004
 16  1 15  0  1 59.0000000  0  8G23G16G32G09G06G07G03G26
 108279189.490 8  84373409.55547  20604833.968                    20604827.1024
        52.500          42.6004
 111230552.347 8  86673160.85546  21166457.260                    21166452.0854
        50.600          38.4004
 125480785.111 7  97777239.49844  23878201.939                    23878199.6554
        43.700          24.8004
 114854573.945 8  89497082.39446  21856091.340                    21856089.1684
        48.000          38.0004
 126781574.728 6  98790842.19443  24125731.860                    24125731.7294
        39.200          22.6004
 121601933.622 7  94754762.81345  23140078.843                    23140074.7954
        46.100          30.9004
 111396395.889 8  86802388.98346  21198018.197                    21198016.9384
        50.800          40.5004
 118810468.691 7  92579610.10345  22608866.253                    22608865.8694
        45.900          32.7004
 16  1 15  0  2  0.0000000  0  8G23G16G32G09G06G07G03G26
 108278473.082 8  84372851.31447  20604697.562                    20604690.8014
        53.400          42.5004
 111230433.432 8  86673068.19746  21166434.755                    21166429.4414
        50.500          38.4004
 125484227.733 7  97779922.06044  23878857.257                    23878854.8034
        43.700          24.8004
 114852389.250 8  89495380.03546  21855675.750                    21855673.3474
        49.500          38.0004
 126782199.891 6  98791329.33643  24125850.414                    24125850.5814
        39.200          22.6004
 121599342.090 7  94752743.43845  23139585.874                    23139581.6994
        46.600          30.9004
 111398809.088 8  86804269.39746  21198477.296                    21198476.1834
        49.400          40.5004
 118812328.358 7  92581059.19545  22609220.254                    22609219.7774
        44.700          32.7004
 16  1 15  0  2  1.0000000  0  8G23G16G32G09G06G07G03G26
 108277756.898 8  84372293.24747  20604561.291                    20604554.5134
        51.500          42.3004
 111230315.200 8  86672976.07046  21166412.101                    21166406.9334
        49.700          38.4004
 125487670.461 7  97782604.70344  23879512.895                    23879509.8944
        42.600          24.8004
 114850204.626 8  89493677.73246  21855259.925                    21855257.5904
        48.700          38.0004
 126782825.596 6  98791816.89643  24125969.158                    24125969.7044
        39.100          22.6004
 121596750.741 7  94750724.20645  23139092.556                    23139088.6044
        46.600          30.9004
 111401222.741 8  86806150.16546  21198936.616                    21198935.5204
        49.600          41.0004
 118814188.522 7  92582508.67445  22609574.234                    22609573.6434
        45.000          32.7004
 16  1 15  0  2  2.0000000  0  8G23G16G32G09G06G07G03G26
 108277041.003 8  84371735.40847  20604425.112                    20604418.2644
        53.200          42.7004
 111230197.736 8  86672884.54146  21166389.872                    21166384.5274
        49.900          38.7004
 125491113.336 7  97785287.46044  23880167.977                    23880165.0044
        42.600          24.8004
 114848020.187 8  89491975.57346  21854844.284                    21854841.8874
        48.300          38.0004
 126783451.801 6  98792304.84843  24126087.755                    24126088.7964
        39.100          22.6004
 121594159.651 7  94748705.17445  23138599.321                    23138595.5044
        45.800          30.9004
 111403636.880 8  86808031.30946  21199395.969                    21199394.8914
        50.500          41.0004
 118816049.243 7  92583958.58545  22609928.090                    22609927.6544
        45.800          32.5004
 16  1 15  0  2  3.0000000  0  8G23G16G32G09G06G07G03G26
 108276325.399 8  84371177.79447  20604288.904                    20604282.1894
        52.600          42.7004
 111230081.013 8  86672793.58946  21166367.560                    21166362.2974
        50.300          38.7004
 125494556.358 7  97787970.33344  23880823.270                    23880820.2954
        43.000          24.8004
 114845835.905 8  89490273.53546  21854428.813                    21854426.2744
        49.100          38.1004
 126784078.577 6  98792793.24443  24126207.346                    24126208.0054
        39.100          22.6004
 121591568.787 7  94746686.31645  23138106.077                    23138102.4794
        46.200          30.9004
 111406051.516 8  86809912.84546  21199855.550                    21199854.3984
        49.200          40.6004
 118817910.554 7  92585408.95845  22610282.180                    22610281.8074
        45.800          32.5004
 16  1 15  0  2  4.0000000  0  8G23G16G32G09G06G07G03G26
 108275610.100 8  84370620.42047  20604152.759                    20604146.0024
        51.900          42.7004
 111229965.059 8  86672703.23646  21166345.350                    21166340.2334
        50.500          38.7004
 125497999.587 7  97790653.36644  23881478.062                    23881475.5634
        43.000          24.8004
 114843651.794 8  89488571.63246  21854013.265                    21854010.6134
        49.500          38.1004
 126784705.928 6  98793282.08943  24126326.351                    24126327.4344
        39.100          22.6004
 121588978.208 7  94744667.68645  23137612.921                    23137609.6164
        46.300          30.9004
 111408466.677 8  86811794.78746  21200315.097                    21200313.8884
        49.800          40.6004
 118819772.429 7  92586859.77045  22610636.322                    22610636.1564
        45.300          32.5004
 16  1 15  0  2  5.0000000  0  8G23G16G32G09G06G07G03G26
 108274895.030 8  84370063.22147  20604016.634                    20604009.9534
        52.900          42.7004
 111229849.792 8  86672613.41746  21166323.349                    21166318.2534
        50.000          38.7004
 125501442.908 7  97793336.47244  23882133.181                    23882130.7084
        43.100          24.8004
 114841467.787 8  89486869.80846  21853597.840                    21853595.0804
        49.600          38.1004
 126785333.780 6  98793771.32343  24126445.754                    24126446.8654
        39.100          22.6004
 121586387.767 7  94742649.16345  23137120.022                    23137116.7214
        46.300          30.9004
 111410882.276 8  86813677.07246  21200775.052                    21200773.6184
        50.100          40.9004
 118821634.827 7  92588310.99045  22610990.527                    22610990.5024
        45.100          32.5004
 16  1 15  0  2  6.0000000  0  8G23G16G32G09G06G07G03G26
 108274180.266 8  84369506.26247  20603880.657                    20603873.9364
        52.600          42.3004
 111229735.270 8  86672524.17946  21166301.760                    21166296.4764
        50.000          38.6004
 125504886.388 7  97796019.70144  23882788.610                    23882786.0304
        43.100          24.8004
 114839283.950 8  89485168.11746  21853182.029                    21853179.4614
        48.900          38.0004
 126785962.158 6  98794260.96943  24126566.018                    24126566.4014
        39.100          22.6004
 121583797.632 7  94740630.87845  23136627.123                    23136623.8744
        45.400          30.9004
 111413298.390 8  86815559.75946  21201234.810                    21201233.4224
        50.000          40.9004
 118823497.803 7  92589762.65845  22611345.173                    22611345.0604
        45.000          32.5004
 16  1 15  0  2  7.0000000  0  8G23G16G32G09G06G07G03G26
 108273465.747 8  84368949.49247  20603744.853                    20603737.9454
        52.900          42.7004
 111229621.434 8  86672435.47646  21166280.045                    21166274.8754
        50.400          38.6004
 125508329.962 7  97798703.00344  23883443.609                    23883441.3234
        43.800          24.8004
 114837100.226 8  89483466.51546  21852766.484                    21852763.8924
        49.300          38.0004
 126786591.047 6  98794751.01343  24126686.225                    24126686.1304
        39.100          22.6004
 121581207.665 7  94738612.72445  23136134.053                    23136130.9614
        46.000          30.9004
 111415714.955 8  86817442.79646  21201694.970                    21201693.3584
        49.800          41.0004
 118825361.286 7  92591214.72245  22611700.004                    22611699.7694
        45.200          32.5004
 16  1 15  0  2  8.0000000  0  8G23G16G32G09G06G07G03G26
 108272751.615 8  84368393.02747  20603608.949                    20603602.1244
        51.900          42.7004
 111229508.455 8  86672347.43946  21166258.568                    21166253.3534
        50.700          38.6004
 125511773.807 7  97801386.51944  23884099.091                    23884096.6244
        43.800          24.8004
 114834916.745 8  89481765.10146  21852350.976                    21852348.4264
        49.600          38.0004
 126787220.600 6  98795241.57543  24126806.050                    24126806.0044
        39.100          22.6004
 121578618.052 7  94736594.84345  23135641.143                    23135638.2514
        44.800          30.9004
 111418132.112 8  86819326.29546  21202154.657                    21202153.2924
        49.500          41.0004
 118827225.454 7  92592667.32145  22612054.813                    22612054.5214
        45.200          32.5004
 16  1 15  0  2  9.0000000  0  8G23G16G32G09G06G07G03G26
 108272037.739 8  84367836.76047  20603473.201                    20603466.2594
        51.000          42.5004
 111229396.183 8  86672259.95546  21166237.209                    21166231.9894
        50.500          38.6004
 125515217.770 7  97804070.12244  23884754.526                    23884752.0124
        42.800          24.8004
 114832733.398 8  89480063.79046  21851935.633                    21851932.9374
        49.000          38.0004
 126787850.667 6  98795732.53843  24126925.240                    24126925.8964
        39.100          22.6004
 121576028.640 7  94734577.12245  23135148.489                    23135145.4754
        44.800          30.9004
 111420549.737 8  86821210.15946  21202614.721                    21202613.3324
        49.900          40.7004
 118829090.129 7  92594120.31545  22612409.563                    22612409.2914
        44.800          32.5004
 16  1 15  0  2 10.0000000  0  8G23G16G32G09G06G07G03G26
 108271324.076 8  84367280.65847  20603337.289                    20603330.5044
        51.700          42.4004
 111229284.560 8  86672172.97646  21166215.952                    21166210.7514
        49.300          38.6004
 125518661.815 7  97806753.79444  23885409.752                    23885407.4674
        42.800          24.8004
 114830550.134 8  89478362.54746  21851520.017                    21851517.5354
        49.500          38.2004
 126788481.233 6  98796223.88843  24127045.385                    24127045.9984
        39.100          22.6004
 121573439.402 7  94732559.53145  23134655.550                    23134652.7404
        44.800          30.9004
 111422967.785 8  86823094.35146  21203074.815                    21203073.4054
        49.900          40.7004
 118830955.311 7  92595573.70645  22612764.490                    22612764.2164
        45.500          32.5004
 16  1 15  0  2 11.0000000  0  8G23G16G32G09G06G07G03G26
 108270610.754 8  84366724.82147  20603201.522                    20603194.7004
        51.600          42.4004
 111229173.743 8  86672086.62846  21166195.000                    21166189.6544
        48.200          38.6004
 125522106.079 7  97809437.63444  23886065.177                    23886062.8784
        43.300          24.8004
 114828367.075 7  89476661.46246  21851104.724                    21851102.0424
        47.900          38.2004
 126789112.374 6  98796715.68843  24127165.717                    24127166.2194
        38.300          22.6004
 121570850.476 7  94730542.18745  23134162.845                    23134160.1654
        44.900          30.9004
 111425386.375 8  86824978.96546  21203535.340                    21203533.6484
        50.300          41.1004
 118832821.103 7  92597027.56945  22613119.640                    22613119.2554
        44.600          32.5004
 16  1 15  0  2 12.0000000  0  8G23G16G32G09G06G07G03G26
 108269897.673 8  84366169.17447  20603065.876                    20603059.0014
        52.600          42.4004
 111229063.605 8  86672000.80746  21166173.899                    21166168.6974
        48.300          38.6004
 125525550.420 7  97812121.53544  23886720.661                    23886718.3304
        43.300          24.8004
 114826184.119 8  89474960.45546  21850689.343                    21850686.6594
        48.400          38.2004
 126789744.009 6  98797207.87443  24127285.795                    24127286.4754
        38.300          22.6004
 121568261.725 7  94728524.97845  23133670.515                    23133667.6644
        45.400          30.9004
 111427805.422 8  86826863.93746  21203995.535                    21203993.9914
        50.100          41.1004
 118834687.412 7  92598481.83545  22613474.908                    22613474.3874
        45.400          32.5004
 16  1 15  0  2 13.0000000  0  8G23G16G32G09G06G07G03G26
 108269184.875 8  84365613.74747  20602930.245                    20602923.4004
        53.200          42.5004
 111228954.210 8  86671915.56546  21166153.011                    21166147.8624
        49.900          38.6004
 125528994.910 7  97814805.55144  23887376.389                    23887373.6474
        43.400          24.8004
 114824001.320 8  89473259.57546  21850273.885                    21850271.3704
        49.100          38.2004
 126790376.224 6  98797700.51143  24127405.667                    24127406.7744
        38.300          22.6004
 121565673.190 7  94726507.93745  23133177.807                    23133175.0694
        45.200          30.9004
 111430224.951 8  86828749.28446  21204455.944                    21204454.3914
        49.800          40.9004
 118836554.273 7  92599936.53245  22613830.122                    22613829.5604
        45.400          32.5004
 16  1 15  0  2 14.0000000  0  8G23G16G32G09G06G07G03G26
 108268472.478 8  84365058.63247  20602794.687                    20602787.9074
        52.200          42.4004
 111228845.666 8  86671830.98646  21166132.359                    21166127.1374
        49.100          38.6004
 125532439.682 7  97817489.78744  23888031.951                    23888029.1014
        43.700          24.8004
 114821818.797 8  89471558.90946  21849858.587                    21849855.8704
        48.700          38.3004
 126791009.071 6  98798193.64243  24127526.499                    24127527.2324
        38.300          22.6004
 121563085.030 7  94724491.19045  23132685.218                    23132682.5194
        46.100          31.1004
 111432645.095 8  86830635.11246  21204916.446                    21204914.9374
        50.100          40.9004
 118838421.824 7  92601391.76545  22614185.602                    22614184.9664
        45.600          32.5004
 16  1 15  0  2 15.0000000  0  8G23G16G32G09G06G07G03G26
 108267760.230 8  84364503.63447  20602659.056                    20602652.3674
        52.200          42.5004
 111228737.731 8  86671746.88346  21166111.734                    21166106.5984
        49.300          38.6004
 125535884.485 7  97820174.04744  23888687.262                    23888684.6934
        43.700          24.8004
 114819636.268 8  89469858.23846  21849443.296                    21849440.5534
        48.200          38.3004
 126791642.350 6  98798687.10543  24127646.597                    24127647.8154
        38.300          22.6004
 121560496.948 7  94722474.50345  23132192.705                    23132189.9854
        46.100          31.1004
 111435065.570 8  86832521.19746  21205376.840                    21205375.5224
        49.300          40.8004
 118840289.758 7  92602847.30145  22614541.106                    22614540.4164
        45.800          32.5004
 16  1 15  0  2 16.0000000  0  8G23G16G32G09G06G07G03G26
 108267048.257 8  84363948.85147  20602523.564                    20602516.8714
        51.700          42.5004
 111228630.525 8  86671663.34746  21166091.380                    21166086.2624
        48.800          38.6004
 125539329.390 7  97822858.38944  23889342.835                    23889340.2554
        43.500          24.8004
 114817453.907 8  89468157.69746  21849028.009                    21849025.2884
        49.500          38.3004
 126792276.149 6  98799180.97743  24127766.759                    24127768.4634
        38.600          22.6004
 121557909.115 7  94720458.00945  23131700.581                    23131697.4924
        45.100          31.1004
 111437486.567 8  86834407.68746  21205837.443                    21205836.2674
        49.500          40.8004
 118842158.301 7  92604303.30745  22614896.844                    22614895.9184
        45.600          32.5004
 16  1 15  0  2 17.0000000  0  8G23G16G32G09G06G07G03G26
 108266336.632 8  84363394.33747  20602388.075                    20602381.4994
        52.300          42.3004
 111228524.105 8  86671580.42446  21166071.280                    21166066.0324
        50.000          38.6004
 125542774.521 7  97825542.90344  23889998.191                    23889995.8034
        43.500          24.8004
 114815271.745 8  89466457.31246  21848612.800                    21848610.0704
        48.400          38.3004
 126792910.569 6  98799675.33143  24127888.157                    24127889.0804
        38.600          22.6004
 121555321.580 7  94718441.74945  23131208.121                    23131205.2774
        45.100          31.1004
 111439908.091 8  86836294.58846  21206298.435                    21206297.0594
        50.300          40.7004
 118844027.436 7  92605759.77545  22615252.564                    22615251.6494
        45.200          32.5004
 16  1 15  0  2 18.0000000  0  8G23G16G32G09G06G07G03G26
 108265625.325 8  84362840.07247  20602252.829                    20602246.0774
        51.400          42.5004
 111228418.449 8  86671498.09546  21166051.071                    21166045.9024
        49.700          38.6004
 125546219.837 7  97828227.56444  23890653.645                    23890651.3594
        43.500          24.8004
 114813089.774 8  89464757.07446  21848197.606                    21848194.7864
        48.300          38.2004
 126793545.556 6  98800170.12643  24128008.739                    24128009.8414
        38.600          22.6004
 121552734.303 7  94716425.69045  23130715.721                    23130713.0064
        44.000          31.1004
 111442330.140 8  86838181.89746  21206759.168                    21206757.8814
        48.800          40.7004
 118845897.154 7  92607216.69845  22615608.320                    22615607.4734
        45.500          32.5004
 16  1 15  0  2 19.0000000  0  8G23G16G32G09G06G07G03G26
 108264914.198 8  84362285.94747  20602117.304                    20602110.7044
        53.000          42.7004
 111228313.444 8  86671416.27446  21166031.013                    21166025.9264
        49.100          38.8004
 125549665.208 7  97830912.26744  23891309.198                    23891307.0134
        43.500          24.8004
 114810907.853 8  89463056.87546  21847782.309                    21847779.5374
        49.700          38.2004
 126794180.964 6  98800665.25143  24128129.342                    24128130.7544
        38.600          22.6004
 121550147.163 7  94714409.73945  23130223.323                    23130220.6044
        44.000          31.1004
 111444752.588 8  86840069.51946  21207220.391                    21207218.8904
        50.100          40.8004
 118847767.327 7  92608673.97445  22615964.232                    22615963.3744
        45.500          32.5004
 16  1 15  0  2 20.0000000  0  8G23G16G32G09G06G07G03G26
 108264203.290 8  84361731.99347  20601982.151                    20601975.3854
        52.400          42.5004
 111228209.103 8  86671334.97146  21166011.267                    21166006.0374
        50.200          38.8004
 125553110.633 7  97833597.00944  23891965.073                    23891962.5784
        43.400          24.8004
 114808726.023 7  89461356.74946  21847366.934                    21847364.4414
        47.400          38.2004
 126794816.883 6  98801160.77643  24128250.395                    24128251.7554
        38.600          22.6004
 121547560.229 7  94712393.94545  23129731.245                    23129728.2904
        44.900          31.1004
 111447175.456 8  86841957.47046  21207681.513                    21207679.9354
        49.800          40.8004
 118849638.027 7  92610131.66245  22616320.276                    22616319.3004
        45.100          32.5004
 16  1 15  0  2 21.0000000  0  8G23G16G32G09G06G07G03G26
 108263492.758 8  84361178.33347  20601847.054                    20601840.2444
        53.200          42.5004
 111228105.575 8  86671254.29946  21165991.666                    21165986.3104
        50.300          38.8004
 125556556.306 7  97836281.94844  23892620.585                    23892618.3284
        43.400          24.8004
 114806544.422 8  89459656.80246  21846951.877                    21846949.3544
        49.200          38.0004
 126795453.413 6  98801656.77543  24128371.989                    24128372.8144
        38.600          22.6004
 121544973.601 7  94710378.39245  23129238.845                    23129236.0144
        44.900          31.1004
 111449598.909 8  86843845.87646  21208142.554                    21208140.9824
        49.400          40.7004
 118851509.340 7  92611589.83045  22616676.296                    22616675.4494
        45.300          32.5004
 16  1 15  0  2 22.0000000  0  8G23G16G32G09G06G07G03G26
 108262782.487 8  84360624.87347  20601711.854                    20601705.1244
        51.700          42.7004
 111228002.768 8  86671174.19046  21165972.132                    21165966.8204
        51.200          38.8004
 125560002.099 7  97838966.98044  23893276.526                    23893274.0354
        43.300          24.8004
 114804362.960 8  89457956.96246  21846536.820                    21846534.1414
        49.300          38.0004
 126796090.509 6  98802153.21443  24128493.416                    24128494.0404
        39.200          22.6004
 121542387.189 7  94708363.00745  23128746.757                    23128743.7964
        45.200          31.1004
 111452022.824 8  86845734.63846  21208603.734                    21208602.1754
        49.500          40.7004
 118853381.208 7  92613048.42845  22617032.392                    22617031.7364
        46.300          32.5004
 16  1 15  0  2 23.0000000  0  8G23G16G32G09G06G07G03G26
 108262072.492 8  84360071.63047  20601576.671                    20601569.9854
        52.100          42.5004
 111227900.686 8  86671094.64646  21165952.891                    21165947.2754
        50.700          38.7004
 125563448.035 7  97841652.12144  23893932.495                    23893929.7794
        43.300          24.8004
 114802181.634 8  89456257.22846  21846121.755                    21846119.1394
        48.800          38.0004
 126796728.079 6  98802650.02343  24128614.724                    24128615.3904
        39.200          22.6004
 121539800.973 7  94706347.77445  23128254.402                    23128251.6314
        44.200          31.1004
 111454447.230 8  86847623.78646  21209064.882                    21209063.6464
        50.900          40.4004
 118855253.611 7  92614507.44245  22617388.672                    22617388.0654
        45.800          32.5004
 16  1 15  0  2 24.0000000  0  8G23G16G32G09G06G07G03G26
 108261362.813 8  84359518.63247  20601441.715                    20601434.8984
        52.800          42.2004
 111227799.366 8  86671015.69546  21165933.734                    21165928.0014
        49.100          38.7004
 125566894.150 7  97844337.40344  23894588.045                    23894585.5254
        43.200          25.2004
 114800000.506 8  89454557.64846  21845706.425                    21845704.0784
        49.500          38.0004
 126797366.262 6  98803147.30843  24128736.372                    24128736.7474
        39.200          22.6004
 121537215.066 7  94704332.78245  23127762.495                    23127759.6094
        44.200          31.1004
 111456872.144 8  86849513.33046  21209526.371                    21209525.0224
        51.000          40.4004
 118857126.620 7  92615966.93045  22617744.962                    22617744.4034
        45.700          32.5004
 16  1 15  0  2 25.0000000  0  8G23G16G32G09G06G07G03G26
 108260653.429 8  84358965.86647  20601306.702                    20601299.9554
        51.900          42.2004
 111227698.800 8  86670937.33346  21165914.653                    21165908.8984
        49.500          38.7004
 125570340.420 7  97847022.80744  23895244.048                    23895241.3704
        43.200          25.2004
 114797819.523 8  89452858.18246  21845291.507                    21845288.9624
        49.300          38.2004
 126798004.986 6  98803645.01543  24128857.828                    24128858.3134
        39.200          21.2004
 121534629.390 7  94702317.96945  23127270.533                    23127267.5214
        44.100          31.1004
 111459297.583 8  86851403.28246  21209987.945                    21209986.6054
        49.700          40.8004
 118859000.193 7  92617426.85545  22618101.661                    22618100.9234
        45.700          32.5004
 16  1 15  0  2 26.0000000  0  8G23G16G32G09G06G07G03G26
 108259944.379 8  84358413.35847  20601171.838                    20601164.9714
        52.200          42.5004
 111227599.015 8  86670859.57746  21165895.413                    21165889.9474
        51.400          38.6004
 125573786.878 7  97849708.35844  23895899.885                    23895897.1184
        43.400          25.2004
 114795638.744 8  89451158.87446  21844876.557                    21844874.0094
        48.500          38.2004
 126798644.310 6  98804143.19043  24128979.640                    24128980.0064
        37.200          21.2004
 121532044.007 7  94700303.38545  23126778.564                    23126775.4524
        44.000          31.1004
 111461723.532 8  86853293.63146  21210449.674                    21210448.3174
        49.100          40.8004
 118860874.373 7  92618887.25445  22618458.398                    22618457.5574
        45.100          32.5004
 16  1 15  0  2 27.0000000  0  8G23G16G32G09G06G07G03G26
 108259235.582 8  84357861.04847  20601036.863                    20601030.0894
        53.000          42.3004
 111227499.948 8  86670782.38046  21165876.442                    21165871.0434
        51.700          38.6004
 125577233.469 7  97852394.01244  23896555.471                    23896552.9454
        43.400          25.2004
 114793458.084 8  89449459.65846  21844461.474                    21844459.1094
        49.000          38.2004
 126799284.130 6  98804641.75143  24129102.036                    24129101.7334
        37.200          21.2004
 121529458.827 7  94698288.96145  23126286.645                    23126283.4474
        44.300          31.1004
 111464149.978 8  86855184.36746  21210911.478                    21210910.1034
        50.200          40.8004
 118862749.082 7  92620348.06745  22618815.175                    22618814.3284
        45.300          32.4004
 16  1 15  0  2 28.0000000  0  8G23G16G32G09G06G07G03G26
 108258527.128 8  84357309.00547  20600901.853                    20600895.2414
        52.400          42.6004
 111227401.648 8  86670705.78346  21165857.813                    21165852.2814
        51.400          38.6004
 125580680.251 7  97855079.81444  23897211.548                    23897208.7814
        42.900          25.2004
 114791277.646 8  89447760.61746  21844046.562                    21844044.2564
        49.200          38.2004
 126799924.548 6  98805140.77843  24129223.616                    24129223.5304
        37.200          21.2004
 121526873.932 7  94696274.75745  23125794.776                    23125791.4684
        44.300          31.1004
 111466576.934 8  86857075.50146  21211373.213                    21211371.9244
        50.100          40.8004
 118864624.389 7  92621809.34445  22619172.155                    22619171.1604
        45.500          32.4004
 16  1 15  0  2 29.0000000  0  8G23G16G32G09G06G07G03G26
 108257818.846 8  84356757.09947  20600767.043                    20600760.4844
        52.800          42.5004
 111227303.984 8  86670629.68246  21165839.275                    21165833.7174
        51.100          38.6004
 125584127.065 7  97857765.64344  23897867.553                    23897864.6794
        42.900          25.2004
 114789097.252 8  89446061.61046  21843631.820                    21843629.4014
        48.500          38.3004
 126800565.425 6  98805640.16443  24129344.962                    24129345.5394
        37.200          21.2004
 121524289.153 7  94694260.64645  23125302.820                    23125299.5494
        43.900          31.1004
 111469004.293 8  86858966.94746  21211834.983                    21211833.8014
        50.900          40.6004
 118866500.177 7  92623270.99845  22619528.871                    22619528.0854
        45.400          32.4004
 16  1 15  0  2 30.0000000  0  8G23G16G32G09G06G07G03G26
 108257110.890 8  84356205.44647  20600632.426                    20600625.7834
        52.100          42.5004
 111227207.095 8  86670554.18646  21165820.877                    21165815.3064
        51.400          38.8004
 125587574.095 7  97860451.63944  23898523.767                    23898520.6284
        43.700          25.2004
 114786917.046 8  89444362.75046  21843216.800                    21843214.6104
        49.600          38.3004
 126801206.882 6  98806140.00143  24129467.053                    24129467.5984
        37.200          21.2004
 121521704.674 7  94692246.76745  23124810.929                    23124807.7584
        44.900          31.1004
 111471432.177 8  86860858.80446  21212297.192                    21212295.7764
        50.100          40.6004
 118868376.547 7  92624733.10445  22619885.695                    22619885.1584
        46.300          32.4004
 16  1 15  0  2 31.0000000  0  8G23G16G32G09G06G07G03G26
 108256403.151 8  84355653.96147  20600497.561                    20600491.0564
        52.100          42.5004
 111227110.888 8  86670479.22046  21165802.243                    21165797.0624
        50.000          38.8004
 125591021.194 7  97863137.68544  23899179.387                    23899176.4564
        43.700          25.2004
 114784736.940 8  89442663.96846  21842801.982                    21842799.7934
        48.200          38.3004
 126801848.823 6  98806640.21643  24129589.424                    24129589.8444
        38.700          21.2004
 121519120.364 7  94690233.01945  23124319.071                    23124315.8204
        44.300          31.0004
 111473860.486 8  86862750.99046  21212759.474                    21212757.9284
        49.700          40.8004
 118870253.419 7  92626195.60045  22620243.007                    22620242.3764
        46.300          32.4004
 16  1 15  0  2 32.0000000  0  8G23G16G32G09G06G07G03G26
 108255695.759 8  84355102.74647  20600363.197                    20600356.5634
        50.900          42.9004
 111227015.454 8  86670404.85846  21165784.174                    21165778.9174
        50.800          38.8004
 125594468.508 7  97865823.90444  23899835.579                    23899832.4084
        44.200          25.2004
 114782557.032 7  89440965.33746  21842387.195                    21842384.9414
        47.900          38.4004
 126802491.347 6  98807140.88543  24129711.604                    24129712.2404
        38.700          21.2004
 121516536.326 7  94688219.48345  23123827.527                    23123824.0974
        44.300          31.0004
 111476289.341 8  86864643.60446  21213221.841                    21213220.1604
        49.600          40.8004
 118872130.894 7  92627658.56845  22620600.095                    22620599.7054
        45.800          32.4004
 16  1 15  0  2 33.0000000  0  8G23G16G32G09G06G07G03G26
 108254988.651 8  84354551.75147  20600228.581                    20600221.9134
        51.800          42.3004
 111226920.773 8  86670331.08446  21165766.132                    21165760.8704
        50.900          38.7004
 125597915.970 7  97868510.23744  23900491.240                    23900488.4294
        44.200          25.2004
 114780377.280 8  89439266.83046  21841972.482                    21841970.3344
        48.700          38.4004
 126803134.427 6  98807641.98743  24129834.069                    24129834.5794
        38.700          21.2004
 121513952.546 7  94686206.14945  23123335.693                    23123332.3494
        45.200          31.0004
 111478718.684 8  86866536.59946  21213683.999                    21213682.4864
        49.400          40.4004
 118874008.941 7  92629121.98145  22620957.504                    22620956.9894
        45.900          32.4004
 16  1 15  0  2 34.0000000  0  8G23G16G32G09G06G07G03G26
 108254281.781 8  84354000.94447  20600094.107                    20600087.4034
        51.800          42.3004
 111226826.781 8  86670257.84446  21165748.092                    21165742.9384
        50.300          38.7004
 125601363.527 7  97871196.64444  23901147.746                    23901144.4934
        43.300          25.2004
 114778197.629 8  89437568.40246  21841557.709                    21841555.6444
        49.400          38.4004
 126803778.013 6  98808143.48243  24129956.480                    24129956.9304
        38.700          21.2004
 121511368.956 7  94684192.96445  23122844.215                    23122840.7294
        45.200          31.0004
 111481148.463 8  86868429.93546  21214146.370                    21214144.8274
        50.000          40.4004
 118875887.481 7  92630585.78045  22621315.150                    22621314.4724
        45.100          32.4004
 16  1 15  0  2 35.0000000  0  8G23G16G32G09G06G07G03G26
 108253575.204 8  84353450.36247  20599959.550                    20599952.9374
        51.800          42.4004
 111226733.549 8  86670185.19646  21165730.216                    21165725.1774
        51.000          38.7004
 125604811.243 7  97873883.17444  23901803.641                    23901800.5424
        43.300          25.2004
 114776018.148 8  89435870.10846  21841142.885                    21841140.8794
        48.100          38.4004
 126804422.164 6  98808645.41843  24130078.150                    24130079.5924
        38.700          21.2004
 121508785.623 7  94682179.97845  23122352.917                    23122349.1214
        44.800          31.0004
 111483578.777 8  86870323.68646  21214608.920                    21214607.2904
        49.300          40.8004
 118877766.605 7  92632050.03345  22621672.620                    22621672.1144
        45.400          32.4004
 16  1 15  0  2 36.0000000  0  8G23G16G32G09G06G07G03G26
 108252868.881 8  84352899.98147  20599825.078                    20599818.5824
        52.300          42.4004
 111226641.006 8  86670113.08646  21165712.577                    21165707.6724
        50.200          38.6004
 125608259.063 7  97876569.78544  23902459.537                    23902456.6284
        43.000          25.2004
 114773838.793 8  89434171.90946  21840728.245                    21840726.1074
        48.800          38.5004
 126805066.806 6  98809147.73743  24130201.177                    24130202.2414
        38.700          21.2004
 121506202.485 7  94680167.14445  23121861.225                    23121857.6184
        45.200          31.0004
 111486009.523 8  86872217.77646  21215071.644                    21215069.8094
        50.200          40.8004
 118879646.257 7  92633514.69645  22622030.201                    22622029.7434
        45.400          32.4004
 16  1 15  0  2 37.0000000  0  8G23G16G32G09G06G07G03G26
 108252162.847 8  84352349.82647  20599690.725                    20599684.1514
        52.700          42.4004
 111226549.193 8  86670041.54446  21165695.062                    21165690.1734
        51.000          38.6004
 125611707.047 7  97879256.52544  23903115.854                    23903112.7784
        43.000          25.2004
 114771659.573 8  89432473.81646  21840313.628                    21840311.5144
        48.700          38.5004
 126805711.991 6  98809650.47943  24130323.734                    24130324.9854
        38.700          21.2004
 121503619.570 7  94678154.48445  23121369.739                    23121366.0794
        45.200          31.0004
 111488440.759 8  86874112.24546  21215534.051                    21215532.5544
        50.200          40.7004
 118881526.438 7  92634979.77245  22622387.854                    22622387.5304
        45.400          32.4004
 16  1 15  0  2 38.0000000  0  8G23G16G32G09G06G07G03G26
 108251457.107 8  84351799.89847  20599556.519                    20599549.8474
        51.900          42.4004
 111226458.131 8  86669970.58746  21165678.007                    21165672.8604
        49.300          38.6004
 125615155.168 7  97881943.37144  23903771.646                    23903768.9154
        43.600          25.2004
 114769480.523 8  89430775.85646  21839898.668                    21839896.9734
        49.200          38.5004
 126806357.716 6  98810153.64443  24130446.776                    24130447.8514
        38.700          21.2004
 121501036.910 7  94676142.02145  23120878.076                    23120874.6414
        44.600          31.0004
 111490872.496 8  86876007.10346  21215996.791                    21215995.3294
        50.300          40.7004
 118883407.218 7  92636445.31645  22622745.549                    22622745.4624
        44.500          32.4004
 16  1 15  0  2 39.0000000  0  8G23G16G32G09G06G07G03G26
 108250751.746 8  84351250.26947  20599422.374                    20599415.6864
        52.700          42.7004
 111226367.896 8  86669900.27446  21165660.585                    21165655.5954
        49.000          38.6004
 125618603.544 7  97884630.41544  23904427.938                    23904425.0374
        43.600          25.2004
 114767301.715 8  89429078.08746  21839484.133                    21839482.3404
        49.200          38.7004
 126807004.089 6  98810657.31243  24130569.522                    24130570.8604
        38.700          21.2004
 121498454.576 7  94674129.81445  23120386.624                    23120383.2514
        45.100          31.0004
 111493304.819 8  86877902.42146  21216459.489                    21216458.1284
        49.400          40.7004
 118885288.626 7  92637911.34845  22623103.846                    22623103.4474
        45.700          32.4004
 16  1 15  0  2 40.0000000  0  8G23G16G32G09G06G07G03G26
 108250046.647 8  84350700.84047  20599288.012                    20599281.5204
        51.900          42.3004
 111226278.391 8  86669830.53346  21165643.539                    21165638.5454
        48.800          38.6004
 125622052.046 7  97887317.55844  23905084.201                    23905081.2414
        42.700          25.2004
 114765123.050 8  89427380.42646  21839069.553                    21839067.8654
        48.900          38.7004
 126807650.994 6  98811161.39343  24130692.976                    24130693.8364
        38.700          21.2004
 121495872.470 7  94672117.78745  23119895.199                    23119891.8914
        44.400          31.0004
 111495737.600 8  86879798.09646  21216922.439                    21216920.9904
        49.800          40.6004
 118887170.583 7  92639377.80745  22623462.187                    22623461.5844
        45.100          32.3004
 16  1 15  0  2 41.0000000  0  8G23G16G32G09G06G07G03G26
 108249341.809 8  84350151.61547  20599153.993                    20599147.3364
        50.700          42.5004
 111226189.583 8  86669761.33246  21165626.611                    21165621.6564
        49.100          38.6004
 125625500.666 7  97890004.79344  23905740.251                    23905737.4984
        42.800          25.2004
 114762944.496 8  89425682.85246  21838654.969                    21838653.3284
        50.100          38.7004
 126808298.433 6  98811665.89443  24130816.217                    24130816.9814
        38.700          21.2004
 121493290.568 7  94670105.91545  23119403.850                    23119400.5944
        44.400          31.0004
 111498170.851 8  86881694.13646  21217385.489                    21217383.9744
        49.000          40.6004
 118889053.070 7  92640844.68045  22623820.002                    22623819.8254
        44.800          32.3004
 16  1 15  0  2 42.0000000  0  8G23G16G32G09G06G07G03G26
 108248637.254 8  84349602.61247  20599020.051                    20599013.3564
        52.400          42.5004
 111226101.514 8  86669692.70946  21165609.916                    21165604.9054
        50.600          38.6004
 125628949.407 7  97892692.12244  23906396.451                    23906393.8504
        42.800          25.2004
 114760766.103 8  89423985.40346  21838240.494                    21838238.7914
        48.900          38.9004
 126808946.367 6  98812170.77943  24130940.068                    24130940.1704
        38.500          21.2004
 121490708.902 7  94668094.23045  23118912.445                    23118909.4004
        44.700          31.0004
 111500604.582 8  86883590.55246  21217848.468                    21217847.0884
        49.400          40.3004
 118890936.116 7  92642311.99145  22624178.473                    22624178.0444
        45.800          32.3004
 16  1 15  0  2 43.0000000  0  8G23G16G32G09G06G07G03G26
 108247932.950 8  84349053.80447  20598885.981                    20598879.2544
        53.500          42.5004
 111226014.146 8  86669624.63246  21165593.236                    21165588.2804
        50.500          38.6004
 125632398.309 7  97895379.57744  23907052.900                    23907050.3194
        42.800          25.2004
 114758587.833 8  89422288.05146  21837825.968                    21837824.3184
        49.500          38.9004
 126809594.856 6  98812676.09743  24131063.374                    24131063.5274
        38.500          21.2004
 121488127.437 7  94666082.69745  23118421.233                    23118418.1874
        44.600          31.0004
 111503038.790 8  86885487.33646  21218311.566                    21218310.2944
        49.300          40.3004
 118892819.680 7  92643779.70045  22624537.212                    22624536.4844
        45.800          32.3004
 16  1 15  0  2 44.0000000  0  8G23G16G32G09G06G07G03G26
 108247228.982 8  84348505.25847  20598751.932                    20598745.3204
        52.600          42.3004
 111225927.557 8  86669557.15946  21165577.037                    21165571.8674
        52.300          38.6004
 125635847.368 7  97898067.15644  23907709.452                    23907706.7404
        42.500          25.2004
 114756409.768 8  89420590.85946  21837411.355                    21837409.7754
        49.200          38.9004
 126810243.909 6  98813181.85343  24131187.263                    24131187.0854
        38.500          21.2004
 121485546.248 7  94664071.38545  23117929.747                    23117927.0034
        44.800          31.0004
 111505473.524 8  86887384.52946  21218774.901                    21218773.6104
        50.100          40.9004
 118894703.850 7  92645247.88445  22624895.686                    22624894.8784
        45.800          32.3004
 16  1 15  0  2 45.0000000  0  8G23G16G32G09G06G07G03G26
 108246525.223 8  84347956.87447  20598618.069                    20598611.3684
        52.800          42.7004
 111225841.640 8  86669490.21046  21165560.712                    21165555.4724
        50.800          38.6004
 125639296.517 7  97900754.80244  23908365.360                    23908363.0754
        42.500          25.2004
 114754231.775 8  89418893.72346  21836997.092                    21836995.3724
        49.700          39.0004
 126810893.444 6  98813687.98543  24131310.401                    24131310.7394
        38.500          21.2004
 121482965.236 7  94662060.20545  23117438.525                    23117435.9214
        44.800          31.0004
 111507908.680 8  86889282.05346  21219238.271                    21219236.9534
        49.300          40.9004
 118896588.500 7  92646716.44345  22625254.407                    22625253.5244
        45.200          32.3004
 16  1 15  0  2 46.0000000  0  8G23G16G32G09G06G07G03G26
 108245821.723 8  84347408.69147  20598484.264                    20598477.4974
        52.600          42.8004
 111225756.424 8  86669423.80846  21165544.435                    21165539.3034
        51.000          38.5004
 125642745.786 7  97903442.54344  23909021.472                    23909019.4954
        43.200          25.2004
 114752053.898 8  89417196.68046  21836582.577                    21836581.0884
        49.800          39.0004
 126811543.484 6  98814194.51143  24131434.719                    24131434.5014
        39.000          21.2004
 121480384.406 7  94660049.16945  23116947.391                    23116944.7974
        44.800          31.0004
 111510344.289 8  86891179.92946  21219701.694                    21219700.4204
        49.900          40.8004
 118898473.667 7  92648185.40245  22625613.012                    22625612.3124
        46.100          32.3004
 16  1 15  0  2 47.0000000  0  8G23G16G32G09G06G07G03G26
 108245118.600 8  84346860.80447  20598350.385                    20598343.7334
        53.600          42.8004
 111225672.034 8  86669358.05046  21165528.317                    21165523.2554
        52.100          38.5004
 125646195.287 7  97906130.46344  23909678.332                    23909675.9054
        43.200          25.2004
 114749876.283 8  89415499.83846  21836168.266                    21836166.7284
        49.500          39.0004
 126812194.154 6  98814701.52843  24131558.453                    24131558.4404
        39.000          21.2004
 121477803.928 7  94658038.41045  23116456.613                    23116453.8454
        44.600          30.9004
 111512780.461 8  86893078.24546  21220165.270                    21220163.9884
        50.000          40.8004
 118900359.502 7  92649654.88545  22625972.118                    22625971.1634
        46.200          32.3004
 16  1 15  0  2 48.0000000  0  8G23G16G32G09G06G07G03G26
 108244415.707 8  84346313.09447  20598216.700                    20598209.9264
        53.000          42.4004
 111225588.327 8  86669292.82446  21165512.372                    21165507.4294
        51.500          38.5004
 125649644.873 7  97908818.44944  23910334.840                    23910332.4144
        43.100          25.2004
 114747698.743 8  89413803.05346  21835753.791                    21835752.3764
        49.300          38.9004
 126812845.310 6  98815208.92243  24131682.428                    24131682.2244
        39.000          21.2004
 121475223.626 7  94656027.78645  23115965.576                    23115962.9214
        44.300          30.9004
 111515217.094 8  86894976.91946  21220628.938                    21220627.6954
        50.900          40.4004
 118902245.831 7  92651124.75145  22626331.193                    22626330.1344
        46.100          32.3004
 16  1 15  0  2 49.0000000  0  8G23G16G32G09G06G07G03G26
 108243713.142 8  84345765.64147  20598082.933                    20598076.3024
        52.700          42.4004
 111225505.404 8  86669228.20946  21165496.486                    21165491.6114
        50.700          38.5004
 125653094.659 7  97911506.59244  23910991.060                    23910988.9604
        43.100          25.2004
 114745521.412 8  89412106.43346  21835339.576                    21835337.9994
        49.300          38.9004
 126813497.058 6  98815716.78243  24131805.785                    24131806.1924
        39.000          21.2004
 121472643.603 7  94654017.37945  23115474.854                    23115471.9014
        44.300          30.9004
 111517654.253 8  86896876.00246  21221092.776                    21221091.3934
        49.100          40.4004
 118904132.756 7  92652595.08345  22626690.316                    22626689.1014
        45.500          32.3004
 16  1 15  0  2 50.0000000  0  8G23G16G32G09G06G07G03G26
 108243010.852 8  84345218.40247  20597949.269                    20597942.7214
        51.800          42.5004
 111225423.204 8  86669164.15646  21165480.837                    21165475.8834
        49.800          38.7004
 125656544.563 7  97914194.82744  23911647.550                    23911645.4654
        42.300          25.2004
 114743344.234 8  89410409.93346  21834925.074                    21834923.6914
        48.600          38.9004
 126814149.363 6  98816225.07343  24131929.753                    24131930.3794
        39.000          21.2004
 121470063.821 7  94652007.15945  23114983.819                    23114980.9404
        44.400          30.9004
 111520091.883 8  86898775.45146  21221556.735                    21221555.3874
        48.800          40.5004
 118906020.253 7  92654065.85945  22627049.368                    22627048.3094
        45.900          32.3004
 16  1 15  0  2 51.0000000  0  8G23G16G32G09G06G07G03G26
 108242308.844 8  84344671.38147  20597815.741                    20597809.1284
        51.800          42.5004
 111225341.718 8  86669100.66046  21165465.374                    21165460.3514
        50.500          38.7004
 125659994.632 7  97916883.18944  23912304.190                    23912301.9924
        42.300          25.2004
 114741167.191 8  89408713.53446  21834510.933                    21834509.4394
        48.600          39.1004
 126814802.159 6  98816733.74543  24132053.909                    24132054.6244
        40.200          21.2004
 121467484.266 7  94649997.11345  23114493.141                    23114490.0594
        44.700          30.9004
 111522529.999 8  86900675.28446  21222020.694                    21222019.3564
        50.200          40.5004
 118907908.271 7  92655537.04345  22627408.706                    22627407.6114
        45.900          32.3004
 16  1 15  0  2 52.0000000  0  8G23G16G32G09G06G07G03G26
 108241607.100 8  84344124.56947  20597682.219                    20597675.5174
        51.800          42.5004
 111225260.979 8  86669037.74946  21165450.165                    21165445.0124
        50.900          38.7004
 125663444.818 7  97919571.64344  23912960.240                    23912958.5454
        42.900          25.2004
 114738990.303 8  89407017.26146  21834096.699                    21834095.1754
        48.800          39.1004
 126815455.520 6  98817242.86043  24132178.318                    24132179.0184
        40.200          21.2004
 121464904.920 7  94647987.23445  23114001.868                    23113999.3204
        44.700          30.9004
 111524968.596 8  86902575.49046  21222484.727                    21222483.4074
        50.400          40.4004
 118909796.835 7  92657008.65245  22627768.006                    22627767.0004
        46.400          32.3004
 16  1 15  0  2 53.0000000  0  8G23G16G32G09G06G07G03G26
 108240905.643 8  84343577.97747  20597548.869                    20597541.9244
        52.700          42.6004
 111225180.954 8  86668975.39146  21165434.937                    21165429.8344
        50.400          38.5004
 125666895.143 7  97922260.20444  23913617.068                    23913615.0964
        42.900          25.2004
 114736813.552 8  89405321.09146  21833682.328                    21833680.8314
        48.200          39.1004
 126816109.416 6  98817752.39243  24132302.615                    24132303.4924
        40.200          21.2004
 121462325.819 7  94645977.54645  23113511.046                    23113508.4664
        44.500          30.9004
 111527407.676 8  86904476.07246  21222949.003                    21222947.5714
        50.300          40.4004
 118911685.979 7  92658480.71245  22628127.617                    22628126.4044
        45.800          32.3004
 16  1 15  0  2 54.0000000  0  8G23G16G32G09G06G07G03G26
 108240204.517 8  84343031.64747  20597415.389                    20597408.6054
        51.500          42.6004
 111225101.717 8  86668913.64946  21165419.745                    21165414.8714
        50.000          38.5004
 125670345.682 7  97924948.93344  23914273.594                    23914271.6924
        43.500          25.2004
 114734636.995 8  89403625.07346  21833268.047                    21833266.6654
        48.300          39.1004
 126816763.889 6  98818262.37243  24132427.618                    24132427.9724
        40.200          21.2004
 121459746.983 7  94643968.06445  23113020.103                    23113017.7904
        45.200          30.9004
 111529847.296 8  86906377.07646  21223413.088                    21223411.8864
        49.500          40.5004
 118913575.692 7  92659953.21545  22628487.150                    22628485.9464
        45.600          32.3004
 16  1 15  0  2 55.0000000  0  8G23G16G32G09G06G07G03G26
 108239503.671 8  84342485.53347  20597282.024                    20597275.1464
        52.000          42.3004
 111225023.215 8  86668852.47846  21165404.976                    21165399.8844
        49.700          38.5004
 125673796.330 7  97927637.74944  23914930.239                    23914928.3154
        43.500          25.2004
 114732460.591 8  89401929.17746  21832853.853                    21832852.4684
        48.500          38.9004
 126817418.909 6  98818772.78043  24132552.838                    24132552.6144
        39.900          21.2004
 121457168.379 7  94641958.76345  23112529.625                    23112527.0314
        45.400          30.9004
 111532287.379 8  86908278.43746  21223877.384                    21223876.2884
        49.800          40.5004
 118915465.971 7  92661426.15945  22628846.804                    22628845.7014
        45.900          32.3004
 16  1 15  0  2 56.0000000  0  8G23G16G32G09G06G07G03G26
 108238803.061 8  84341939.60247  20597148.430                    20597141.8624
        51.800          42.3004
 111224945.393 8  86668791.83946  21165390.340                    21165384.9514
        49.900          38.5004
 125677247.066 7  97930326.63144  23915587.050                    23915584.9824
        42.900          25.2004
 114730284.299 8  89400233.36746  21832439.742                    21832438.3174
        49.300          38.9004
 126818074.414 6  98819283.56543  24132676.999                    24132677.4154
        39.900          21.2004
 121454589.971 7  94639949.61545  23112038.872                    23112036.3154
        45.400          30.9004
 111534727.909 8  86910180.14746  21224342.005                    21224340.7064
        50.200          40.8004
 118917356.741 7  92662899.48645  22629206.298                    22629205.5264
        46.000          32.3004
 16  1 15  0  2 57.0000000  0  8G23G16G32G09G06G07G03G26
 108238102.701 8  84341393.86647  20597015.174                    20597008.5884
        51.600          42.5004
 111224868.266 8  86668731.73946  21165375.554                    21165370.3154
        49.900          38.5004
 125680697.937 7  97933015.61744  23916244.199                    23916241.6334
        42.900          25.2004
 114728108.101 8  89398537.62846  21832025.695                    21832024.2134
        49.000          38.9004
 126818730.403 6  98819794.72543  24132802.018                    24132802.2504
        39.900          21.2004
 121452011.740 7  94637940.60645  23111548.498                    23111545.5904
        45.400          30.9004
 111537168.883 8  86912082.20546  21224806.413                    21224805.2474
        51.000          40.8004
 118919248.032 7  92664373.22045  22629566.476                    22629565.4974
        46.000          32.3004
 16  1 15  0  2 58.0000000  0  8G23G16G32G09G06G07G03G26
 108237402.656 8  84340848.37747  20596882.027                    20596875.4324
        51.800          42.5004
 111224791.922 8  86668672.25146  21165360.884                    21165355.7104
        49.800          38.5004
 125684148.971 7  97935704.73344  23916900.730                    23916898.4204
        43.800          25.2004
 114725932.108 8  89396842.05146  21831611.842                    21831610.0844
        48.900          38.8004
 126819386.995 6  98820306.35743  24132926.492                    24132927.2984
        39.900          21.2004
 121449433.810 7  94635931.83045  23111057.975                    23111055.0544
        45.700          30.9004
 111539610.390 8  86913984.68046  21225271.108                    21225269.9444
        51.000          40.7004
 118921139.929 7  92665847.42545  22629926.310                    22629925.4354
        46.200          32.3004
 16  1 15  0  2 59.0000000  0  8G23G16G32G09G06G07G03G26
 108236702.919 8  84340303.12947  20596748.807                    20596742.2744
        51.900          42.5004
 111224716.319 8  86668613.33946  21165346.690                    21165341.3654
        49.900          38.5004
 125687600.147 7  97938393.95744  23917557.870                    23917555.2334
        43.800          25.2004
 114723756.276 8  89395146.59846  21831197.690                    21831196.0384
        48.500          38.8004
 126820044.127 6  98820818.40843  24133052.044                    24133052.4144
        39.700          21.2004
 121446856.136 7  94633923.25545  23110567.555                    23110564.5664
        46.100          30.9004
 111542052.406 8  86915887.54846  21225735.488                    21225734.6334
        48.200          40.7004
 118923032.399 7  92667322.07545  22630286.303                    22630285.6044
        45.300          32.3004
 16  1 15  0  3  0.0000000  0  8G23G16G32G09G06G07G03G26
 108236003.544 8  84339758.16147  20596615.845                    20596609.2164
        53.400          42.5004
 111224641.540 8  86668555.06946  21165332.326                    21165327.1944
        49.700          38.6004
 125691051.568 7  97941083.37544  23918214.521                    23918212.1324
        42.600          25.3004
 114721580.683 8  89393451.33146  21830783.525                    21830782.0284
        48.800          38.8004
 126820701.900 6  98821330.95843  24133177.166                    24133177.5204
        39.700          21.2004
 121444278.763 7  94631914.91145  23110077.052                    23110074.0714
        46.100          30.9004
 111544494.976 8  86917790.85146  21226200.168                    21226199.5104
        50.400          40.6004
 118924925.495 7  92668797.21545  22630646.707                    22630645.7984
        46.100          32.3004
 16  1 15  0  3  1.0000000  0  8G23G16G32G09G06G07G03G26
 108235304.375 8  84339213.35647  20596482.776                    20596476.1584
        52.200          42.3004
 111224567.419 8  86668497.31346  21165318.184                    21165313.1284
        49.400          38.6004
 125694503.055 7  97943772.84244  23918870.999                    23918868.8764
        42.600          25.3004
 114719405.152 8  89391756.11446  21830369.701                    21830367.9114
        49.200          38.8004
 126821360.112 6  98821843.85243  24133302.344                    24133302.6284
        39.700          21.2004
 121441701.545 7  94629906.69145  23109586.752                    23109583.7164
        44.900          30.9004
 111546937.944 8  86919694.46346  21226665.349                    21226664.3104
        50.700          40.6004
 118926819.062 7  92670272.72245  22631007.059                    22631006.1734
        46.600          32.3004
 16  1 15  0  3  2.0000000  0  8G23G16G32G09G06G07G03G26
 108234605.456 8  84338668.74347  20596349.584                    20596343.1694
        51.900          42.4004
 111224493.993 8  86668440.10046  21165304.320                    21165299.1394
        49.300          38.6004
 125697954.660 7  97946462.40244  23919527.478                    23919525.6904
        42.700          25.3004
 114717229.766 8  89390061.00746  21829955.876                    21829953.8854
        48.900          38.8004
 126822018.852 6  98822357.15543  24133427.650                    24133428.1064
        39.700          21.2004
 121439124.538 7  94627898.63645  23109096.290                    23109093.3004
        44.800          30.9004
 111549381.386 8  86921598.44546  21227130.313                    21227129.2674
        49.800          40.5004
 118928713.147 7  92671748.63145  22631367.574                    22631366.6714
        46.000          32.3004
 16  1 15  0  3  3.0000000  0  8G23G16G32G09G06G07G03G26
 108233906.841 8  84338124.36847  20596216.766                    20596210.2544
        51.100          42.2004
 111224421.323 8  86668383.47546  21165290.360                    21165285.3944
        49.500          38.5004
 125701406.407 7  97949152.07544  23920184.826                    23920182.5644
        42.700          25.3004
 114715054.541 8  89388366.02846  21829541.861                    21829539.9384
        48.000          38.8004
 126822678.147 6  98822870.89143  24133552.902                    24133553.6484
        38.800          21.2004
 121436547.775 7  94625890.77145  23108605.841                    23108602.8724
        43.500          30.9004
 111551825.329 8  86923502.81346  21227595.447                    21227594.3314
        49.200          40.5004
 118930607.808 7  92673224.99045  22631728.129                    22631727.2454
        46.000          32.3004
 16  1 15  0  3  4.0000000  0  8G23G16G32G09G06G07G03G26
 108233208.467 8  84337580.18147  20596083.890                    20596077.3664
        52.400          42.2004
 111224349.344 8  86668327.38946  21165276.825                    21165271.6794
        50.200          38.5004
 125704858.270 7  97951841.83544  23920842.075                    23920839.4824
        43.100          25.3004
 114712879.408 8  89386671.11746  21829127.917                    21829125.9784
        49.500          38.6004
 126823337.940 6  98823385.01443  24133678.236                    24133679.2074
        38.800          21.2004
 121433971.218 7  94623883.06545  23108115.599                    23108112.5814
        45.000          30.9004
 111554269.702 8  86925407.51846  21228060.735                    21228059.5584
        50.500          40.8004
 118932502.984 7  92674701.75245  22632088.705                    22632087.9124
        44.800          32.3004
 16  1 15  0  3  5.0000000  0  8G23G16G32G09G06G07G03G26
 108232510.406 8  84337036.23847  20595950.998                    20595944.4864
        51.300          42.2004
 111224278.131 8  86668271.90046  21165263.294                    21165258.1354
        49.500          38.5004
 125708310.290 7  97954531.71844  23921498.557                    23921496.3294
        43.100          25.3004
 114710704.474 8  89384976.36446  21828714.029                    21828712.1464
        48.200          38.6004
 126823998.299 6  98823899.58043  24133803.949                    24133804.8874
        38.800          21.2004
 121431394.904 7  94621875.55045  23107625.317                    23107622.3394
        45.000          30.9004
 111556714.620 8  86927312.65146  21228526.104                    21228524.9234
        48.700          40.8004
 118934398.739 7  92676178.96345  22632449.602                    22632448.6814
        45.400          32.3004
 16  1 15  0  3  6.0000000  0  8G23G16G32G09G06G07G03G26
 108231812.634 8  84336492.51947  20595818.248                    20595811.6744
        52.300          42.0004
 111224207.648 8  86668216.97746  21165249.949                    21165244.5104
        50.900          38.5004
 125711762.491 7  97957221.74344  23922155.478                    23922153.2534
        42.900          25.3004
 114708529.691 8  89383281.72846  21828300.214                    21828298.3574
        48.900          38.6004
 126824659.211 6  98824414.57343  24133929.579                    24133930.6114
        38.800          21.2004
 121428818.859 7  94619868.24345  23107135.023                    23107132.1044
        44.600          30.9004
 111559160.010 8  86929218.14846  21228991.361                    21228990.1964
        48.900          40.6004
 118936295.067 7  92677656.62145  22632810.510                    22632809.6614
        45.200          32.1004
 16  1 15  0  3  7.0000000  0  8G23G16G32G09G06G07G03G26
 108231115.160 8  84335949.03447  20595685.475                    20595678.9084
        53.400          42.6004
 111224137.924 8  86668162.64746  21165236.469                    21165231.3464
        50.200          38.7004
 125715214.815 7  97959911.86444  23922812.425                    23922810.1704
        42.900          25.3004
 114706355.069 8  89381587.22146  21827886.425                    21827884.5234
        48.300          38.6004
 126825320.665 6  98824929.99343  24134055.587                    24134056.6044
        38.800          21.2004
 121426243.056 7  94617861.12445  23106645.132                    23106641.9494
        44.900          30.9004
 111561605.906 8  86931124.03946  21229456.746                    21229455.6374
        50.400          40.6004
 118938191.948 7  92679134.71245  22633171.388                    22633170.6184
        46.000          32.1004
 16  1 15  0  3  8.0000000  0  8G23G16G32G09G06G07G03G26
 108230417.977 8  84335405.77347  20595552.917                    20595546.2384
        52.300          42.4004
 111224068.936 8  86668108.89146  21165223.579                    21165218.2764
        50.100          38.7004
 125718667.265 7  97962602.08344  23923469.520                    23923467.0564
        43.400          25.3004
 114704180.605 8  89379892.83246  21827472.482                    21827470.6464
        49.300          38.6004
 126825982.660 6  98825445.83143  24134181.352                    24134182.5264
        38.800          21.2004
 121423667.504 7  94615854.20045  23106154.886                    23106151.8234
        45.800          30.9004
 111564052.294 8  86933030.31446  21229922.340                    21229921.0734
        50.700          40.6004
 118940089.388 7  92680613.24045  22633532.441                    22633531.7404
        46.000          32.1004
 16  1 15  0  3  9.0000000  0  8G23G16G32G09G06G07G03G26
 108229721.101 8  84334862.75347  20595420.354                    20595413.6574
        52.300          42.4004
 111224000.714 8  86668055.72946  21165210.608                    21165205.1624
        49.300          38.7004
 125722119.962 7  97965292.49444  23924126.197                    23924124.2254
        43.400          25.3004
 114702006.337 8  89378198.59846  21827058.597                    21827057.0424
        48.200          38.6004
 126826645.260 6  98825962.14143  24134307.851                    24134308.5544
        38.800          21.2004
 121421092.204 7  94613847.47445  23105664.947                    23105661.7404
        43.900          30.9004
 111566499.186 8  86934936.97846  21230387.887                    21230386.7534
        50.700          40.6004
 118941987.420 7  92682092.22745  22633893.257                    22633892.7964
        45.300          32.1004
 16  1 15  0  3 10.0000000  0  8G23G16G32G09G06G07G03G26
 108229024.483 8  84334319.93347  20595287.810                    20595281.1534
        52.500          42.6004
 111223933.182 8  86668003.10946  21165197.523                    21165192.3754
        50.300          38.5004
 125725572.727 7  97967982.96044  23924783.567                    23924781.2214
        43.000          25.3004
 114699832.173 8  89376504.44546  21826644.873                    21826643.2534
        48.600          38.6004
 126827308.325 6  98826478.81343  24134434.286                    24134434.7574
        38.800          21.2004
 121418517.095 7  94611840.89445  23105174.682                    23105171.7514
        43.900          30.9004
 111568946.534 8  86936844.00346  21230853.469                    21230852.4474
        49.700          40.7004
 118943885.976 7  92683571.62245  22634254.604                    22634254.0794
        45.400          32.1004
 16  1 15  0  3 11.0000000  0  8G23G16G32G09G06G07G03G26
 108228328.153 8  84333777.34047  20595155.338                    20595148.7034
        53.100          42.4004
 111223866.405 8  86667951.07746  21165184.710                    21165179.7064
        50.500          38.5004
 125729025.636 7  97970673.53744  23925440.755                    23925438.2404
        43.000          25.3004
 114697658.199 8  89374810.44046  21826231.289                    21826229.5144
        49.200          38.6004
 126827971.936 6  98826995.91243  24134560.638                    24134561.0454
        38.800          21.2004
 121415942.254 7  94609834.52345  23104684.920                    23104681.7584
        45.200          30.9004
 111571394.389 8  86938751.42246  21231319.270                    21231318.3204
        49.200          40.7004
 118945785.069 7  92685051.43645  22634615.919                    22634615.4044
        45.500          32.1004
 16  1 15  0  3 12.0000000  0  8G23G16G32G09G06G07G03G26
 108227632.146 8  84333234.99547  20595022.934                    20595016.3024
        53.100          42.3004
 111223800.387 8  86667899.63446  21165172.233                    21165167.0704
        51.400          38.5004
 125732478.751 7  97973364.27244  23926097.677                    23926095.3194
        42.700          25.3004
 114695484.370 8  89373116.54846  21825817.601                    21825815.7864
        50.300          38.6004
 126828636.137 6  98827513.46943  24134686.297                    24134687.4124
        38.800          21.2004
 121413367.667 7  94607828.35145  23104195.061                    23104191.8824
        45.800          30.9004
 111573842.748 8  86940659.23446  21231785.068                    21231784.2154
        51.100          40.6004
 118947684.770 7  92686531.72245  22634977.435                    22634976.9524
        45.300          32.1004
 16  1 15  0  3 13.0000000  0  8G23G16G32G09G06G07G03G26
 108226936.365 8  84332692.82947  20594890.482                    20594883.7704
        53.000          42.8004
 111223735.031 8  86667848.70946  21165159.952                    21165154.6704
        51.000          38.5004
 125735931.905 7  97976055.03844  23926754.733                    23926752.3864
        42.700          25.3004
 114693310.635 8  89371422.73046  21825404.056                    21825402.0984
        48.300          38.6004
 126829300.809 6  98828031.39843  24134813.339                    24134813.9564
        39.300          21.2004
 121410793.251 7  94605822.31245  23103704.958                    23103701.9994
        44.700          30.9004
 111576291.521 8  86942567.36946  21232251.149                    21232250.2384
        50.000          40.6004
 118949584.950 7  92688012.38245  22635338.739                    22635338.6284
        45.300          32.1004
 16  1 15  0  3 14.0000000  0  8G23G16G32G09G06G07G03G26
 108226240.858 8  84332150.87547  20594758.152                    20594751.4514
        52.400          42.8004
 111223670.414 8  86667798.36046  21165147.570                    21165142.3004
        50.400          38.6004
 125739385.220 7  97978745.93044  23927411.915                    23927409.4464
        43.100          25.3004
 114691137.059 8  89369729.03546  21824990.254                    21824988.4124
        48.600          38.4004
 126829966.051 6  98828549.76743  24134939.734                    24134940.5554
        39.300          21.2004
 121408219.059 7  94603816.44745  23103215.221                    23103212.1524
        44.700          30.9004
 111578740.776 8  86944475.87846  21232717.345                    21232716.2404
        50.400          40.7004
 118951485.674 7  92689493.46545  22635700.592                    22635700.2844
        44.500          32.1004
 16  1 15  0  3 15.0000000  0  8G23G16G32G09G06G07G03G26
 108225545.697 8  84331609.19247  20594625.630                    20594619.0294
        52.200          42.6004
 111223606.594 8  86667748.63046  21165135.374                    21165130.1344
        50.400          38.6004
 125742838.733 7  97981436.97744  23928068.918                    23928066.6714
        43.100          25.3004
 114688963.690 7  89368035.50046  21824576.817                    21824574.8484
        47.800          38.4004
 126830631.845 6  98829068.56643  24135066.275                    24135067.3304
        39.300          21.2004
 121405645.183 7  94601810.82645  23102725.491                    23102722.2314
        44.900          30.9004
 111581190.591 8  86946384.82446  21233183.674                    21233182.4364
        50.800          40.7004
 118953387.025 7  92690975.03945  22636062.492                    22636062.0694
        45.000          32.1004
 16  1 15  0  3 16.0000000  0  8G23G16G32G09G06G07G03G26
 108224850.789 8  84331067.70547  20594493.442                    20594486.8214
        51.900          42.5004
 111223543.475 8  86667699.44746  21165123.256                    21165118.1784
        48.800          38.6004
 125746292.348 7  97984128.10444  23928726.361                    23928723.8744
        43.100          25.3004
 114686790.444 8  89366342.06346  21824163.293                    21824161.1934
        48.100          38.4004
 126831298.153 6  98829587.76743  24135193.019                    24135194.1104
        39.300          21.2004
 121403071.505 7  94599805.36345  23102236.067                    23102232.4414
        45.100          30.9004
 111583640.855 8  86948294.12046  21233649.790                    21233648.6494
        49.400          40.7004
 118955288.882 7  92692457.00545  22636424.164                    22636423.9344
        45.000          32.1004
 16  1 15  0  3 17.0000000  0  8G23G16G32G09G06G07G03G26
 108224156.139 8  84330526.42047  20594361.322                    20594354.6274
        52.800          42.3004
 111223481.077 8  86667650.82646  21165111.412                    21165106.2634
        50.800          38.6004
 125749746.103 7  97986819.34044  23929383.336                    23929381.1734
        42.000          25.3004
 114684617.342 7  89364648.73746  21823749.899                    21823747.6604
        47.700          38.4004
 126831965.003 6  98830107.39043  24135319.835                    24135321.0104
        39.400          21.2004
 121400498.039 7  94597800.06345  23101746.350                    23101742.6714
        45.600          30.9004
 111586091.589 8  86950203.78246  21234116.263                    21234115.0504
        49.700          40.7004
 118957191.282 7  92693939.39145  22636786.208                    22636785.9614
        44.200          32.1004
 16  1 15  0  3 18.0000000  0  8G23G16G32G09G06G07G03G26
 108223461.849 8  84329985.41547  20594229.265                    20594222.4684
        52.500          42.3004
 111223419.474 8  86667602.82346  21165099.830                    21165094.5884
        50.400          38.6004
 125753200.047 7  97989510.72344  23930040.410                    23930038.4424
        42.000          25.3004
 114682444.447 8  89362955.57446  21823336.228                    21823334.1314
        48.700          38.4004
 126832632.446 6  98830627.47443  24135446.623                    24135448.1114
        39.400          21.2004
 121397924.867 7  94595794.99545  23101256.825                    23101253.0214
        45.700          30.9004
 111588542.867 8  86952113.86846  21234582.860                    21234581.5834
        50.500          40.8004
 118959094.318 7  92695422.27745  22637148.508                    22637148.1114
        44.500          32.1004
 16  1 15  0  3 19.0000000  0  8G23G16G32G09G06G07G03G26
 108222767.816 8  84329444.61047  20594097.088                    20594090.4994
        52.000          42.1004
 111223358.578 8  86667555.37246  21165088.159                    21165082.9814
        50.900          38.6004
 125756654.124 7  97992202.21044  23930697.926                    23930695.7444
        42.500          25.3004
 114680271.690 8  89361262.51746  21822922.594                    21822920.6454
        48.200          38.4004
 126833300.411 6  98831147.96743  24135573.855                    24135575.2074
        39.400          21.2004
 121395351.923 7  94593790.10445  23100766.924                    23100763.4314
        45.400          30.9004
 111590994.604 8  86954024.31146  21235049.340                    21235048.2294
        49.600          40.8004
 118960997.863 7  92696905.56145  22637510.913                    22637510.2864
        45.100          32.1004
 16  1 15  0  3 20.0000000  0  8G23G16G32G09G06G07G03G26
 108222073.998 8  84328903.97347  20593965.131                    20593958.4254
        52.400          42.4004
 111223298.353 8  86667508.44546  21165076.765                    21165071.5384
        51.400          38.5004
 125760108.248 7  97994893.73344  23931355.165                    23931353.0454
        42.500          25.3004
 114678099.007 7  89359569.51846  21822509.152                    21822507.1224
        47.400          38.4004
 126833968.839 6  98831668.81943  24135701.496                    24135702.4274
        39.400          21.2004
 121392779.146 7  94591785.34245  23100277.376                    23100273.9474
        46.300          30.9004
 111593446.771 8  86955935.09046  21235515.874                    21235514.8714
        49.600          40.8004
 118962901.898 7  92698389.22245  22637873.200                    22637872.5694
        45.400          31.9004
 16  1 15  0  3 21.0000000  0  8G23G16G32G09G06G07G03G26
 108221380.538 8  84328363.61647  20593833.345                    20593826.4814
        51.500          42.3004
 111223238.944 8  86667462.15046  21165065.639                    21165060.1884
        50.600          38.5004
 125763562.608 7  97997585.44044  23932012.579                    23932010.4444
        42.700          25.3004
 114675926.553 8  89357876.69846  21822095.621                    21822093.7284
        48.200          38.3004
 126834637.876 6  98832190.14643  24135828.240                    24135829.7934
        39.400          21.2004
 121390206.674 7  94589780.82145  23099787.980                    23099784.4244
        46.300          30.9004
 111595899.491 8  86957846.30146  21235982.775                    21235981.6814
        49.900          40.8004
 118964806.562 7  92699873.37445  22638235.636                    22638234.9604
        45.400          31.9004
 16  1 15  0  3 22.0000000  0  8G23G16G32G09G06G07G03G26
 108220687.318 8  84327823.44647  20593701.190                    20593694.5404
        52.900          42.3004
 111223180.188 8  86667416.36746  21165054.370                    21165049.1524
        51.000          38.5004
 125767017.074 7  98000277.22944  23932670.044                    23932667.8884
        42.700          25.3004
 114673754.201 8  89356183.95546  21821682.136                    21821680.3234
        48.300          38.3004
 126835307.413 6  98832711.86443  24135955.867                    24135957.2294
        38.500          21.2004
 121387634.396 7  94587776.44845  23099298.510                    23099294.9474
        45.200          30.7004
 111598352.619 8  86959757.83146  21236449.550                    21236448.4574
        50.400          40.9004
 118966711.716 7  92701357.91145  22638598.427                    22638597.5914
        44.700          31.9004
 16  1 15  0  3 23.0000000  0  8G23G16G32G09G06G07G03G26
 108219994.447 8  84327283.54747  20593569.338                    20593562.7084
        51.800          42.6004
 111223122.252 8  86667371.22346  21165043.360                    21165038.1044
        51.200          38.5004
 125770471.721 7  98002969.15944  23933327.355                    23933325.2434
        43.000          25.3004
 114671582.061 8  89354491.37946  21821268.848                    21821266.9554
        49.300          38.3004
 126835977.541 6  98833234.04143  24136083.352                    24136084.9104
        38.500          21.2004
 121385062.397 7  94585772.29745  23098809.370                    23098805.5474
        46.400          30.7004
 111600806.318 8  86961669.80446  21236916.276                    21236915.2754
        49.800          40.9004
 118968617.483 7  92702842.92345  22638960.939                    22638960.3144
        45.000          31.9004
 16  1 15  0  3 24.0000000  0  8G23G16G32G09G06G07G03G26
 108219301.803 8  84326743.82547  20593437.684                    20593430.8654
        51.900          42.2004
 111223065.002 8  86667326.61646  21165032.465                    21165027.1424
        51.300          38.6004
 125773926.483 7  98005661.18044  23933984.862                    23933982.7034
        43.000          25.3004
 114669410.041 8  89352798.89546  21820855.575                    21820853.6844
        48.100          38.3004
 126836648.176 6  98833756.61443  24136210.698                    24136212.5384
        38.500          21.2004
 121382490.600 7  94583768.29845  23098319.832                    23098316.1984
        45.900          30.7004
 111603260.465 8  86963582.12546  21237383.229                    21237382.2864
        48.900          40.6004
 118970523.766 7  92704328.33845  22639323.804                    22639323.0874
        45.000          31.9004
 16  1 15  0  3 25.0000000  0  8G23G16G32G09G06G07G03G26
 108218609.431 8  84326204.31247  20593306.009                    20593299.0994
        52.500          42.1004
 111223008.456 8  86667282.55446  21165021.731                    21165016.3654
        50.300          38.6004
 125777381.333 7  98008353.27144  23934642.529                    23934640.1354
        42.700          25.3004
 114667238.139 8  89351106.50346  21820442.090                    21820440.2824
        48.600          38.4004
 126837319.290 6  98834279.56043  24136338.950                    24136340.1364
        38.500          21.2004
 121379919.006 7  94581764.46045  23097830.206                    23097826.7104
        45.800          30.7004
 111605715.052 8  86965494.78746  21237850.278                    21237849.4224
        49.400          40.6004
 118972430.585 7  92705814.16845  22639686.707                    22639685.8994
        45.000          31.9004
 16  1 15  0  3 26.0000000  0  8G23G16G32G09G06G07G03G26
 108217917.406 8  84325665.07347  20593174.362                    20593167.4924
        51.900          42.6004
 111222952.727 8  86667239.13046  21165011.045                    21165005.8214
        49.400          38.6004
 125780836.415 7  98011045.54044  23935299.794                    23935297.5854
        42.700          25.3004
 114665066.459 8  89349414.28646  21820028.962                    21820026.8944
        48.000          38.4004
 126837991.044 6  98834803.00443  24136466.263                    24136467.9404
        38.500          21.2004
 121377347.728 7  94579760.86745  23097340.808                    23097337.4234
        45.400          30.7004
 111608170.197 8  86967407.88846  21238317.538                    21238316.6804
        48.900          40.8004
 118974337.994 7  92707300.46245  22640049.857                    22640048.8674
        45.400          31.9004
 16  1 15  0  3 27.0000000  0  8G23G16G32G09G06G07G03G26
 108217225.683 8  84325126.06847  20593042.763                    20593035.7684
        52.600          42.6004
 111222897.743 8  86667196.28546  21165000.815                    21164995.3234
        50.300          38.8004
 125784291.650 7  98013737.93044  23935957.031                    23935955.0434
        42.800          25.3004
 114662894.956 8  89347722.20646  21819615.645                    21819613.7254
        49.000          38.4004
 126838663.363 6  98835326.88943  24136594.556                    24136595.8614
        39.600          21.2004
 121374776.696 7  94577757.46545  23096851.517                    23096848.1684
        45.400          30.7004
 111610625.855 8  86969321.38446  21238784.812                    21238784.0504
        50.100          40.8004
 118976246.000 7  92708787.21845  22640412.832                    22640411.8664
        44.700          31.9004
 16  1 15  0  3 28.0000000  0  8G23G16G32G09G06G07G03G26
 108216534.191 8  84324587.24347  20592911.006                    20592904.2194
        52.100          42.3004
 111222843.430 8  86667153.96346  21164990.282                    21164985.0614
        50.600          38.8004
 125787746.953 7  98016430.37244  23936614.594                    23936612.5624
        42.800          25.3004
 114660723.517 8  89346030.17646  21819202.367                    21819200.4544
        49.100          38.4004
 126839336.124 6  98835851.11743  24136722.558                    24136723.8154
        39.600          21.2004
 121372205.820 7  94575754.18345  23096362.333                    23096358.9184
        45.500          30.7004
 111613081.914 8  86971235.19646  21239252.427                    21239251.4024
        50.000          40.9004
 118978154.473 7  92710274.34045  22640776.066                    22640774.9904
        44.900          31.9004
 16  1 15  0  3 29.0000000  0  8G23G16G32G09G06G07G03G26
 108215842.971 8  84324048.63147  20592779.443                    20592772.7064
        52.300          42.4004
 111222789.846 8  86667112.21146  21164980.012                    21164974.9464
        50.800          38.8004
 125791202.412 7  98019122.93644  23937272.240                    23937269.9604
        42.700          25.3004
 114658552.240 8  89344338.27146  21818789.393                    21818787.3044
        49.400          38.1004
 126840009.445 6  98836375.78243  24136851.000                    24136852.0044
        39.600          21.2004
 121369635.201 7  94573751.10445  23095872.755                    23095869.6934
        46.000          30.7004
 111615538.451 8  86973149.38046  21239719.723                    21239718.9084
        49.900          40.9004
 118980063.503 7  92711761.89545  22641139.272                    22641138.3294
        44.900          31.9004
 16  1 15  0  3 30.0000000  0  8G23G16G32G09G06G07G03G26
 108215152.073 8  84323510.26847  20592647.851                    20592641.2204
        51.300          42.2004
 111222737.022 8  86667071.04846  21164969.801                    21164964.8454
        50.900          38.8004
 125794658.034 7  98021815.62544  23937929.480                    23937927.5834
        42.700          25.3004
 114656381.153 8  89342646.51446  21818376.065                    21818374.1814
        49.100          38.1004
 126840683.323 6  98836900.88043  24136979.357                    24136980.1894
        39.600          21.2004
 121367064.839 7  94571748.22745  23095383.517                    23095380.6344
        46.000          30.7004
 111617995.509 8  86975063.97446  21240187.118                    21240186.5214
        50.400          40.7004
 118981973.124 7  92713249.91245  22641502.573                    22641501.6874
        45.800          31.9004
 16  1 15  0  3 31.0000000  0  8G23G16G32G09G06G07G03G26
 108214461.480 8  84322972.14347  20592516.498                    20592509.7434
        52.900          42.2004
 111222684.948 8  86667030.47246  21164959.977                    21164954.8994
        51.100          38.5004
 125798113.789 7  98024508.41944  23938587.368                    23938585.2394
        42.300          25.3004
 114654210.223 8  89340954.88046  21817963.127                    21817961.0614
        48.700          38.1004
 126841357.774 6  98837426.42543  24137107.713                    24137108.5954
        39.600          21.2004
 121364494.713 7  94569745.53145  23094894.703                    23094891.4324
        45.000          30.7004
 111620453.078 8  86976978.96046  21240654.875                    21240654.1664
        49.400          40.7004
 118983883.300 7  92714738.36245  22641865.780                    22641865.3044
        45.800          31.9004
 16  1 15  0  3 32.0000000  0  8G23G16G32G09G06G07G03G26
 108213771.124 8  84322434.20547  20592385.207                    20592378.4224
        52.500          42.2004
 111222633.578 8  86666990.44346  21164950.155                    21164945.0354
        50.600          38.5004
 125801569.682 7  98027201.32044  23939244.961                    23939242.8244
        42.300          25.3004
 114652039.410 8  89339263.34046  21817549.994                    21817548.0034
        48.300          38.1004
 126842032.698 6  98837952.34043  24137236.254                    24137236.8444
        39.400          21.2004
 121361924.791 7  94567742.99545  23094405.602                    23094402.3654
        45.000          30.7004
 111622911.079 8  86978894.28546  21241122.547                    21241121.9304
        49.500          40.8004
 118985794.001 7  92716227.22045  22642229.770                    22642228.8994
        45.600          31.9004
 16  1 15  0  3 33.0000000  0  8G23G16G32G09G06G07G03G26
 108213081.099 8  84321896.52347  20592253.926                    20592247.0854
        51.800          42.8004
 111222582.974 8  86666951.01346  21164940.576                    21164935.4964
        51.300          38.5004
 125805025.734 7  98029894.34744  23939902.614                    23939900.4764
        42.300          25.3004
 114649868.792 8  89337571.95146  21817136.778                    21817134.9614
        48.900          38.1004
 126842708.223 6  98838478.72043  24137364.899                    24137365.4404
        39.400          21.2004
 121359355.154 7  94565740.67845  23093916.710                    23093913.4204
        44.500          30.7004
 111625369.613 8  86980810.02346  21241590.627                    21241589.7264
        50.300          40.8004
 118987705.286 7  92717716.53145  22642593.189                    22642592.6104
        45.700          31.9004
 16  1 15  0  3 34.0000000  0  8G23G16G32G09G06G07G03G26
 108212391.326 8  84321359.03947  20592122.493                    20592115.8594
        51.300          42.4004
 111222533.081 8  86666912.13546  21164931.324                    21164925.9894
        51.000          38.6004
 125808481.897 7  98032587.46044  23940560.323                    23940558.2004
        42.800          25.3004
 114647698.303 8  89335880.66246  21816723.885                    21816721.9844
        49.500          38.1004
 126843384.218 6  98839005.46743  24137493.058                    24137494.0204
        39.400          21.2004
 121356785.717 7  94563738.52345  23093427.941                    23093424.4584
        45.000          30.7004
 111627828.593 8  86982726.11046  21242058.716                    21242057.5084
        49.800          40.6004
 118989617.083 7  92719206.24445  22642957.020                    22642956.3724
        45.700          31.7004
 16  1 15  0  3 35.0000000  0  8G23G16G32G09G06G07G03G26
 108211701.746 8  84320821.70547  20591991.272                    20591984.5464
        52.700          42.7004
 111222483.830 8  86666873.75946  21164921.704                    21164916.5314
        51.200          38.6004
 125811938.145 7  98035280.63744  23941217.970                    23941215.9834
        42.800          25.3004
 114645527.874 8  89334189.41846  21816311.006                    21816308.9574
        49.500          38.1004
 126844060.699 6  98839532.59543  24137622.153                    24137622.7574
        39.400          21.2004
 121354216.415 7  94561736.46945  23092938.940                    23092935.5294
        44.000          30.7004
 111630287.966 8  86984642.50746  21242526.528                    21242525.4624
        49.400          40.6004
 118991529.354 7  92720696.32545  22643321.067                    22643320.2674
        45.400          31.7004
 16  1 15  0  3 36.0000000  0  8G23G16G32G09G06G07G03G26
 108211012.525 8  84320284.65047  20591860.235                    20591853.4354
        52.000          42.7004
 111222435.384 8  86666836.00846  21164912.272                    21164907.1794
        50.200          38.6004
 125815394.586 7  98037973.96644  23941875.587                    23941873.7324
        42.500          25.3004
 114643357.686 8  89332498.36346  21815897.914                    21815896.0494
        48.100          38.1004
 126844737.795 6  98840060.19943  24137750.980                    24137751.6474
        39.400          21.2004
 121351647.452 7  94559734.68145  23092449.895                    23092446.6984
        44.000          30.7004
 111632747.900 8  86986559.33946  21242994.542                    21242993.6164
        49.700          40.7004
 118993442.246 7  92722186.89345  22643684.872                    22643684.2994
        45.000          31.7004
 16  1 15  0  3 37.0000000  0  8G23G16G32G09G06G07G03G26
 108210323.589 8  84319747.81747  20591729.009                    20591722.3944
        51.700          42.4004
 111222387.686 8  86666798.84046  21164903.362                    21164898.2344
        50.100          38.5004
 125818851.158 7  98040667.40044  23942533.791                    23942531.5324
        42.500          25.1004
 114641187.629 8  89330807.41046  21815485.000                    21815483.1054
        48.400          38.1004
 126845415.406 6  98840588.20643  24137880.023                    24137880.5634
        39.800          21.2004
 121349078.696 7  94557733.05645  23091960.808                    23091957.8734
        44.800          30.7004
 111635208.325 8  86988476.55546  21243462.773                    21243461.7594
        48.700          40.7004
 118995355.697 7  92723677.89245  22644048.656                    22644048.4384
        44.600          31.7004
 16  1 15  0  3 38.0000000  0  8G23G16G32G09G06G07G03G26
 108209634.941 8  84319211.21147  20591598.030                    20591591.3634
        52.200          42.6004
 111222340.721 8  86666762.24546  21164894.415                    21164889.2144
        50.700          38.5004
 125822307.886 7  98043360.95244  23943191.761                    23943189.2984
        42.600          25.1004
 114639017.740 8  89329116.58846  21815071.940                    21815070.2634
        49.000          38.1004
 126846093.570 6  98841116.64643  24138008.657                    24138009.7144
        39.800          21.2004
 121346510.190 7  94555731.62345  23091472.138                    23091469.0574
        45.000          30.7004
 111637669.231 8  86990394.14246  21243931.167                    21243929.9254
        49.200          40.5004
 118997269.692 7  92725169.31645  22644413.279                    22644412.5754
        44.600          31.7004
 16  1 15  0  3 39.0000000  0  8G23G16G32G09G06G07G03G26
 108208946.619 8  84318674.85647  20591467.022                    20591460.2504
        52.300          42.4004
 111222294.533 8  86666726.25846  21164885.659                    21164880.4994
        50.500          38.5004
 125825764.795 7  98046054.64644  23943849.332                    23943847.0594
        42.600          25.1004
 114636848.047 8  89327425.92046  21814659.303                    21814657.4164
        48.500          38.1004
 126846772.270 6  98841645.50443  24138137.630                    24138138.8894
        39.800          21.2004
 121343941.970 7  94553730.41245  23090983.449                    23090980.3364
        45.000          30.7004
 111640130.658 8  86992312.13446  21244399.732                    21244398.3774
        49.500          40.5004
 118999184.285 7  92726661.20745  22644777.734                    22644776.8704
        44.700          31.7004
 16  1 15  0  3 40.0000000  0  8G23G16G32G09G06G07G03G26
 108208258.523 8  84318138.67947  20591336.090                    20591329.3954
        52.300          42.4004
 111222249.014 8  86666690.78846  21164876.944                    21164871.8504
        50.300          38.5004
 125829221.791 7  98048748.40644  23944507.178                    23944504.9604
        42.500          25.1004
 114634678.447 8  89325735.32246  21814246.507                    21814244.5634
        48.600          38.4004
 126847451.531 6  98842174.79943  24138267.025                    24138268.1434
        39.800          21.2004
 121341373.904 7  94551729.32345  23090494.697                    23090491.7484
        44.900          30.2004
 111642592.516 8  86994230.46546  21244867.995                    21244866.7614
        49.700          40.6004
 119001099.384 7  92728153.49045  22645142.179                    22645141.1594
        45.500          31.7004
 16  1 15  0  3 41.0000000  0  8G23G16G32G09G06G07G03G26
 108207570.771 8  84317602.76647  20591205.249                    20591198.5214
        52.400          42.5004
 111222204.295 8  86666655.94246  21164868.453                    21164863.3154
        50.700          38.5004
 125832678.978 7  98051442.31644  23945165.218                    23945162.8754
        42.500          25.1004
 114632509.064 8  89324044.89546  21813833.621                    21813831.7444
        49.800          38.4004
 126848131.334 6  98842704.51543  24138396.266                    24138397.4734
        39.800          21.2004
 121338806.155 7  94549728.48145  23090006.130                    23090003.1574
        45.200          30.2004
 111645054.911 8  86996149.21546  21245336.596                    21245335.2604
        50.300          40.6004
 119003015.078 7  92729646.23945  22645506.820                    22645505.6884
        45.500          31.7004
 16  1 15  0  3 42.0000000  0  8G23G16G32G09G06G07G03G26
 108206883.245 8  84317067.03247  20591074.583                    20591067.7044
        51.800          42.6004
 111222160.249 8  86666621.62146  21164860.219                    21164854.9224
        49.400          38.5004
 125836136.264 7  98054136.30344  23945822.640                    23945820.7124
        42.500          25.1004
 114630339.760 8  89322354.52746  21813420.933                    21813418.8954
        50.300          38.4004
 126848811.629 6  98843234.61343  24138525.648                    24138526.8464
        39.000          21.2004
 121336238.564 7  94547727.76245  23089517.533                    23089514.6274
        45.400          30.2004
 111647517.734 8  86998068.29846  21245805.444                    21245803.9564
        49.500          40.5004
 119004931.255 7  92731139.36245  22645871.728                    22645870.3364
        44.900          31.7004
 16  1 15  0  3 43.0000000  0  8G23G16G32G09G06G07G03G26
 108206196.041 8  84316531.55047  20590943.793                    20590936.8894
        51.600          42.4004
 111222116.965 8  86666587.89646  21164851.910                    21164846.7514
        50.100          38.5004
 125839593.704 7  98056830.40944  23946480.827                    23946478.6104
        42.000          25.1004
 114628170.647 8  89320664.30946  21813008.485                    21813006.1934
        50.100          38.4004
 126849492.496 6  98843765.15843  24138655.496                    24138656.4194
        39.000          21.2004
 121333671.248 7  94545727.25945  23089029.334                    23089026.0684
        45.400          30.2004
 111649981.063 8  86999987.77646  21246273.981                    21246272.7204
        49.600          40.5004
 119006848.027 7  92732632.95045  22646236.340                    22646235.1454
        44.900          31.7004
 16  1 15  0  3 44.0000000  0  8G23G16G32G09G06G07G03G26
 108205509.157 8  84315996.31447  20590812.886                    20590806.1044
        51.900          42.4004
 111222074.460 8  86666554.77646  21164843.938                    21164838.6354
        51.400          38.5004
 125843051.322 7  98059524.65644  23947138.622                    23947136.6134
        42.000          25.1004
 114626001.739 8  89318974.25046  21812595.783                    21812593.5124
        50.100          38.4004
 126850173.922 6  98844296.14043  24138785.005                    24138786.0834
        39.000          21.2004
 121331104.213 7  94543726.97445  23088540.667                    23088537.6294
        45.200          30.2004
 111652444.915 8  87001907.66046  21246742.968                    21246741.5174
        49.500          40.6004
 119008765.390 7  92734127.00145  22646601.132                    22646599.9414
        45.300          31.7004
 16  1 15  0  3 45.0000000  0  8G23G16G32G09G06G07G03G26
 108204822.490 8  84315461.24947  20590682.397                    20590675.4874
        52.900          42.4004
 111222032.607 8  86666522.16346  21164836.187                    21164830.7194
        52.100          38.5004
 125846509.022 7  98062218.96444  23947796.580                    23947794.5784
        42.300          25.1004
 114623832.894 8  89317284.24046  21812183.058                    21812180.8474
        49.600          38.4004
 126850855.823 6  98844827.49243  24138914.668                    24138915.8484
        39.000          21.2004
 121328537.333 7  94541726.81145  23088052.441                    23088049.1244
        45.100          30.2004
 111654909.190 8  87003827.87446  21247211.968                    21247210.4964
        50.200          40.6004
 119010683.212 7  92735621.40745  22646966.204                    22646964.8674
        45.900          31.7004
 16  1 15  0  3 46.0000000  0  8G23G16G32G09G06G07G03G26
 108204136.170 8  84314926.45447  20590551.790                    20590544.8434
        50.800          42.5004
 111221991.559 8  86666490.17946  21164828.354                    21164822.9724
        50.700          38.5004
 125849966.922 7  98064913.42844  23948454.358                    23948452.5204
        42.300          25.1004
 114621664.270 8  89315594.40146  21811770.298                    21811768.1314
        49.300          38.4004
 126851538.362 6  98845359.33943  24139044.385                    24139045.7434
        39.000          21.2004
 121325970.768 7  94539726.89345  23087564.061                    23087560.6334
        45.700          30.2004
 111657374.001 8  87005748.50546  21247680.799                    21247679.5374
        49.300          40.5004
 119012601.677 7  92737116.31545  22647331.199                    22647329.9464
        45.800          31.7004
 16  1 15  0  3 47.0000000  0  8G23G16G32G09G06G07G03G26
 108203450.097 8  84314391.85347  20590421.158                    20590414.2974
        52.800          42.7004
 111221951.210 8  86666458.73746  21164820.707                    21164815.1934
        51.700          38.7004
 125853424.922 7  98067607.97144  23949112.784                    23949110.6424
        42.000          25.1004
 114619495.771 8  89313904.66346  21811357.755                    21811355.5204
        49.100          38.5004
 126852221.349 6  98845891.53743  24139174.500                    24139175.6064
        37.600          21.2004
 121323404.391 7  94537727.12145  23087075.111                    23087072.3064
        45.700          30.2004
 111659839.280 8  87007669.50146  21248149.845                    21248148.6654
        50.400          40.5004
 119014520.633 7  92738611.60745  22647695.897                    22647694.9784
        45.900          31.7004
 16  1 15  0  3 48.0000000  0  8G23G16G32G09G06G07G03G26
 108202764.333 8  84313857.49447  20590290.523                    20590283.8464
        52.100          42.6004
 111221911.623 8  86666427.89246  21164813.248                    21164807.7284
        51.500          38.7004
 125856883.064 7  98070302.62344  23949770.705                    23949768.6364
        42.000          25.1004
 114617327.438 8  89312215.05346  21810944.940                    21810942.8034
        48.900          38.5004
 126852904.904 6  98846424.17943  24139304.714                    24139305.7684
        37.600          21.2004
 121320838.272 7  94535727.54845  23086586.694                    23086583.8674
        45.000          30.2004
 111662305.026 8  87009590.86046  21248618.883                    21248617.8584
        49.300          40.6004
 119016440.175 7  92740107.35545  22648061.248                    22648060.3774
        45.900          31.7004
 16  1 15  0  3 49.0000000  0  8G23G16G32G09G06G07G03G26
 108202078.857 8  84313323.35747  20590160.232                    20590153.3324
        53.000          42.6004
 111221872.752 8  86666397.60046  21164805.656                    21164800.3324
        50.800          38.7004
 125860341.353 7  98072997.39144  23950428.612                    23950426.7984
        42.000          25.1004
 114615159.255 8  89310525.55946  21810532.425                    21810530.3394
        49.400          38.5004
 126853589.012 6  98846957.25243  24139435.398                    24139435.9964
        37.600          21.2004
 121318272.375 7  94533728.15045  23086098.458                    23086095.5654
        44.300          30.2004
 111664771.269 8  87011512.60946  21249088.217                    21249087.1764
        48.600          40.6004
 119018360.265 7  92741603.53045  22648426.536                    22648425.8454
        44.900          31.7004
 16  1 15  0  3 50.0000000  0  8G23G16G32G09G06G07G03G26
 108201393.674 8  84312789.44947  20590029.914                    20590022.9214
        52.200          42.8004
 111221834.623 8  86666367.89146  21164798.507                    21164793.0354
        50.900          38.7004
 125863799.809 7  98075692.28944  23951086.925                    23951084.8974
        42.600          25.1004
 114612991.238 8  89308836.19546  21810119.912                    21810117.8004
        48.900          38.4004
 126854273.645 6  98847490.73443  24139565.300                    24139566.4514
        37.600          21.2004
 121315706.742 7  94531728.95745  23085610.402                    23085607.3754
        45.400          30.2004
 111667237.982 8  87013434.72146  21249557.653                    21249556.5584
        48.700          40.5004
 119020280.897 7  92743100.12645  22648791.937                    22648791.3504
        45.600          31.7004
 16  1 15  0  3 51.0000000  0  8G23G16G32G09G06G07G03G26
 108200708.816 8  84312255.79447  20589899.637                    20589892.4864
        52.300          42.3004
 111221797.269 8  86666338.78546  21164791.285                    21164786.0204
        50.000          38.6004
 125867258.422 7  98078387.30944  23951745.135                    23951743.0174
        42.600          25.1004
 114610823.422 8  89307146.98746  21809707.379                    21809705.2344
        48.700          38.4004
 126854958.904 6  98848024.70043  24139695.362                    24139696.8564
        37.600          21.2004
 121313141.376 7  94529729.97145  23085122.410                    23085119.2504
        45.600          30.2004
 111669705.235 8  87015357.25746  21250027.255                    21250026.1134
        50.000          40.5004
 119022202.129 7  92744597.19045  22649157.814                    22649156.8674
        44.900          31.7004
 16  1 15  0  3 52.0000000  0  8G23G16G32G09G06G07G03G26
 108200024.173 8  84311722.30747  20589769.251                    20589762.3584
        52.200          42.8004
 111221760.580 8  86666310.19746  21164784.270                    21164778.9374
        49.500          38.6004
 125870717.094 7  98081082.37644  23952403.602                    23952401.0944
        42.100          25.1004
 114608655.677 8  89305457.83446  21809294.838                    21809292.7784
        48.900          38.4004
 126855644.585 6  98848558.99643  24139826.054                    24139827.3214
        37.600          21.2004
 121310576.182 7  94527731.11845  23084634.274                    23084631.0834
        45.600          30.2004
 111672172.909 8  87017280.11946  21250496.884                    21250495.5354
        50.600          40.5004
 119024123.842 7  92746094.63045  22649523.281                    22649522.5654
        44.900          31.7004
 16  1 15  0  3 53.0000000  0  8G23G16G32G09G06G07G03G26
 108199339.838 8  84311189.05947  20589639.064                    20589632.1424
        51.600          42.8004
 111221724.650 8  86666282.19946  21164777.466                    21164772.0984
        50.400          38.6004
 125874175.939 7  98083777.57944  23953061.490                    23953059.3634
        42.100          25.1004
 114606488.126 8  89303768.83346  21808882.316                    21808880.3054
        48.700          38.5004
 126856330.828 6  98849093.73043  24139956.872                    24139957.9084
        38.700          21.2004
 121308011.235 7  94525732.45845  23084146.066                    23084143.0354
        45.400          30.2004
 111674641.074 8  87019203.36346  21250966.557                    21250965.3424
        50.800          40.6004
 119026046.108 7  92747592.50145  22649889.093                    22649888.4034
        45.500          31.7004
 16  1 15  0  3 54.0000000  0  8G23G16G32G09G06G07G03G26
 108198655.807 8  84310656.04747  20589508.958                    20589501.9554
        51.600          42.7004
 111221689.476 8  86666254.79246  21164770.769                    21164765.3744
        49.700          38.6004
 125877634.953 7  98086472.91044  23953719.679                    23953717.6404
        42.700          25.1004
 114604320.728 8  89302079.95046  21808469.975                    21808467.8364
        48.200          38.5004
 126857017.620 6  98849628.89043  24140086.657                    24140088.6584
        38.700          21.2004
 121305446.552 7  94523734.00545  23083657.908                    23083654.9674
        44.800          30.2004
 111677109.749 8  87021127.00746  21251436.457                    21251435.1414
        50.800          40.6004
 119027968.968 7  92749090.83145  22650255.003                    22650254.3784
        45.900          31.7004
 16  1 15  0  3 55.0000000  0  8G23G16G32G09G06G07G03G26
 108197972.080 8  84310123.27447  20589378.968                    20589371.7684
        51.900          42.5004
 111221655.049 8  86666227.96846  21164764.087                    21164758.9124
        49.900          38.6004
 125881094.081 7  98089168.33244  23954378.167                    23954375.9534
        42.700          25.1004
 114602153.506 8  89300391.20746  21808057.663                    21808055.3644
        49.000          38.5004
 126857704.998 6  98850164.50943  24140217.810                    24140219.4574
        38.700          21.2004
 121302882.129 7  94521735.75445  23083170.327                    23083167.0544
        44.800          30.2004
 111679578.921 8  87023051.03346  21251906.258                    21251904.9924
        48.800          40.9004
 119029892.383 7  92750589.59545  22650621.069                    22650620.4034
        45.500          31.7004
 16  1 15  0  3 56.0000000  0  8G23G16G32G09G06G07G03G26
 108197288.687 8  84309590.76047  20589248.904                    20589241.8124
        51.800          42.7004
 111221621.402 8  86666201.75146  21164757.761                    21164752.6114
        50.800          38.6004
 125884553.443 7  98091863.93644  23955036.525                    23955034.2974
        42.700          25.1004
 114599986.474 8  89298702.61146  21807645.255                    21807642.9194
        48.700          38.5004
 126858392.925 6  98850700.55843  24140348.876                    24140350.5214
        38.700          21.2004
 121300317.967 7  94519737.70645  23082682.185                    23082679.0614
        44.800          30.2004
 111682048.614 8  87024975.47046  21252376.299                    21252375.0024
        49.900          40.9004
 119031816.400 7  92752088.82945  22650987.278                    22650986.5364
        45.500          31.7004
 16  1 15  0  3 57.0000000  0  8G23G16G32G09G06G07G03G26
 108196605.514 8  84309058.41847  20589118.908                    20589111.7934
        52.600          42.7004
 111221588.443 8  86666176.06846  21164751.273                    21164746.1774
        51.400          38.6004
 125888012.869 7  98094559.59044  23955695.110                    23955692.6124
        42.000          25.1004
 114597819.535 8  89297014.09046  21807232.738                    21807230.6094
        50.100          38.5004
 126859081.342 6  98851236.98343  24140480.067                    24140481.4864
        38.700          21.2004
 121297753.986 7  94517739.79745  23082194.394                    23082191.1284
        44.800          30.2004
 111684518.740 8  87026900.24346  21252846.371                    21252845.1204
        50.500          40.5004
 119033740.889 7  92753588.43145  22651353.643                    22651352.8234
        45.500          31.7004
 16  1 15  0  3 58.0000000  0  8G23G16G32G09G06G07G03G26
 108195922.629 8  84308526.29947  20588988.941                    20588981.8384
        52.400          42.4004
 111221556.213 8  86666150.95646  21164745.032                    21164740.0834
        50.600          38.6004
 125891472.442 7  98097255.35844  23956353.110                    23956351.0204
        42.000          25.1004
 114595652.765 8  89295325.69946  21806820.233                    21806818.2944
        50.000          38.5004
 126859770.307 6  98851773.83943  24140610.726                    24140612.5274
        37.800          21.2004
 121295190.253 7  94515742.08345  23081706.547                    23081703.1804
        45.300          30.4004
 111686989.343 8  87028825.38746  21253316.570                    21253315.1694
        50.400          40.5004
 119035665.939 7  92755088.47245  22651719.863                    22651719.1864
        45.500          31.7004
 16  1 15  0  3 59.0000000  0  8G23G16G32G09G06G07G03G26
 108195240.114 8  84307994.47247  20588858.775                    20588852.0744
        52.200          42.6004
 111221524.814 8  86666126.49046  21164739.113                    21164734.1484
        51.200          38.6004
 125894932.238 7  98099951.30044  23957011.505                    23957009.3954
        43.000          25.1004
 114593486.224 8  89293637.48446  21806408.203                    21806406.0684
        49.300          38.5004
 126860459.883 6  98852311.16943  24140742.163                    24140743.7984
        37.800          21.8004
 121292626.828 7  94513744.61145  23081218.873                    23081215.4564
        45.700          30.4004
 111689460.504 8  87030750.96846  21253786.751                    21253785.3974
        50.000          40.6004
 119037591.624 7  92756589.00545  22652086.307                    22652085.5994
        44.900          31.7004
 16  1 15  0  4  0.0000000  0  8G23G16G32G09G06G07G03G26
 108194557.702 8  84307462.72247  20588728.983                    20588722.0684
        51.900          42.4004
 111221493.945 8  86666102.43546  21164733.312                    21164728.3004
        50.200          38.6004
 125898392.008 7  98102647.22244  23957670.080                    23957667.8944
        43.000          25.1004
 114591319.659 8  89291949.25146  21805995.781                    21805993.7454
        50.100          38.5004
 126861149.808 6  98852848.77143  24140873.908                    24140875.0244
        37.800          21.8004
 121290063.462 7  94511747.18345  23080731.146                    23080727.6664
        46.800          30.4004
 111691931.957 8  87032676.77546  21254257.049                    21254255.6404
        48.400          40.6004
 119039517.672 7  92758089.82245  22652452.917                    22652452.1074
        45.400          31.7004
 16  1 15  0  4  1.0000000  0  8G23G16G32G09G06G07G03G26
 108193875.618 8  84306931.23047  20588599.238                    20588592.2204
        52.000          42.6004
 111221463.846 8  86666078.98146  21164727.414                    21164722.4824
        51.300          38.6004
 125901851.890 7  98105343.23244  23958328.449                    23958326.3074
        42.200          25.1004
 114589153.264 8  89290261.15246  21805583.473                    21805581.4444
        49.600          38.5004
 126861840.321 6  98853386.83043  24141005.136                    24141006.4534
        37.800          21.8004
 121287500.372 7  94509749.96945  23080243.252                    23080239.8954
        46.700          30.4004
 111694403.955 8  87034603.00746  21254727.744                    21254726.1144
        48.900          40.3004
 119041444.321 7  92759591.10745  22652819.501                    22652818.6924
        45.400          31.7004
 16  1 15  0  4  2.0000000  0  8G23G16G32G09G06G07G03G26
 108193193.830 8  84306399.96947  20588469.278                    20588462.4824
        52.800          42.6004
 111221434.524 8  86666056.13346  21164721.780                    21164716.7984
        50.400          38.6004
 125905311.977 7  98108039.40044  23958987.034                    23958984.6454
        42.200          25.1004
 114586987.073 8  89288573.21146  21805171.313                    21805169.3234
        49.200          38.5004
 126862531.372 6  98853925.31043  24141136.583                    24141137.9034
        37.800          21.8004
 121284937.534 7  94507752.95245  23079755.545                    23079752.2224
        46.600          30.4004
 111696876.441 8  87036529.62046  21255198.169                    21255196.5314
        49.600          40.3004
 119043371.494 7  92761092.80145  22653186.115                    22653185.5554
        44.500          31.7004
 16  1 15  0  4  3.0000000  0  8G23G16G32G09G06G07G03G26
 108192512.374 8  84305868.96447  20588339.528                    20588332.9154
        52.200          42.4004
 111221405.944 8  86666033.86546  21164716.393                    21164711.4664
        51.200          38.6004
 125908772.211 7  98110735.68044  23959645.495                    23959643.0144
        42.600          25.1004
 114584821.050 8  89286885.40046  21804759.259                    21804757.1474
        48.700          38.5004
 126863222.994 6  98854464.23443  24141268.099                    24141269.4284
        38.800          21.8004
 121282374.972 7  94505756.14945  23079268.085                    23079264.5194
        46.600          30.4004
 111699349.443 8  87038456.63546  21255668.785                    21255667.1924
        49.700          40.3004
 119045299.291 7  92762594.98045  22653552.785                    22653552.3864
        45.000          31.6004
 16  1 15  0  4  4.0000000  0  8G23G16G32G09G06G07G03G26
 108191831.231 8  84305338.20547  20588210.056                    20588203.3174
        52.800          42.6004
 111221378.143 8  86666012.20246  21164711.083                    21164706.1214
        51.400          38.5004
 125912232.659 7  98113432.13144  23960303.793                    23960301.3994
        42.600          25.1004
 114582655.220 8  89285197.74046  21804347.011                    21804345.0034
        49.100          38.7004
 126863915.194 6  98855003.60843  24141400.691                    24141401.1444
        38.800          21.8004
 121279812.668 7  94503759.54745  23078780.721                    23078776.9594
        45.100          30.4004
 111701822.973 8  87040384.05946  21256139.473                    21256137.9244
        50.600          40.3004
 119047227.679 7  92764097.61845  22653919.722                    22653919.3774
        44.500          31.6004
 16  1 15  0  4  5.0000000  0  8G23G16G32G09G06G07G03G26
 108191150.366 8  84304807.66247  20588080.599                    20588073.7554
        50.700          42.5004
 111221351.070 8  86665991.10746  21164705.770                    21164701.0134
        49.300          38.5004
 125915693.209 7  98116128.66044  23960962.204                    23960960.0564
        43.300          25.1004
 114580489.541 8  89283510.19846  21803934.770                    21803932.8194
        49.800          38.7004
 126864607.923 6  98855543.39443  24141532.186                    24141532.8534
        38.800          21.8004
 121277250.594 7  94501763.12645  23078292.869                    23078289.4324
        46.400          30.4004
 111704296.959 8  87042311.84246  21256610.107                    21256608.6184
        48.700          40.5004
 119049156.579 7  92765600.65745  22654286.750                    22654286.4514
        44.500          31.6004
 16  1 15  0  4  6.0000000  0  8G23G16G32G09G06G07G03G26
 108190469.760 8  84304277.32147  20587951.097                    20587944.2374
        51.800          42.5004
 111221324.695 8  86665970.55746  21164700.662                    21164696.0144
        49.700          38.5004
 125919153.843 7  98118825.25644  23961620.992                    23961618.6284
        43.300          25.1004
 114578323.981 8  89281822.75046  21803522.688                    21803520.7184
        49.600          38.7004
 126865301.151 6  98856083.57243  24141664.153                    24141664.7644
        38.800          21.8004
 121274688.725 7  94499766.86545  23077805.568                    23077802.0134
        45.800          30.4004
 111706771.393 8  87044239.97146  21257080.884                    21257079.5514
        48.900          40.5004
 119051086.006 7  92767104.10745  22654654.031                    22654653.5904
        45.500          31.6004
 16  1 15  0  4  7.0000000  0  8G23G16G32G09G06G07G03G26
 108189789.489 8  84303747.24147  20587821.699                    20587814.7544
        51.600          42.5004
 111221299.127 8  86665950.63346  21164695.936                    21164691.1284
        49.500          38.6004
 125922614.707 7  98121522.03144  23962279.501                    23962277.1944
        43.300          25.1004
 114576158.630 8  89280135.46546  21803110.439                    21803108.7134
        49.700          38.5004
 126865994.959 6  98856624.20043  24141796.386                    24141796.8254
        38.800          21.8004
 121272127.148 7  94497770.83045  23077317.939                    23077314.3964
        45.800          30.4004
 111709246.385 8  87046168.53646  21257551.864                    21257550.4094
        50.200          40.1004
 119053016.049 7  92768608.03545  22655021.149                    22655020.8694
        45.400          31.6004
 16  1 15  0  4  8.0000000  0  8G23G16G32G09G06G07G03G26
 108189109.435 8  84303217.33047  20587692.278                    20587685.3284
        52.200          42.6004
 111221274.218 8  86665931.22446  21164691.308                    21164686.3964
        50.600          38.6004
 125926075.623 7  98124218.84744  23962937.877                    23962935.8284
        42.400          25.1004
 114573993.370 8  89278448.25046  21802698.308                    21802696.7034
        48.800          38.5004
 126866689.265 6  98857165.21843  24141928.247                    24141928.9874
        39.200          21.8004
 121269565.746 7  94495774.93345  23076830.570                    23076827.0094
        46.300          30.4004
 111711721.763 8  87048097.40046  21258022.740                    21258021.4884
        50.300          40.1004
 119054946.564 7  92770112.33345  22655388.700                    22655388.1034
        45.400          31.6004
 16  1 15  0  4  9.0000000  0  8G23G16G32G09G06G07G03G26
 108188429.685 8  84302687.65447  20587563.010                    20587555.9554
        53.700          42.5004
 111221250.044 8  86665912.38746  21164686.770                    21164681.7774
        51.600          38.6004
 125929536.679 7  98126915.77344  23963596.279                    23963594.4054
        42.400          25.1004
 114571828.265 8  89276761.15746  21802286.394                    21802284.6624
        49.100          38.5004
 126867384.076 6  98857706.62843  24142060.046                    24142061.0924
        39.200          21.8004
 121267004.589 7  94493779.22845  23076343.213                    23076339.6204
        46.200          30.4004
 111714197.645 8  87050026.65746  21258493.930                    21258492.6974
        49.200          40.6004
 119056877.642 7  92771617.06845  22655756.152                    22655755.6264
        45.500          31.6004
 16  1 15  0  4 10.0000000  0  8G23G16G32G09G06G07G03G26
 108187750.205 8  84302158.18947  20587433.695                    20587426.7674
        52.400          42.5004
 111221226.597 8  86665894.11646  21164682.339                    21164677.1984
        50.300          38.6004
 125932997.899 6  98129612.82544  23964254.935                    23964253.0104
        41.900          25.1004
 114569663.299 8  89275074.17246  21801874.289                    21801872.6844
        49.400          38.5004
 126868079.433 6  98858248.46643  24142192.481                    24142193.3724
        39.200          21.8004
 121264443.654 7  94491783.69345  23075855.995                    23075852.1514
        45.200          30.4004
 111716673.993 8  87051956.27846  21258965.354                    21258963.8964
        49.500          40.6004
 119058809.252 7  92773122.21645  22656123.553                    22656123.1634
        45.300          31.6004
 16  1 15  0  4 11.0000000  0  8G23G16G32G09G06G07G03G26
 108187071.000 8  84301628.93947  20587304.372                    20587297.4214
        51.800          42.5004
 111221203.888 8  86665876.42246  21164678.210                    21164672.9394
        48.900          38.5004
 125936459.226 6  98132309.96044  23964913.438                    23964911.6184
        41.900          25.1004
 114567498.495 8  89273387.31246  21801462.386                    21801460.7524
        49.000          38.6004
 126868775.339 6  98858790.72943  24142324.508                    24142325.8444
        39.200          21.8004
 121261882.937 7  94489788.33245  23075368.539                    23075364.8504
        45.300          30.4004
 111719150.818 8  87053886.27146  21259436.668                    21259435.1764
        49.700          40.6004
 119060741.396 7  92774627.78445  22656491.233                    22656490.9244
        45.300          31.6004
 16  1 15  0  4 12.0000000  0  8G23G16G32G09G06G07G03G26
 108186392.143 8  84301099.96147  20587175.104                    20587168.3084
        52.000          42.8004
 111221181.963 8  86665859.33646  21164673.862                    21164668.8024
        49.300          38.5004
 125939920.742 6  98135007.24444  23965572.196                    23965570.3844
        41.900          25.1004
 114565333.882 8  89271700.60146  21801050.504                    21801048.8184
        48.100          38.6004
 126869471.797 6  98859333.42543  24142457.087                    24142458.3154
        39.200          21.8004
 121259322.523 7  94487793.20645  23074881.210                    23074877.5724
        44.800          30.4004
 111721628.172 8  87055816.67646  21259908.112                    21259906.5224
        49.900          40.4004
 119062674.155 7  92776133.82945  22656859.163                    22656858.7244
        43.800          31.6004
 16  1 15  0  4 13.0000000  0  8G23G16G32G09G06G07G03G26
 108185713.562 8  84300571.19747  20587046.040                    20587039.2454
        51.400          42.4004
 111221160.777 8  86665842.82946  21164669.726                    21164664.7804
        49.300          38.5004
 125943382.377 6  98137704.61844  23966230.917                    23966229.0664
        41.700          25.1004
 114563169.424 8  89270014.01246  21800638.657                    21800637.0134
        49.600          38.6004
 126870168.815 6  98859876.55443  24142589.841                    24142590.9914
        38.900          21.8004
 121256762.330 7  94485798.25345  23074393.723                    23074390.3924
        45.200          30.4004
 111724105.996 8  87057747.44646  21260379.618                    21260377.9944
        49.200          40.4004
 119064607.438 7  92777640.28245  22657227.175                    22657226.6504
        43.800          31.6004
 16  1 15  0  4 14.0000000  0  8G23G16G32G09G06G07G03G26
 108185035.139 8  84300042.55847  20586916.839                    20586910.0374
        53.500          42.4004
 111221140.187 8  86665826.78646  21164665.949                    21164660.8214
        50.100          38.7004
 125946844.039 6  98140402.01544  23966889.944                    23966887.8074
        41.700          25.1004
 114561004.981 8  89268327.43246  21800226.871                    21800225.0834
        49.500          38.4004
 126870866.222 6  98860419.98843  24142723.057                    24142723.6814
        38.900          21.8004
 121254202.252 7  94483803.38845  23073906.874                    23073903.2584
        46.200          30.4004
 111726584.185 8  87059678.50246  21260851.148                    21260849.6274
        48.600          40.4004
 119066541.144 7  92779147.06345  22657595.206                    22657594.6494
        43.600          31.6004
 16  1 15  0  4 15.0000000  0  8G23G16G32G09G06G07G03G26
 108184357.074 8  84299514.19647  20586787.850                    20586781.0374
        52.900          42.4004
 111221120.397 8  86665811.36446  21164662.197                    21164657.0064
        50.600          38.7004
 125950305.910 7  98143099.57444  23967548.507                    23967546.6524
        42.600          25.1004
 114558840.781 8  89266641.04346  21799815.060                    21799813.2644
        49.000          38.4004
 126871564.263 6  98860963.91543  24142855.381                    24142856.4594
        38.900          21.8004
 121251642.472 7  94481808.75645  23073419.472                    23073416.1824
        46.200          31.0004
 111729062.909 8  87061609.97646  21261322.755                    21261321.3924
        48.800          40.4004
 119068475.492 7  92780654.34645  22657963.260                    22657962.8154
        45.200          31.6004
 16  1 15  0  4 16.0000000  0  8G23G16G32G09G06G07G03G26
 108183679.366 8  84298986.11247  20586658.886                    20586652.0434
        52.100          42.5004
 111221101.407 8  86665796.56646  21164658.528                    21164653.4694
        50.300          38.7004
 125953767.961 7  98145797.27344  23968207.583                    23968205.4834
        42.600          24.5004
 114556676.808 8  89264954.83146  21799403.367                    21799401.5034
        48.500          38.4004
 126872262.869 6  98861508.28243  24142988.327                    24142989.4564
        38.900          21.8004
 121249083.011 7  94479814.37245  23072932.345                    23072929.1074
        45.800          31.0004
 111731542.182 8  87063541.87846  21261794.654                    21261793.1694
        50.300          40.2004
 119070410.441 7  92782162.09845  22658331.682                    22658330.9304
        45.300          31.6004
 16  1 15  0  4 17.0000000  0  8G23G16G32G09G06G07G03G26
 108183001.908 8  84298458.22647  20586530.033                    20586523.1584
        52.800          42.2004
 111221083.134 8  86665782.32946  21164655.099                    21164649.9364
        50.300          38.6004
 125957230.133 7  98148495.06844  23968866.147                    23968864.3074
        42.200          24.5004
 114554512.960 8  89263268.71646  21798991.653                    21798989.6764
        49.100          38.4004
 126872962.004 6  98862053.06343  24143121.331                    24143122.3714
        38.900          21.8004
 121246523.724 7  94477820.12345  23072445.200                    23072441.9324
        44.300          31.0004
 111734021.920 8  87065474.13946  21262266.425                    21262265.0764
        50.600          40.2004
 119072345.899 7  92783670.24845  22658700.141                    22658699.2454
        45.300          31.6004
 16  1 15  0  4 18.0000000  0  8G23G16G32G09G06G07G03G26
 108182324.746 8  84297930.56847  20586401.190                    20586394.3024
        53.000          42.3004
 111221065.577 8  86665768.64746  21164651.862                    21164646.6104
        50.100          38.6004
 125960692.439 7  98151192.96644  23969525.129                    23969523.0944
        42.200          24.5004
 114552349.255 8  89261582.71346  21798579.564                    21798577.9294
        49.900          38.5004
 126873661.679 6  98862598.26443  24143254.636                    24143255.4744
        38.200          21.8004
 121243964.694 7  94475826.07445  23071957.997                    23071955.0184
        45.300          31.0004
 111736502.135 8  87067406.77746  21262738.301                    21262736.9894
        49.600          40.6004
 119074281.918 7  92785178.83345  22659068.459                    22659067.6154
        44.500          31.6004
 16  1 15  0  4 19.0000000  0  8G23G16G32G09G06G07G03G26
 108181647.854 8  84297403.12047  20586272.298                    20586265.5214
        53.600          42.3004
 111221048.749 8  86665755.53646  21164648.703                    21164643.4224
        50.200          38.6004
 125964154.877 7  98153890.96844  23970184.174                    23970181.9874
        42.200          24.5004
 114550185.688 8  89259896.81646  21798168.004                    21798166.2084
        48.800          38.5004
 126874361.839 6  98863143.84343  24143388.195                    24143388.6714
        38.200          21.8004
 121241405.877 7  94473832.19445  23071471.276                    23071468.1254
        45.300          31.0004
 111738982.819 8  87069339.77946  21263210.568                    21263209.1404
        49.300          40.6004
 119076218.460 7  92786687.82645  22659437.056                    22659436.1584
        45.300          31.6004
 16  1 15  0  4 20.0000000  0  8G23G16G32G09G06G07G03G26
 108180971.282 8  84296875.92347  20586143.622                    20586136.7544
        53.100          42.3004
 111221032.697 8  86665743.02846  21164645.405                    21164640.3724
        50.800          38.6004
 125967617.489 7  98156589.10844  23970843.172                    23970840.9054
        42.300          24.5004
 114548022.317 8  89258211.07246  21797756.332                    21797754.6024
        49.400          38.5004
 126875062.631 6  98863689.91443  24143521.370                    24143522.0134
        38.200          21.8004
 121238847.348 7  94471838.54045  23070984.349                    23070981.3214
        44.900          31.0004
 111741464.014 8  87071273.17946  21263682.701                    21263681.2084
        50.500          40.5004
 119078155.587 7  92788197.27545  22659805.615                    22659804.6964
        45.000          31.6004
 16  1 15  0  4 21.0000000  0  8G23G16G32G09G06G07G03G26
 108180294.949 8  84296348.91047  20586014.893                    20586008.1054
        52.100          42.7004
 111221017.319 8  86665731.04546  21164642.530                    21164637.4074
        51.200          38.8004
 125971080.198 7  98159287.32044  23971502.293                    23971499.7004
        42.300          24.5004
 114545859.040 8  89256525.40346  21797344.770                    21797343.0514
        48.600          38.7004
 126875763.867 6  98864236.33243  24143654.769                    24143655.5084
        38.200          21.8004
 121236289.000 7  94469845.02445  23070497.338                    23070494.4254
        44.200          31.0004
 111743945.646 8  87073206.91946  21264154.988                    21264153.5904
        50.200          40.5004
 119080093.211 7  92789707.11245  22660174.270                    22660173.3694
        45.000          31.6004
 16  1 15  0  4 22.0000000  0  8G23G16G32G09G06G07G03G26
 108179618.936 8  84295822.14547  20585886.307                    20585879.4444
        52.300          42.7004
 111221002.700 8  86665719.65646  21164639.921                    21164634.6564
        49.800          38.8004
 125974543.053 7  98161985.64744  23972161.153                    23972158.6314
        42.200          24.5004
 114543695.966 8  89254839.89046  21796933.110                    21796931.3084
        49.400          38.7004
 126876465.666 6  98864783.18843  24143788.231                    24143789.0724
        38.200          21.8004
 121233730.919 7  94467851.71645  23070010.559                    23070007.6664
        43.100          31.0004
 111746427.773 8  87075141.04446  21264627.291                    21264625.9154
        50.300          40.3004
 119082031.422 7  92791217.40845  22660542.818                    22660542.2664
        45.100          31.6004
 16  1 15  0  4 23.0000000  0  8G23G16G32G09G06G07G03G26
 108178943.205 8  84295295.60247  20585757.815                    20585750.9164
        51.700          42.7004
 111220988.823 8  86665708.84546  21164637.129                    21164632.0454
        48.900          38.8004
 125978006.065 7  98164684.09544  23972820.088                    23972817.6754
        42.200          24.5004
 114541533.032 8  89253154.48646  21796521.452                    21796519.7124
        49.400          38.7004
 126877168.007 6  98865330.46643  24143922.017                    24143922.6994
        39.100          21.8004
 121231173.076 7  94465858.59445  23069524.072                    23069520.8934
        44.600          31.0004
 111748910.399 8  87077075.55646  21265099.845                    21265098.2624
        48.400          40.3004
 119083970.178 7  92792728.12845  22660912.043                    22660911.2324
        45.400          31.6004
 16  1 15  0  4 24.0000000  0  8G23G16G32G09G06G07G03G26
 108178267.813 8  84294769.32347  20585629.336                    20585622.3844
        52.400          42.3004
 111220975.723 8  86665698.63846  21164635.018                    21164629.5134
        50.100          38.4004
 125981469.245 7  98167382.67544  23973478.504                    23973476.7634
        42.000          24.5004
 114539370.311 8  89251469.25046  21796109.692                    21796108.2024
        49.400          38.5004
 126877870.952 6  98865878.21543  24144055.868                    24144056.6374
        39.100          21.8004
 121228615.513 7  94463865.68745  23069037.051                    23069034.0874
        44.600          31.0004
 111751393.520 8  87079010.45446  21265572.285                    21265570.8114
        50.700          40.7004
 119085909.524 7  92794239.30645  22661280.996                    22661280.1374
        45.600          31.6004
 16  1 15  0  4 25.0000000  0  8G23G16G32G09G06G07G03G26
 108177592.663 8  84294243.23147  20585500.604                    20585493.8324
        52.100          42.5004
 111220963.320 8  86665688.97346  21164632.583                    21164627.1574
        50.100          38.4004
 125984932.501 7  98170081.31544  23974137.940                    23974135.7574
        42.000          24.5004
 114537207.685 8  89249784.08646  21795698.244                    21795696.7404
        49.400          38.5004
 126878574.362 6  98866426.32643  24144189.975                    24144190.4914
        39.100          21.8004
 121226058.123 7  94461872.91645  23068550.758                    23068547.4924
        44.400          31.0004
 111753877.101 8  87080945.71046  21266044.824                    21266043.4984
        49.600          40.7004
 119087849.368 7  92795750.87445  22661649.931                    22661649.2714
        44.400          31.6004
 16  1 15  0  4 26.0000000  0  8G23G16G32G09G06G07G03G26
 108176917.776 8  84293717.34747  20585371.949                    20585365.4224
        51.100          42.4004
 111220951.623 8  86665679.85946  21164630.103                    21164624.8814
        50.200          38.4004
 125988395.890 7  98172780.05844  23974797.003                    23974794.8554
        42.000          24.5004
 114535045.202 8  89248099.03646  21795286.777                    21795285.2544
        48.300          38.5004
 126879278.272 6  98866974.82643  24144323.593                    24144324.3614
        39.100          21.8004
 121223500.978 7  94459880.33745  23068064.165                    23068060.8824
        45.800          31.0004
 111756361.128 8  87082881.31546  21266517.592                    21266516.1594
        49.900          40.7004
 119089789.746 7  92797262.85645  22662019.106                    22662018.6054
        44.400          31.6004
 16  1 15  0  4 27.0000000  0  8G23G16G32G09G06G07G03G26
 108176243.215 8  84293191.71847  20585243.811                    20585237.0294
        51.800          42.3004
 111220940.694 8  86665671.34646  21164628.116                    21164622.8624
        50.300          38.7004
 125991859.451 6  98175478.93544  23975456.081                    23975453.9824
        41.500          24.5004
 114532882.899 8  89246414.12646  21794875.354                    21794873.7474
        48.900          38.5004
 126879982.773 6  98867523.78743  24144457.833                    24144458.4854
        39.100          21.8004
 121220944.092 7  94457887.95745  23067577.639                    23067574.4014
        45.500          31.0004
 111758845.677 8  87084817.32846  21266990.328                    21266988.9134
        48.900          40.6004
 119091730.683 7  92798775.27745  22662388.666                    22662388.0034
        44.400          31.6004
 16  1 15  0  4 28.0000000  0  8G23G16G32G09G06G07G03G26
 108175568.927 8  84292666.30147  20585115.430                    20585108.7534
        51.800          42.3004
 111220930.496 8  86665663.39946  21164625.993                    21164620.8784
        50.700          38.7004
 125995323.145 6  98178177.91544  23976115.171                    23976113.0974
        41.500          24.5004
 114530720.757 8  89244729.33846  21794464.020                    21794462.3384
        49.600          38.5004
 126880687.812 6  98868073.16643  24144591.356                    24144592.5724
        39.200          21.8004
 121218387.450 7  94455895.76945  23067091.205                    23067087.9274
        45.500          31.0004
 111761330.705 8  87086753.71046  21267463.220                    21267461.7264
        49.300          40.6004
 119093672.196 7  92800288.14445  22662758.141                    22662757.4004
        45.000          31.6004
 16  1 15  0  4 29.0000000  0  8G23G16G32G09G06G07G03G26
 108174894.915 8  84292141.09547  20584987.156                    20584980.4854
        52.900          42.4004
 111220921.015 8  86665656.01046  21164624.197                    21164619.1104
        50.500          38.7004
 125998786.945 7  98180876.97844  23976774.270                    23976772.2634
        42.300          24.5004
 114528558.748 8  89243044.65646  21794052.705                    21794050.9104
        49.800          38.5004
 126881393.338 6  98868622.92543  24144726.248                    24144726.7684
        39.200          21.8004
 121215831.027 7  94453903.75045  23066604.730                    23066601.4574
        45.800          31.0004
 111763816.187 8  87088690.44746  21267936.192                    21267934.7434
        49.900          40.5004
 119095614.225 7  92801801.41345  22663127.925                    22663127.0374
        44.600          31.6004
 16  1 15  0  4 30.0000000  0  8G23G16G32G09G06G07G03G26
 108174221.286 8  84291616.19247  20584859.108                    20584852.2644
        52.300          42.5004
 111220912.369 8  86665649.27446  21164622.731                    21164617.4924
        49.900          38.7004
 126002250.994 7  98183576.23644  23977433.603                    23977431.4084
        42.300          24.5004
 114526396.986 7  89241360.16946  21793641.346                    21793639.6784
        47.500          38.5004
 126882099.514 6  98869173.19143  24144860.678                    24144861.2164
        39.200          21.8004
 121213274.909 7  94451911.97145  23066118.546                    23066115.1214
        44.800          31.0004
 111766302.247 8  87090627.63746  21268409.463                    21268407.8534
        50.600          40.5004
 119097556.873 7  92803315.16645  22663497.420                    22663496.6564
        44.600          31.6004
 16  1 15  0  4 31.0000000  0  8G23G16G32G09G06G07G03G26
 108173547.897 8  84291091.47447  20584730.839                    20584724.1284
        50.700          42.5004
 111220904.402 8  86665643.06846  21164621.299                    21164615.9744
        50.200          38.9004
 126005715.130 7  98186275.56244  23978092.592                    23978090.7064
        42.300          24.5004
 114524235.329 7  89239675.75946  21793230.040                    21793228.3404
        47.500          38.8004
 126882806.153 6  98869723.81743  24144995.231                    24144995.6904
        39.200          21.8004
 121210719.010 7  94449920.36045  23065632.079                    23065628.8364
        45.000          31.0004
 111768788.731 8  87092565.15646  21268882.542                    21268881.0374
        48.000          40.6004
 119099500.062 7  92804829.33845  22663867.265                    22663866.4274
        44.600          31.6004
 16  1 15  0  4 32.0000000  0  8G23G16G32G09G06G07G03G26
 108172874.793 8  84290566.97947  20584602.812                    20584596.1174
        52.800          42.5004
 111220897.171 8  86665637.43246  21164619.914                    21164614.6054
        49.900          38.9004
 126009179.419 6  98188975.00644  23978751.580                    23978750.0104
        41.900          24.5004
 114522073.837 8  89237991.47946  21792818.524                    21792816.9134
        48.700          38.8004
 126883513.350 6  98870274.87843  24145130.177                    24145130.2324
        39.700          21.8004
 121208163.328 7  94447928.92245  23065145.540                    23065142.5494
        45.000          30.6004
 111771275.708 8  87094503.06246  21269355.741                    21269354.2664
        48.900          40.6004
 119101443.763 7  92806343.91145  22664237.329                    22664236.3514
        44.700          31.7004
 16  1 15  0  4 33.0000000  0  8G23G16G32G09G06G07G03G26
 108172201.911 8  84290042.65547  20584474.736                    20584468.0814
        52.900          42.4004
 111220890.612 8  86665632.32146  21164618.652                    21164613.3374
        50.700          38.9004
 126012643.749 6  98191674.48344  23979410.625                    23979409.3064
        41.900          24.5004
 114519912.443 8  89236307.27846  21792407.205                    21792405.5724
        48.700          38.8004
 126884221.010 6  98870826.30143  24145264.222                    24145264.9164
        39.700          21.8004
 121205607.819 7  94445937.61645  23064659.400                    23064656.3134
        45.200          30.6004
 111773763.096 8  87096441.28746  21269829.113                    21269827.7044
        49.700          40.3004
 119103387.956 7  92807858.86845  22664607.074                    22664606.3334
        45.400          31.7004
 16  1 15  0  4 34.0000000  0  8G23G16G32G09G06G07G03G26
 108171529.391 8  84289518.61347  20584346.845                    20584340.0774
        52.100          42.2004
 111220884.838 8  86665627.82446  21164617.411                    21164612.2384
        49.600          38.7004
 126016108.328 6  98194374.15244  23980070.082                    23980068.6334
        41.900          24.5004
 114517751.250 8  89234623.23346  21791996.083                    21791994.3684
        49.600          38.7004
 126884929.286 6  98871378.20443  24145399.077                    24145399.6314
        39.700          21.8004
 121203052.644 7  94443946.57245  23064173.212                    23064170.1374
        45.700          30.6004
 111776251.024 8  87098379.93146  21270302.503                    21270301.0514
        50.300          40.3004
 119105332.778 7  92809374.31345  22664977.238                    22664976.4704
        45.300          31.7004
 16  1 15  0  4 35.0000000  0  8G23G16G32G09G06G07G03G26
 108170857.125 8  84288994.77347  20584218.836                    20584212.1334
        52.100          42.4004
 111220879.796 8  86665623.89746  21164616.721                    21164611.3034
        50.300          38.7004
 126019572.980 6  98197073.88044  23980729.483                    23980727.9004
        41.700          24.5004
 114515590.201 8  89232939.29946  21791584.905                    21791583.1874
        48.300          38.7004
 126885638.055 6  98871930.49043  24145534.177                    24145534.4714
        39.700          21.8004
 121200497.648 7  94441955.66945  23063686.917                    23063684.0034
        44.800          30.6004
 111778739.410 8  87100318.93346  21270776.027                    21270774.5594
        50.200          40.3004
 119107278.124 7  92810890.16845  22665347.208                    22665346.6694
        45.300          31.7004
 16  1 15  0  4 36.0000000  0  8G23G16G32G09G06G07G03G26
 108170185.157 8  84288471.16347  20584091.117                    20584084.3044
        51.300          42.4004
 111220875.482 8  86665620.53646  21164615.891                    21164610.4984
        50.700          38.7004
 126023037.771 6  98199773.71344  23981388.960                    23981387.3024
        41.700          24.5004
 114513429.299 8  89231255.48046  21791173.755                    21791171.8774
        49.300          38.7004
 126886347.407 6  98872483.22943  24145669.591                    24145669.4724
        39.900          21.8004
 121197942.898 7  94439964.95645  23063200.861                    23063197.8014
        45.100          30.6004
 111781228.272 8  87102258.30746  21271249.637                    21271248.1154
        49.800          40.3004
 119109224.006 7  92812406.43945  22665717.677                    22665716.9824
        45.400          31.7004
 16  1 15  0  4 37.0000000  0  8G23G16G32G09G06G07G03G26
 108169513.496 8  84287947.79147  20583963.192                    20583956.4414
        51.400          42.6004
 111220871.953 8  86665617.78546  21164615.229                    21164609.8314
        49.900          38.7004
 126026502.725 6  98202473.67344  23982048.083                    23982046.6414
        41.100          24.5004
 114511268.596 8  89229571.81646  21790762.513                    21790760.6764
        48.700          38.9004
 126887057.255 6  98873036.35643  24145804.405                    24145804.4674
        39.900          21.8004
 121195388.403 7  94437974.44345  23062714.837                    23062711.7244
        45.100          30.6004
 111783717.644 8  87104198.07746  21271723.358                    21271721.8724
        49.400          40.5004
 119111170.446 7  92813923.14745  22666088.104                    22666087.4004
        45.600          31.7004
 16  1 15  0  4 38.0000000  0  8G23G16G32G09G06G07G03G26
 108168842.060 8  84287424.59447  20583835.551                    20583828.7264
        51.300          42.4004
 111220869.091 8  86665615.55346  21164614.654                    21164609.2084
        49.500          38.7004
 126029967.759 6  98205173.69744  23982707.228                    23982705.9724
        41.100          24.5004
 114509107.970 8  89227888.21246  21790351.422                    21790349.4874
        49.100          38.9004
 126887767.587 6  98873589.86243  24145939.535                    24145939.6284
        39.900          21.8004
 121192834.085 7  94435984.06645  23062228.425                    23062225.6534
        45.800          30.6004
 111786207.428 8  87106138.16846  21272197.146                    21272195.6204
        50.200          40.5004
 119113117.394 7  92815440.24845  22666458.510                    22666457.9274
        45.200          31.7004
 16  1 15  0  4 39.0000000  0  8G23G16G32G09G06G07G03G26
 108168170.959 8  84286901.66047  20583707.853                    20583700.9314
        49.800          42.4004
 111220867.013 8  86665613.93346  21164614.032                    21164608.8564
        48.600          38.7004
 126033432.994 6  98207873.87644  23983366.757                    23983365.3474
        41.100          24.5004
 114506947.559 8  89226204.77446  21789940.379                    21789938.3594
        49.600          38.9004
 126888478.536 6  98874143.84843  24146074.222                    24146075.0074
        39.900          21.8004
 121190280.070 7  94433993.92945  23061742.377                    23061739.5504
        44.300          30.6004
 111788697.735 7  87108078.66946  21272671.073                    21272669.5344
        47.600          40.3004
 119115064.936 7  92816957.81445  22666829.168                    22666828.5414
        45.400          31.7004
 16  1 15  0  4 40.0000000  0  8G23G16G32G09G06G07G03G26
 108167500.112 8  84286378.92447  20583580.032                    20583573.3844
        50.300          42.4004
 111220865.625 8  86665612.85346  21164613.572                    21164608.4344
        50.000          38.7004
 126036898.323 7  98210574.13044  23984026.313                    23984024.8074
        42.100          24.5004
 114504787.254 8  89224521.42046  21789529.280                    21789527.1564
        48.700          38.9004
 126889189.971 6  98874698.21343  24146210.245                    24146210.3234
        40.000          21.8004
 121187726.228 7  94432003.92445  23061256.482                    23061253.5694
        46.200          30.6004
 111791188.482 8  87110019.51146  21273144.927                    21273143.5664
        50.500          40.3004
 119117012.974 7  92818475.76445  22667199.548                    22667199.0914
        45.400          31.7004
 16  1 15  0  4 41.0000000  0  8G23G16G32G09G06G07G03G26
 108166829.526 8  84285856.38947  20583452.418                    20583445.7244
        50.700          42.4004
 111220864.975 8  86665612.34746  21164613.671                    21164608.3844
        48.800          38.7004
 126040363.742 7  98213274.45344  23984685.663                    23984684.2674
        42.100          24.5004
 114502627.088 8  89222838.17446  21789118.092                    21789116.0294
        49.200          38.9004
 126889901.900 6  98875252.96543  24146345.401                    24146345.7984
        40.000          21.8004
 121185172.629 7  94430014.10945  23060771.137                    23060767.6344
        46.400          30.6004
 111793679.711 8  87111960.72546  21273618.875                    21273617.6624
        50.500          40.7004
 119118961.541 7  92819994.12845  22667570.403                    22667569.8954
        44.500          31.7004
 16  1 15  0  4 42.0000000  0  8G23G16G32G09G06G07G03G26
 108166159.282 8  84285334.12547  20583324.984                    20583318.2964
        52.800          42.3004
 111220865.087 8  86665612.43546  21164613.768                    21164608.3784
        50.200          38.7004
 126043829.365 7  98215974.93344  23985345.521                    23985343.5994
        42.100          24.5004
 114500467.129 8  89221155.09046  21788707.206                    21788704.9784
        49.100          38.9004
 126890614.418 6  98875808.17543  24146480.972                    24146481.3304
        40.000          21.8004
 121182619.310 7  94428024.51145  23060285.214                    23060281.7824
        46.400          30.6004
 111796171.444 8  87113902.33546  21274092.845                    21274091.7924
        49.600          40.7004
 119120910.719 7  92821512.96845  22667941.088                    22667940.7504
        44.900          31.7004
 16  1 15  0  4 43.0000000  0  8G23G16G32G09G06G07G03G26
 108165489.322 8  84284812.07747  20583197.558                    20583190.7174
        52.500          42.4004
 111220865.932 8  86665613.09446  21164613.984                    21164608.5544
        49.700          38.7004
 126047295.127 7  98218675.52344  23986004.857                    23986003.0584
        42.100          24.5004
 114498307.320 8  89219472.12146  21788296.217                    21788293.8564
        49.800          38.9004
 126891327.490 6  98876363.81543  24146616.396                    24146617.0994
        40.000          21.8004
 121180066.210 7  94426035.08645  23059799.175                    23059796.0434
        46.100          30.6004
 111798663.666 8  87115844.32646  21274567.307                    21274566.0844
        49.400          40.6004
 119122860.424 7  92823032.21745  22668312.320                    22668311.8464
        44.300          31.7004
 16  1 15  0  4 44.0000000  0  8G23G16G32G09G06G07G03G26
 108164819.598 8  84284290.21547  20583070.278                    20583063.2314
        53.300          42.4004
 111220867.470 8  86665614.29246  21164614.184                    21164608.8904
        49.900          38.5004
 126050760.954 7  98221376.16744  23986664.626                    23986662.5724
        42.100          24.5004
 114496147.619 8  89217789.23846  21787885.191                    21787882.9734
        50.100          38.6004
 126892041.004 6  98876919.80143  24146752.189                    24146752.8824
        39.400          21.9004
 121177513.299 7  94424045.80645  23059313.335                    23059310.0784
        45.900          30.6004
 111801156.310 8  87117786.64746  21275041.709                    21275040.5274
        50.000          40.6004
 119124810.605 7  92824551.83645  22668683.661                    22668682.9344
        44.300          31.7004
 16  1 15  0  4 45.0000000  0  8G23G16G32G09G06G07G03G26
 108164150.249 8  84283768.64447  20582942.831                    20582935.8384
        52.700          42.4004
 111220869.815 8  86665616.12146  21164614.633                    21164609.2644
        50.100          38.5004
 126054227.033 7  98224077.00544  23987323.898                    23987322.0904
        42.000          24.5004
 114493988.151 8  89216106.53446  21787474.144                    21787472.0014
        50.100          38.6004
 126892755.169 6  98877476.29443  24146888.053                    24146888.7874
        39.400          21.9004
 121174960.731 7  94422056.79145  23058827.565                    23058824.3074
        45.600          30.6004
 111803649.499 8  87119729.39246  21275516.073                    21275514.9514
        50.300          40.8004
 119126761.450 7  92826071.97445  22669054.900                    22669054.2084
        44.300          31.7004
 16  1 15  0  4 46.0000000  0  8G23G16G32G09G06G07G03G26
 108163481.213 8  84283247.32147  20582815.581                    20582808.5564
        52.300          42.7004
 111220872.919 8  86665618.53946  21164615.197                    21164609.8274
        50.900          38.5004
 126057693.227 7  98226777.93344  23987983.598                    23987981.6324
        42.000          24.5004
 114491828.868 8  89214423.97646  21787063.547                    21787061.1144
        49.400          38.6004
 126893469.889 6  98878033.21943  24147023.760                    24147024.7984
        39.400          21.9004
 121172408.395 7  94420067.96145  23058341.964                    23058338.6764
        46.000          30.6004
 111806143.216 8  87121672.54746  21275990.553                    21275989.5484
        48.200          40.8004
 119128712.867 7  92827592.56245  22669426.033                    22669425.6404
        45.100          32.0004
 16  1 15  0  4 47.0000000  0  8G23G16G32G09G06G07G03G26
 108162812.410 8  84282726.17547  20582688.296                    20582681.2884
        51.100          42.6004
 111220876.710 8  86665621.49446  21164615.859                    21164610.5564
        50.500          38.5004
 126061159.528 7  98229478.94344  23988643.328                    23988641.2094
        42.300          24.5004
 114489669.692 8  89212741.50146  21786652.768                    21786650.1624
        49.600          38.6004
 126894185.082 6  98878590.51243  24147160.398                    24147160.9434
        39.400          21.9004
 121169856.255 7  94418079.28245  23057856.213                    23057852.9254
        45.500          30.6004
 111808637.354 8  87123616.03146  21276465.297                    21276464.2304
        49.100          40.8004
 119130664.760 7  92829113.51745  22669797.265                    22669797.1474
        45.600          32.0004
 16  1 15  0  4 48.0000000  0  8G23G16G32G09G06G07G03G26
 108162143.917 8  84282205.27247  20582561.163                    20582554.1044
        50.700          42.2004
 111220881.259 8  86665625.03946  21164616.635                    21164611.3774
        49.100          38.5004
 126064625.973 7  98232180.06744  23989302.851                    23989300.8094
        42.300          24.5004
 114487510.685 8  89211059.15546  21786241.937                    21786239.3174
        48.500          38.6004
 126894900.832 6  98879148.23943  24147296.391                    24147297.1594
        39.400          21.9004
 121167304.382 7  94416090.80845  23057370.577                    23057367.2884
        44.500          30.6004
 111811131.984 8  87125559.89746  21276940.010                    21276938.8774
        49.500          40.3004
 119132617.209 7  92830634.90445  22670168.894                    22670168.5704
        45.600          32.0004
 16  1 15  0  4 49.0000000  0  8G23G16G32G09G06G07G03G26
 108161475.692 8  84281684.57647  20582434.046                    20582426.9924
        51.600          42.2004
 111220886.507 8  86665629.12946  21164617.520                    21164612.4044
        50.500          38.5004
 126068092.526 7  98234881.27444  23989962.396                    23989960.4204
        42.300          24.5004
 114485351.807 7  89209376.91246  21785831.185                    21785828.4394
        47.800          38.6004
 126895617.083 6  98879706.35843  24147433.144                    24147433.4604
        39.800          21.9004
 121164752.701 7  94414102.48645  23056884.910                    23056881.6874
        45.000          31.0004
 111813627.063 8  87127504.11546  21277414.887                    21277413.7014
        49.200          40.3004
 119134570.197 7  92832156.71345  22670540.703                    22670540.1194
        44.500          32.0004
 16  1 15  0  4 50.0000000  0  8G23G16G32G09G06G07G03G26
 108160807.783 8  84281164.12847  20582306.868                    20582299.8764
        52.300          42.7004
 111220892.521 8  86665633.81546  21164618.826                    21164613.6024
        50.600          38.5004
 126071559.256 6  98237582.62144  23990622.540                    23990620.1094
        41.800          24.5004
 114483193.126 8  89207694.82346  21785420.271                    21785417.7244
        50.300          38.6004
 126896333.907 6  98880264.92343  24147569.962                    24147569.8404
        39.800          21.9004
 121162201.301 7  94412114.38245  23056399.418                    23056396.1974
        46.200          31.0004
 111816122.651 8  87129448.72846  21277889.814                    21277888.6404
        50.000          40.8004
 119136523.750 7  92833678.96145  22670912.266                    22670911.9014
        44.900          32.0004
 16  1 15  0  4 51.0000000  0  8G23G16G32G09G06G07G03G26
 108160140.041 8  84280643.81147  20582179.663                    20582172.7334
        52.300          42.6004
 111220899.145 8  86665638.97846  21164620.090                    21164614.8114
        49.000          38.6004
 126075026.009 6  98240283.98544  23991281.924                    23991279.9594
        41.800          24.5004
 114481034.470 8  89206012.75346  21785009.568                    21785006.8234
        48.800          38.4004
 126897051.134 6  98880823.80043  24147706.317                    24147706.3844
        39.800          21.9004
 121159650.001 7  94410126.35645  23055913.814                    23055910.7314
        45.900          31.0004
 111818618.611 8  87131393.63446  21278364.844                    21278363.5354
        50.200          40.8004
 119138477.731 7  92835201.54545  22671284.272                    22671283.8414
        44.900          32.0004
 16  1 15  0  4 52.0000000  0  8G23G16G32G09G06G07G03G26
 108159472.665 8  84280123.77747  20582052.670                    20582045.7674
        51.400          42.7004
 111220906.579 8  86665644.76946  21164621.623                    21164616.2094
        48.900          38.6004
 126078492.961 7  98242985.50444  23991942.075                    23991939.6894
        42.400          24.5004
 114478876.049 8  89204330.86646  21784598.836                    21784596.1724
        49.600          38.4004
 126897768.969 6  98881383.15343  24147842.177                    24147843.0744
        39.800          21.9004
 121157099.040 7  94408138.59345  23055428.473                    23055425.2804
        45.900          31.0004
 111821115.117 8  87133338.96446  21278840.162                    21278838.6554
        49.700          40.7004
 119140432.337 7  92836724.61245  22671656.098                    22671655.8784
        45.000          32.0004
 16  1 15  0  4 53.0000000  0  8G23G16G32G09G06G07G03G26
 108158805.613 8  84279603.99847  20581925.591                    20581918.7794
        50.900          42.3004
 111220914.784 8  86665651.16146  21164623.003                    21164617.8404
        48.600          38.6004
 126081960.081 7  98245687.15244  23992601.707                    23992599.5404
        42.400          24.5004
 114476717.819 8  89202649.12746  21784188.095                    21784185.4694
        49.900          38.4004
 126898487.376 6  98881942.95343  24147979.425                    24147979.7824
        38.600          21.9004
 121154548.340 7  94406151.03645  23054943.167                    23054939.8024
        46.300          31.0004
 111823612.133 8  87135284.69046  21279315.324                    21279313.7484
        50.700          40.7004
 119142387.527 7  92838248.14245  22672028.142                    22672027.9394
        45.900          32.0004
 16  1 15  0  4 54.0000000  0  8G23G16G32G09G06G07G03G26
 108158138.816 8  84279084.41847  20581798.785                    20581791.9204
        52.200          42.3004
 111220923.700 8  86665658.10946  21164624.769                    21164619.5964
        50.000          38.7004
 126085427.298 7  98248388.87744  23993261.424                    23993259.3374
        42.300          24.5004
 114474559.718 8  89200967.48846  21783777.405                    21783774.7554
        49.900          38.4004
 126899206.292 6  98882503.14743  24148116.073                    24148116.6004
        38.600          21.9004
 121151997.839 7  94404163.63245  23054457.880                    23054454.5224
        46.800          31.0004
 111826109.607 8  87137230.77246  21279790.473                    21279788.9914
        49.600          40.5004
 119144343.219 7  92839772.06045  22672400.303                    22672400.0084
        44.600          32.0004
 16  1 15  0  4 55.0000000  0  8G23G16G32G09G06G07G03G26
 108157472.389 8  84278565.12647  20581671.824                    20581665.1594
        51.800          42.4004
 111220933.426 8  86665665.68846  21164626.662                    21164621.5034
        49.600          38.7004
 126088894.734 7  98251090.77044  23993921.157                    23993919.0974
        42.300          24.4004
 114472401.847 8  89199286.02946  21783366.705                    21783364.2534
        49.500          38.4004
 126899925.816 6  98883063.81443  24148252.669                    24148253.4944
        38.600          21.9004
 121149447.663 7  94402176.48245  23053972.567                    23053969.3044
        45.300          31.0004
 111828607.636 8  87139177.28846  21280265.759                    21280264.2574
        50.100          40.5004
 119146299.555 7  92841296.47745  22672772.382                    22672772.2924
        44.600          32.0004
 16  1 15  0  4 56.0000000  0  8G23G16G32G09G06G07G03G26
 108156806.169 8  84278045.99447  20581545.149                    20581538.3154
        52.100          42.6004
 111220943.792 8  86665673.76646  21164628.740                    21164623.5634
        49.300          38.7004
 126092362.242 7  98253792.72444  23994580.999                    23994578.8484
        42.300          24.4004
 114470244.054 8  89197604.63346  21782956.040                    21782953.6764
        49.700          38.4004
 126900645.802 6  98883624.84643  24148389.516                    24148390.5564
        38.600          21.9004
 121146897.638 7  94400189.45145  23053487.272                    23053484.0464
        43.800          31.0004
 111831106.048 8  87141124.10246  21280741.103                    21280739.6614
        50.100          40.7004
 119148256.336 7  92842821.24445  22673144.983                    22673144.6654
        44.400          32.0004
 16  1 15  0  4 57.0000000  0  8G23G16G32G09G06G07G03G26
 108156140.200 8  84277527.05847  20581418.267                    20581411.5564
        52.100          42.5004
 111220954.862 8  86665682.38946  21164630.724                    21164625.6374
        49.900          38.7004
 126095829.843 7  98256494.74844  23995240.699                    23995238.6444
        42.800          24.4004
 114468086.376 8  89195923.32646  21782545.708                    21782543.1804
        49.200          38.7004
 126901366.277 6  98884186.25743  24148526.998                    24148527.6474
        38.600          21.9004
 121144347.811 7  94398202.57445  23053001.930                    23052998.8824
        46.000          31.0004
 111833604.911 8  87143071.26646  21281216.556                    21281215.1604
        50.400          40.7004
 119150213.626 7  92844346.40745  22673517.370                    22673517.1174
        45.600          32.0004
 16  1 15  0  4 58.0000000  0  8G23G16G32G09G06G07G03G26
 108155474.521 8  84277008.34947  20581291.660                    20581284.8224
        52.900          42.5004
 111220966.659 8  86665691.58146  21164632.910                    21164627.7774
        50.100          38.6004
 126099297.575 7  98259196.87544  23995901.042                    23995898.4774
        42.800          24.4004
 114465928.862 8  89194242.14846  21782134.938                    21782132.6714
        50.100          38.7004
 126902087.303 6  98884748.09743  24148663.773                    24148664.8704
        39.300          21.9004
 121141798.229 7  94396215.88845  23052516.808                    23052513.7424
        45.500          31.0004
 111836104.248 8  87145018.80146  21281692.109                    21281690.8544
        50.300          40.5004
 119152171.469 7  92845871.99845  22673889.985                    22673889.7154
        45.500          32.0004
 16  1 15  0  4 59.0000000  0  8G23G16G32G09G06G07G03G26
 108154809.178 8  84276489.90347  20581164.910                    20581158.2124
        52.900          42.8004
 111220979.244 8  86665701.38846  21164635.196                    21164630.0684
        49.600          38.6004
 126102765.471 7  98261899.12844  23996560.925                    23996558.4464
        42.400          24.4004
 114463771.537 8  89192561.11246  21781724.403                    21781722.1874
        49.400          38.7004
 126902808.874 6  98885310.36143  24148800.846                    24148802.1004
        39.300          21.9004
 121139248.930 7  94394229.42245  23052031.739                    23052028.5944
        46.000          31.0004
 111838604.102 8  87146966.74046  21282167.769                    21282166.5264
        49.900          40.5004
 119154129.898 7  92847398.04645  22674262.646                    22674262.2274
        45.500          32.0004
 16  1 15  0  5  0.0000000  0  8G23G16G32G09G06G07G03G26
 108154144.114 8  84275971.67147  20581038.426                    20581031.7884
        52.800          42.4004
 111220992.569 8  86665711.77146  21164637.947                    21164632.7004
        49.800          38.6004
 126106233.522 7  98264601.50244  23997221.054                    23997218.3374
        42.400          24.4004
 114461614.376 8  89190880.20646  21781314.046                    21781311.6744
        49.900          38.7004
 126903530.982 6  98885873.04543  24148938.261                    24148939.6384
        39.300          21.9004
 121136699.877 7  94392243.14845  23051546.778                    23051543.4974
        45.400          31.0004
 111841104.427 8  87148915.04446  21282643.788                    21282642.2484
        50.400          40.4004
 119156088.875 7  92848924.52445  22674635.224                    22674634.9594
        44.300          31.8004
 16  1 15  0  5  1.0000000  0  8G23G16G32G09G06G07G03G26
 108153479.372 8  84275453.69147  20580911.847                    20580905.2604
        51.600          42.5004
 111221006.631 8  86665722.73146  21164640.530                    21164635.4204
        50.600          38.5004
 126109701.707 6  98267303.98444  23997880.835                    23997878.3584
        41.500          24.4004
 114459457.380 8  89189199.43046  21780903.478                    21780901.1674
        50.500          38.8004
 126904253.630 6  98886436.14843  24149076.188                    24149077.0354
        39.300          21.9004
 121134151.073 7  94390257.06945  23051061.777                    23051058.5164
        44.800          31.0004
 111843605.262 8  87150863.74646  21283119.628                    21283118.1434
        49.700          40.4004
 119158048.415 7  92850451.43845  22675008.154                    22675007.8584
        44.800          31.8004
 16  1 15  0  5  2.0000000  0  8G23G16G32G09G06G07G03G26
 108152814.906 8  84274935.92647  20580785.398                    20580778.8314
        51.300          42.5004
 111221021.426 8  86665734.26246  21164643.511                    21164638.2044
        51.000          38.5004
 126113170.043 6  98270006.58244  23998541.392                    23998538.3364
        41.500          24.4004
 114457300.546 8  89187518.78146  21780492.850                    21780490.8014
        49.800          38.8004
 126904976.860 6  98886999.70543  24149213.947                    24149214.6054
        39.300          21.9004
 121131602.485 7  94388271.15945  23050576.967                    23050573.5044
        44.800          31.0004
 111846106.556 8  87152812.80546  21283595.507                    21283594.1454
        49.600          40.5004
 119160008.499 7  92851978.77545  22675380.766                    22675380.8654
        44.400          31.8004
 16  1 15  0  5  3.0000000  0  8G23G16G32G09G06G07G03G26
 108152150.785 8  84274418.43147  20580659.047                    20580652.3764
        52.200          42.5004
 111221037.009 8  86665746.40646  21164646.620                    21164641.1714
        50.400          38.5004
 126116638.547 6  98272709.30944  23999201.183                    23999198.4104
        41.500          24.4004
 114455143.917 8  89185838.29146  21780082.233                    21780080.4224
        50.000          38.8004
 126905700.632 6  98887563.68343  24149351.199                    24149352.3804
        38.600          21.9004
 121129054.210 7  94386285.49245  23050091.628                    23050088.4884
        44.600          31.6004
 111848608.382 8  87154762.28146  21284071.691                    21284070.2834
        50.100          40.5004
 119161969.188 7  92853506.58645  22675754.110                    22675754.0754
        44.400          31.8004
 16  1 15  0  5  4.0000000  0  8G23G16G32G09G06G07G03G26
 108151486.950 8  84273901.15947  20580532.846                    20580526.0264
        52.500          42.2004
 111221053.317 8  86665759.11646  21164649.771                    21164644.1614
        49.900          38.5004
 126120107.193 7  98275412.14744  23999861.409                    23999858.4794
        42.400          24.4004
 114452987.450 8  89184157.92846  21779671.988                    21779669.9944
        49.600          38.7004
 126906424.953 6  98888128.09243  24149488.985                    24149490.2664
        38.600          21.9004
 121126506.159 7  94384300.00145  23049606.662                    23049603.6274
        46.400          31.6004
 111851110.694 8  87156712.13346  21284547.730                    21284546.4474
        50.100          40.4004
 119163930.407 7  92855034.80945  22676127.663                    22676127.2594
        45.300          31.8004
 16  1 15  0  5  5.0000000  0  8G23G16G32G09G06G07G03G26
 108150823.370 8  84273384.08447  20580406.648                    20580399.7404
        51.500          42.5004
 111221070.335 8  86665772.37946  21164652.904                    21164647.4874
        50.700          38.5004
 126123575.902 7  98278115.03444  24000521.075                    24000518.5964
        42.400          24.4004
 114450831.094 8  89182477.64946  21779261.813                    21779259.7174
        48.600          38.7004
 126907149.758 6  98888692.87543  24149627.045                    24149628.0824
        38.600          21.9004
 121123958.309 7  94382314.66645  23049122.000                    23049118.9594
        45.200          31.6004
 111853613.437 8  87158662.32246  21285023.890                    21285022.6354
        49.800          40.4004
 119165892.121 7  92856563.41745  22676500.879                    22676500.4934
        44.400          31.8004
 16  1 15  0  5  6.0000000  0  8G23G16G32G09G06G07G03G26
 108150160.082 8  84272867.23747  20580280.335                    20580273.5284
        51.900          42.9004
 111221088.091 8  86665786.21446  21164656.226                    21164650.8634
        50.900          38.5004
 126127044.791 7  98280818.06444  24001181.675                    24001178.6324
        42.600          24.4004
 114448674.898 8  89180797.49646  21778851.557                    21778849.4114
        49.600          38.7004
 126907875.118 6  98889258.09043  24149765.331                    24149766.0704
        38.600          21.9004
 121121410.705 7  94380329.52245  23048637.280                    23048634.1394
        46.200          31.6004
 111856116.667 8  87160612.88846  21285500.321                    21285499.0334
        49.000          40.3004
 119167854.406 7  92858092.46945  22676874.296                    22676873.9174
        44.400          31.8004
 16  1 15  0  5  7.0000000  0  8G23G16G32G09G06G07G03G26
 108149497.082 8  84272350.61247  20580154.229                    20580147.4374
        51.900          42.9004
 111221106.575 8  86665800.61846  21164659.664                    21164654.3874
        51.200          38.5004
 126130513.795 7  98283521.18344  24001841.716                    24001838.7084
        42.600          24.4004
 114446518.868 8  89179117.47346  21778441.082                    21778439.1284
        49.100          38.8004
 126908601.000 6  98889823.71243  24149903.443                    24149904.2194
        38.600          21.9004
 121118863.318 7  94378344.54845  23048152.372                    23048149.4744
        46.200          31.6004
 111858620.369 8  87162563.82546  21285976.785                    21285975.4134
        50.000          40.3004
 119169817.206 7  92859621.92345  22677247.894                    22677247.4044
        45.100          31.8004
 16  1 15  0  5  8.0000000  0  8G23G16G32G09G06G07G03G26
 108148834.401 8  84271834.24047  20580028.280                    20580021.3214
        53.200          42.6004
 111221125.824 8  86665815.61846  21164663.483                    21164658.0694
        51.400          38.4004
 126133982.954 7  98286224.42244  24002501.669                    24002498.8264
        42.400          24.4004
 114444363.009 8  89177437.58546  21778030.777                    21778028.9274
        50.100          38.8004
 126909327.456 6  98890389.77843  24150041.764                    24150042.4224
        39.200          21.9004
 121116316.194 7  94376359.77745  23047667.815                    23047664.8594
        45.600          31.6004
 111861124.570 8  87164515.15246  21286453.523                    21286452.0964
        49.400          40.4004
 119171780.618 7  92861151.85545  22677621.958                    22677621.0134
        45.500          31.8004
 16  1 15  0  5  9.0000000  0  8G23G16G32G09G06G07G03G26
 108148171.994 8  84271318.07947  20579902.118                    20579895.2244
        52.200          42.8004
 111221145.773 8  86665831.16546  21164667.140                    21164661.9364
        51.400          38.4004
 126137452.252 7  98288927.76744  24003162.182                    24003159.0224
        42.400          24.4004
 114442207.274 8  89175757.79046  21777620.528                    21777618.7284
        49.400          38.8004
 126910054.385 6  98890956.21743  24150180.108                    24150180.8634
        39.200          21.9004
 121113769.294 7  94374375.18245  23047183.123                    23047180.2414
        45.600          31.6004
 111863629.228 8  87166466.83346  21286930.188                    21286928.7044
        49.500          40.4004
 119173744.516 7  92862682.16445  22677995.627                    22677994.7454
        45.900          31.8004
 16  1 15  0  5 10.0000000  0  8G23G16G32G09G06G07G03G26
 108147509.885 8  84270802.15147  20579776.107                    20579769.2604
        53.800          42.6004
 111221166.499 8  86665847.31446  21164671.270                    21164665.8654
        51.200          38.4004
 126140921.689 7  98291631.22244  24003822.640                    24003819.2104
        43.400          24.4004
 114440051.725 8  89174078.14246  21777210.423                    21777208.5624
        48.700          38.9004
 126910781.878 6  98891523.09743  24150319.059                    24150319.2544
        39.200          21.9004
 121111222.653 7  94372390.79145  23046698.508                    23046695.6064
        46.700          31.6004
 111866134.389 8  87168418.90646  21287407.034                    21287405.4234
        49.400          40.4004
 119175708.994 7  92864212.92545  22678369.448                    22678368.5244
        45.800          31.8004
