     2.11           OBSERVATION DATA    G (GPS)             RINEX VERSION / TYPE
teqc  2015Nov6      NGS Web User        20160202 00:05:11UTCPGM / RUN BY / DATE
Solaris x86 5.10|AMD64|cc SC5.8 -xarch=amd64|=+|=+          COMMENT
teqc  2015Nov6      NOAA/NOS/NGS/CORS   20160201 12:45:14UTCCOMMENT
teqc  2015Nov6      UNAVCO Archive Ops  20160201 12:34:54UTCCOMMENT
BIT 2 OF LLI FLAGS DATA COLLECTED UNDER A/S CONDITION       COMMENT
input file: seat201602011100f.bnx                           COMMENT
 hourly file                                                COMMENT
RINEX file created by UNAVCO GPS Archive.                   COMMENT
For more information contact archive@unavco.org             COMMENT
Monument ID: 18010                                          COMMENT
UNAVCO 4-char name:   SEAT                                  COMMENT
4-char name from Log or data file: SEAT                     COMMENT
Monument location: 47.653977 -122.309476 44.2292            COMMENT
Visit ID: 101410                                            COMMENT
End of DB comments                                          COMMENT
 SNR is mapped to RINEX snr flag value [0-9]                COMMENT
  L1 & L2: min(max(int(snr_dBHz/6), 0), 9)                  COMMENT
teqc edited: all SBAS satellites excluded                   COMMENT
teqc edited: all Compass satellites excluded                COMMENT
teqc edited: all QZSS satellites excluded                   COMMENT
SEAT                                                        MARKER NAME
40457M002                                                   MARKER NUMBER
UW                  University of Washington                OBSERVER / AGENCY
4552261579          TRIMBLE NETRS       1.3-0               REC # / TYPE / VERS
0220061145          TRM29659.00     UNAV                    ANT # / TYPE
 -2300592.8570 -3637848.2430  4691079.2150                  APPROX POSITION XYZ
        0.1233        0.0000        0.0000                  ANTENNA: DELTA H/E/N
     1     1                                                WAVELENGTH FACT L1/2
     7    L1    L2    C1    P2    P1    S1    S2            # / TYPES OF OBSERV
     1.0000                                                 INTERVAL
teqc windowed: start @ 2016 Feb  1 12:00:00.000             COMMENT
teqc windowed:  end  @ 2016 Feb  1 13:00:00.000             COMMENT
teqc edited: all GLONASS satellites excluded                COMMENT
  2016     2     1    12     0    0.0000000     GPS         TIME OF FIRST OBS
                                                            END OF HEADER
 16  2  1 12  0  0.0000000  0 10G26G20G02G29G13G05G21G25G18G16
 120191579.842 6  93655745.01244  22871696.761    22871687.5754
        41.100          29.7004
 108423317.255 7  84485657.87846  20632269.426    20632256.1364
        47.900          38.8004
 126625361.144 6  98669062.13743  24096003.453    24095988.7574
        36.900          19.6004
 105263289.111 8  82023310.90647  20030935.032    20030922.5634
        50.200          45.3004
 131147566.242 5                  24956552.483
        34.300
 113435526.661 7  88391283.24146  21586060.509    21586047.9814
        47.800          38.0004
 119568586.466 7  93170264.67444  22753143.690    22753129.8734
        43.700          29.3004
 120734733.757 7  94078981.29244  22975056.208    22975045.0284
        42.600          28.8004
 128544993.746 5                  24461299.604
        33.700
                                  24682347.392
        29.100
                            4 19
RINEX FILE SPLICE                                           COMMENT
teqc  2015Nov6      NOAA/NOS/NGS/CORS   20160201 13:44:35UTCCOMMENT
teqc  2015Nov6      UNAVCO Archive Ops  20160201 13:40:22UTCCOMMENT
BIT 2 OF LLI FLAGS DATA COLLECTED UNDER A/S CONDITION       COMMENT
input file: seat201602011200f.bnx                           COMMENT
 hourly file                                                COMMENT
RINEX file created by UNAVCO GPS Archive.                   COMMENT
For more information contact archive@unavco.org             COMMENT
Monument ID: 18010                                          COMMENT
UNAVCO 4-char name:   SEAT                                  COMMENT
4-char name from Log or data file: SEAT                     COMMENT
Monument location: 47.653977 -122.309476 44.2292            COMMENT
Visit ID: 101410                                            COMMENT
End of DB comments                                          COMMENT
 SNR is mapped to RINEX snr flag value [0-9]                COMMENT
  L1 & L2: min(max(int(snr_dBHz/6), 0), 9)                  COMMENT
teqc edited: all SBAS satellites excluded                   COMMENT
teqc edited: all Compass satellites excluded                COMMENT
teqc edited: all QZSS satellites excluded                   COMMENT
 16  2  1 12  0  1.0000000  0 10G26G20G02G29G13G05G21G25G18G16
 120189625.310 6  93654221.99644  22871324.682    22871315.1444
        41.300          29.0004
 108421606.040 8  84484324.46946  20631943.673    20631930.6184
        48.100          38.5004
 126628227.482 6  98671295.64343  24096548.895    24096533.9644
        36.900          19.6004
 105263354.946 8  82023362.20047  20030947.127    20030935.2454
        50.200          45.1004
 131144611.422 5                  24955989.385
        35.000
 113437277.287 7  88392647.36346  21586393.722    21586381.1364
        47.900          37.7004
 119566477.268 7  93168621.14344  22752741.947    22752728.3654
        43.900          29.6004
 120738233.589 7  94081708.43544  22975721.817    22975711.1064
        43.000          28.0004
 128541530.885 5                  24460640.922
        33.900
                                  24681734.146
        29.900
 16  2  1 12  0  2.0000000  0 10G26G20G02G29G13G05G21G25G18G16
 120187676.501 7  93652703.44444  22870953.897    22870944.3584
        42.000          28.6004
 108419900.543 8  84482995.51446  20631618.704    20631605.7074
        48.300          38.8004
 126631099.017 6  98673533.19243  24097095.640    24097080.6514
        36.800          19.6004
 105263426.367 8  82023417.85147  20030960.643    20030948.6434
        50.400          44.9004
 131141661.830 5                  24955428.747
        35.400
 113439033.606 8  88394015.92246  21586728.071    21586715.6604
        48.000          38.0004
 119564373.439 7  93166981.79044  22752341.775    22752328.4274
        44.200          29.5004
 120741738.823 7  94084439.78844  22976388.523    22976377.9884
        42.800          27.7004
 128538073.246 5                  24459983.215
        34.300
 129700170.23314                  24681121.773
        28.900
 16  2  1 12  0  3.0000000  0 10G26G20G02G29G13G05G21G25G18G16
 120185726.436 6  93651183.91644  22870582.872    22870573.5104
        41.900          29.3004
 108418193.853 8  84481665.62646  20631294.248    20631281.1934
        48.200          39.0004
 126633968.821 6  98675769.40543  24097641.687    24097626.7564
        37.000          19.3004
 105263496.501 8  82023472.50347  20030974.248    20030962.2484
        50.200          45.1004
 131138710.669 5                  24954867.223
        34.200
 113440788.737 8  88395383.55246  21587062.745    21587049.3384
        48.000          38.1004
 119562267.996 7  93165341.18844  22751940.723    22751927.4924
        44.100          29.8004
 120745242.531 7  94087169.94644  22977055.571    22977044.8604
        42.600          28.0004
 128534613.931 5                  24459324.501
        34.000
 129696951.605 4                  24680509.184
        29.100
 16  2  1 12  0  4.0000000  0 10G26G20G02G29G13G05G21G25G18G16
 120183776.957 6  93649664.84244  22870212.519    22870202.8634
        41.900          29.5004
 108416487.748 8  84480336.19646  20630969.803    20630956.1044
        48.100          38.8004
 126636838.718 6  98678005.68643  24098188.011    24098172.8464
        37.000          19.6004
 105263567.092 8  82023527.51247  20030987.745    20030975.5694
        50.600          45.2004
 131135759.638 5                  24954306.332
        33.900
 113442544.426 7  88396751.62046  21587396.460    21587383.5224
        47.700          37.8004
 119560162.799 7  93163700.77044  22751540.343    22751526.7024
        43.800          29.7004
 120748746.482 7  94089900.29644  22977722.104    22977711.7454
        42.600          27.7004
 128531154.705 5                  24458666.388
        33.900
 129693733.280 4                  24679895.185
        28.900
 16  2  1 12  0  5.0000000  0 10G26G20G02G29G13G05G21G25G18G16
 120181827.971 7  93648146.14844  22869841.141    22869831.8374
        42.100          28.7004
 108414782.191 8  84479007.18646  20630645.396    20630631.6964
        48.400          38.7004
 126639708.627 6  98680241.98443  24098734.728    24098719.2124
        37.700          19.6004
 105263638.105 8  82023582.84247  20031001.423    20030989.1884
        50.900          45.1004
 131132808.790 5                  24953744.787
        34.400
 113444300.658 7  88398120.12046  21587730.571    21587717.5164
        47.300          37.9004
 119558057.750 7  93162060.47244  22751139.460    22751125.9944
        43.500          29.9004
 120752250.667 7  94092630.83144  22978389.165    22978378.5134
        42.500          28.7004
 128527695.488 5                  24458007.782
        33.300
                                  24679283.796
        28.900
 16  2  1 12  0  6.0000000  0 10G26G20G02G29G13G05G21G25G18G16
 120179877.860 6  93646626.58444  22869470.790    22869460.5484
        41.700          28.5004
 108413075.520 8  84477677.31346  20630319.889    20630306.9514
        48.000          38.8004
 126642576.891 6  98682477.00143  24099280.947    24099264.8444
        37.300          19.9004
 105263707.926 8  82023637.25147  20031014.815    20031002.4054
        51.300          44.9004
 131129856.348 5                  24953183.034
        34.600
 113446055.780 7  88399487.74846  21588064.798    21588051.6254
        47.500          37.8004
 119555951.232 7  93160419.02444  22750738.579    22750725.2904
        43.800          29.3004
 120755753.368 7  94095360.21444  22979055.659    22979045.1244
        42.300          28.5004
 128524234.633 5                  24457349.601
        32.900
                                  24678670.187
        28.600
 16  2  1 12  0  7.0000000  0 10G26G20G02G29G13G05G21G25G18G16
 120177930.113 7  93645108.84944  22869099.577    22869090.1564
        42.000          28.3004
 108411371.254 7  84476349.31246  20629995.734    20629982.7374
        47.900          38.7004
 126645447.061 6  98684713.49743  24099826.693    24099811.1174
        37.400          20.1004
 105263780.000 8  82023693.41147  20031028.426    20031016.0744
        51.000          45.1004
 131126905.886 5                  24952621.785
        35.400
 113447813.265 7  88400857.21846  21588398.769    21588385.9484
        47.600          37.4004
 119553846.694 7  93158779.12644  22750337.852    22750324.7394
        43.800          29.3004
 120759258.173 7  94098091.22544  22979722.177    22979711.9364
        42.400          28.5004
 128520775.710 5                  24456691.109
        33.500
                                  24678060.140
        28.000
 16  2  1 12  0  8.0000000  0 10G26G20G02G29G13G05G21G25G18G16
 120175982.776 6  93643591.44444  22868728.607    22868719.5374
        41.500          28.4004
 108409667.455 7  84475021.67646  20629671.408    20629658.3534
        47.600          38.7004
 126648317.142 6  98686949.92443  24100373.358    24100357.2554
        37.400          20.1004
 105263852.448 8  82023749.86647  20031042.033    20031030.0334
        50.600          45.1004
 131123955.390 5                  24952060.606
        34.600
 113449571.204 7  88402227.04246  21588733.459    21588720.8734
        47.500          37.4004
 119551742.239 7  93157139.29544  22749937.628    22749924.5144
        43.700          29.7004
 120762763.085 7  94100822.32644  22980389.209    22980378.8504
        42.300          26.9004
 128517316.735 5                  24456033.816
        33.500
 129680858.21514                  24677446.814
        28.300
 16  2  1 12  0  9.0000000  0 10G26G20G02G29G13G05G21G25G18G16
 120174036.036 7  93642074.49744  22868358.724    22868349.0104
        42.000          28.7004
 108407964.289 7  84473694.53346  20629347.266    20629334.2114
        47.400          39.0004
 126651187.306 6  98689186.42543  24100919.247    24100903.9064
        37.300          20.1004
 105263925.387 8  82023806.70047  20031056.087    20031044.2044
        51.000          45.1004
 131121005.176 5                  24951498.663
        35.000
 113451329.746 7  88403597.33046  21589068.418    21589055.4224
        47.600          37.4004
 119549638.054 7  93155499.67644  22749537.164    22749523.8754
        43.900          28.9004
 120766268.329 7  94103553.68244  22981056.149    22981046.0244
        42.400          27.9004
 128513857.885 5                  24455375.858
        33.400
 129677641.360 4                  24676834.078
        26.400
 16  2  1 12  0 10.0000000  0 10G26G20G02G29G13G05G21G25G18G16
 120172089.858 7  93640558.00744  22867988.089    22867978.8444
        42.000          29.1004
 108406261.693 7  84472367.83246  20629023.673    20629010.4424
        47.600          38.9004
 126654057.574 6  98691422.99343  24101465.198    24101449.7404
        37.500          20.6004
 105263998.825 8  82023863.92647  20031069.972    20031057.6204
        50.900          44.9004
 131118055.105 5                  24950936.799
        34.800
 113453088.888 7  88404968.08846  21589402.760    21589390.1744
        47.500          37.7004
 119547534.064 7  93153860.20644  22749137.167    22749123.7604
        43.400          29.6004
 120769773.784 7  94106285.20644  22981724.055    22981712.9934
        42.200          27.6004
 128510399.081 5                  24454716.656
        32.900
                                  24676222.669
        26.400
 16  2  1 12  0 11.0000000  0 10G26G20G02G29G13G05G21G25G18G16
 120170144.301 7  93639041.98644  22867617.688    22867608.7944
        42.000          28.5004
 108404559.765 7  84471041.66246  20628699.655    20628685.9554
        47.500          39.2004
 126656927.999 6  98693659.67543  24102012.374    24101996.2724
        37.900          20.9004
 105264072.807 8  82023921.57347  20031083.989    20031071.5204
        50.900          45.1004
 131115105.269 5                  24950375.010
        34.500
 113454848.671 7  88406339.35046  21589737.597    21589725.1864
        47.800          37.4004
 119545430.359 7  93152220.95544  22748736.322    22748723.4424
        43.800          29.4004
 120773279.574 7  94109016.99244  22982391.315    22982380.1354
        42.400          27.7004
 128506940.449 5                  24454058.188
        33.300
                                  24675609.810
        26.800
 16  2  1 12  0 12.0000000  0 10G26G20G02G29G13G05G21G25G18G16
 120168199.279 6  93637526.39244  22867247.942    22867238.4034
        41.800          28.6004
 108402858.406 7  84469715.92746  20628375.999    20628362.2404
        47.700          39.0004
 126659798.404 6  98695896.35443  24102557.873    24102542.1224
        37.500          21.1004
 105264147.226 8  82023979.56247  20031098.122    20031086.0054
        50.600          45.1004
 131112155.578 5                  24949813.731
        34.400
 113456609.008 7  88407711.03546  21590072.680    21590059.9764
        47.900          37.6004
 119543326.837 7  93150581.85344  22748335.816    22748322.9954
        43.700          29.3004
 120776785.634 7  94111748.98344  22983058.233    22983047.5814
        42.400          28.0004
 128503481.907 5                  24453399.995
        32.800
                                  24674998.746
        26.800
 16  2  1 12  0 13.0000000  0 10G26G20G02G29G13G05G21G25G18G16
 120166254.615 7  93636011.06744  22866877.769    22866868.5244
        42.200          28.1004
 108401157.413 8  84468390.48146  20628052.011    20628038.8974
        48.000          39.0004
 126662668.713 6  98698132.94743  24103104.097    24103088.4634
        37.300          21.1004
 105264221.909 8  82024037.75747  20031112.479    20031100.3624
        50.700          45.2004
 131109205.794 5                  24949252.611
        34.600
 113458369.695 8  88409083.00146  21590407.410    21590394.8244
        48.100          37.4004
 119541223.290 7  93148942.72444  22747936.000    22747922.6524
        44.000          29.8004
 120780291.692 7  94114480.97344  22983724.901    22983714.4834
        42.100          27.8004
 128500023.199 5                  24452741.409
        33.000
                                  24674385.791
        27.600
 16  2  1 12  0 14.0000000  0 10G26G20G02G29G13G05G21G25G18G16
 120164310.909 7  93634496.48644  22866507.341    22866498.5064
        42.000          29.0004
 108399457.446 7  84467065.83246  20627728.740    20627715.2754
        47.900          38.9004
 126665539.482 6  98700369.91143  24103650.294    24103634.6604
        36.800          20.9004
 105264297.512 8  82024096.66447  20031126.827    20031114.4174
        50.400          45.0004
 131106256.630 5                  24948690.355
        34.100
 113460131.384 7  88410455.74546  21590743.060    21590730.2984
        47.700          37.7004
 119539120.413 7  93147304.11544  22747535.979    22747522.4554
        43.900          29.4004
 120783798.432 6  94117213.50744  22984392.592    22984381.9404
        41.800          27.0004
 128496565.001 5                  24452084.011
        33.600
 129661562.20414                  24673774.897
        26.800
 16  2  1 12  0 15.0000000  0  9G26G20G02G29G13G05G21G25G18
 120162367.339 6  93632982.02044  22866138.564    22866129.1434
        41.800          28.9004
 108397757.633 7  84465741.30046  20627404.975    20627391.6864
        47.600          38.8004
 126668409.905 6  98702606.60943  24104197.294    24104181.1914
        36.700          21.3004
 105264373.141 8  82024155.59747  20031141.525    20031129.1154
        51.000          44.9004
 131103307.167 5                  24948129.632
        34.600
 113461893.236 7  88411828.62046  21591078.229    21591065.5264
        47.900          37.6004
 119537017.288 7  93145665.31744  22747135.922    22747122.2224
        43.900          29.9004
 120787305.030 7  94119945.93044  22985060.156    22985049.5624
        42.200          27.5004
 128493106.453 5                  24451425.188
        33.800
 16  2  1 12  0 16.0000000  0  9G26G20G02G29G13G05G21G25G18
 120160424.627 6  93631468.21844  22865768.951    22865759.7064
        41.700          28.9004
 108396058.728 8  84464417.48246  20627082.137    20627068.7304
        48.100          38.8004
 126671280.705 6  98704843.59643  24104742.456    24104727.4084
        36.600          20.6004
 105264449.560 8  82024215.14747  20031156.242    20031143.6564
        50.600          45.1004
 131100358.245 5                  24947568.961
        34.900
 113463655.972 7  88413202.17946  21591413.517    21591400.6384
        47.900          37.3004
 119534914.693 7  93144026.92544  22746735.440    22746722.4444
        43.800          29.6004
 120790812.153 7  94122678.75644  22985726.813    22985716.8064
        42.100          26.7004
 128489648.294 5                  24450767.289
        32.800
 16  2  1 12  0 17.0000000  0  9G26G20G02G29G13G05G21G25G18
 120158482.427 6  93629954.82444  22865398.761    22865389.8674
        41.300          28.1004
 108394360.325 8  84463094.05246  20626759.130    20626745.5474
        48.200          38.6004
 126674151.483 6  98707080.57743  24105288.692    24105273.7614
        36.600          20.4004
 105264526.391 8  82024275.01247  20031170.332    20031157.9214
        50.800          45.3004
 131097409.345 5                  24947008.135
        35.000
 113465419.198 7  88414576.11946  21591749.309    21591736.6064
        47.700          37.6004
 119532812.224 7  93142388.64544  22746334.892    22746322.0724
        43.200          28.9004
 120794319.469 6  94125411.72044  22986394.319    22986384.0194
        41.500          27.8004
 128486190.215 5                  24450108.883
        33.200
 16  2  1 12  0 18.0000000  0  9G26G20G02G29G13G05G21G25G18
 120156540.610 6  93628441.71644  22865029.413    22865020.2264
        41.400          28.2004
 108392662.355 7  84461770.95646  20626435.835    20626422.4874
        47.800          38.8004
 126677022.160 6  98709317.46143  24105835.574    24105820.1164
        36.800          20.4004
 105264603.535 8  82024335.12447  20031185.406    20031173.2894
        50.900          45.1004
 131094460.467 5                  24946446.953
        35.900
 113467182.838 8  88415950.39246  21592084.893    21592072.2484
        48.000          37.5004
 119530709.779 7  93140750.37844  22745935.269    22745922.2724
        43.500          29.3004
 120797826.886 6  94128144.77544  22987061.089    22987051.4334
        41.600          28.0004
 128482731.975 5                  24449450.925
        33.400
 16  2  1 12  0 19.0000000  0  9G26G20G02G29G13G05G21G25G18
 120154599.644 6  93626929.27044  22864659.580    22864650.7454
        41.100          28.8004
 108390965.295 7  84460448.57946  20626112.858    20626099.5684
        47.900          38.7004
 126679893.230 6  98711554.67043  24106381.208    24106366.2774
        36.500          20.6004
 105264681.478 8  82024395.86147  20031199.994    20031187.6424
        50.800          44.9004
 131091512.144 6                  24945886.357
        36.200
 113468947.399 7  88417325.36946  21592420.668    21592407.8484
        47.900          37.3004
 119528607.906 7  93139112.55644  22745534.606    22745521.7854
        43.100          29.1004
 120801334.884 6  94130878.27644  22987729.016    22987718.8334
        41.500          27.6004
 128479274.160 5                  24448792.841
        33.100
 16  2  1 12  0 20.0000000  0  9G26G20G02G29G13G05G21G25G18
 120152659.506 6  93625417.47344  22864290.306    22864281.4124
        41.200          28.5004
 108389269.054 8  84459126.82946  20625790.074    20625776.8434
        48.100          38.7004
 126682764.600 6  98713792.08843  24106927.410    24106912.7734
        37.000          20.9004
 105264760.133 8  82024457.15147  20031214.894    20031202.6014
        50.500          44.9004
 131088564.078 5                  24945325.648
        35.400
 113470712.741 8  88418700.96146  21592756.758    21592743.5274
        48.100          37.3004
 119526506.424 7  93137475.03744  22745135.073    22745122.1944
        43.100          29.9004
 120804843.355 6  94133612.15044  22988396.712    22988386.8224
        41.700          27.9004
 128475816.709 5                  24448134.508
        33.600
 16  2  1 12  0 21.0000000  0  9G26G20G02G29G13G05G21G25G18
 120150719.617 6  93623905.86844  22863920.621    22863912.3724
        41.600          28.2004
 108387573.098 8  84457805.30246  20625467.086    20625454.3834
        48.200          39.1004
 126685635.735 6  98716029.32243  24107473.573    24107458.5834
        36.800          20.9004
 105264838.954 8  82024518.57047  20031229.503    20031217.5034
        50.200          44.9004
 131085615.956 5                  24944765.616
        35.500
 113472478.375 7  88420076.78346  21593092.550    21593079.9644
        47.800          37.5004
 119524404.879 7  93135837.47145  22744734.981    22744722.6294
        43.000          30.1004
 120808351.794 6  94136346.00044  22989064.937    22989054.2854
        41.700          28.3004
 128472358.979 5                  24447477.692
        33.100
 16  2  1 12  0 22.0000000  0  9G26G20G02G29G13G05G21G25G18
 120148779.930 6  93622394.42744  22863552.221    22863543.0934
        41.600          28.1004
 108385877.415 8  84456483.98946  20625144.859    20625131.5104
        48.300          38.7004
 126688506.605 6  98718266.37343  24108019.745    24108005.5764
        37.000          20.6004
 105264917.923 8  82024580.10247  20031244.812    20031232.8704
        50.200          44.9004
 131082667.588 5                  24944204.253
        35.200
 113474244.251 7  88421452.78946  21593428.405    21593415.5854
        47.800          37.6004
 119522303.193 7  93134199.79645  22744335.494    22744322.7914
        42.700          30.2004
 120811860.131 6  94139079.77344  22989732.316    22989721.9574
        41.500          28.3004
 128468901.034 5                  24446820.052
        33.400
 16  2  1 12  0 23.0000000  0  9G26G20G02G29G13G05G21G25G18
 120146841.132 6  93620883.67844  22863182.966    22863174.5414
        41.600          27.9004
 108384182.609 8  84455163.36546  20624821.878    20624808.6474
        48.100          38.5004
 126691377.843 6  98720503.69743  24108566.560    24108551.5714
        36.600          20.6004
 105264997.683 8  82024642.25647  20031260.043    20031247.8674
        50.500          44.9004
 131079719.788 5                  24943643.321
        34.900
 113476011.007 7  88422829.48346  21593764.577    21593752.1084
        47.700          37.6004
 119520202.043 7  93132562.53944  22743934.714    22743922.5384
        42.800          29.7004
 120815369.044 7  94141813.99144  22990400.217    22990389.6234
        42.000          28.0004
 128465443.532 5                  24446161.418
        34.200
 16  2  1 12  0 24.0000000  0  9G26G20G02G29G13G05G21G25G18
 120144902.736 6  93619373.24244  22862813.972    22862805.1374
        41.600          28.3004
 108382488.291 8  84453843.10846  20624499.084    20624486.5564
        48.400          38.6004
 126694249.034 6  98722740.98343  24109112.405    24109098.2374
        36.600          20.9004
 105265077.803 8  82024704.68347  20031275.083    20031262.9084
        50.500          45.1004
 131076771.992 5                  24943082.022
        34.300
 113477778.217 7  88424206.53246  21594100.655    21594088.0694
        47.800          37.8004
 119518100.980 7  93130925.34944  22743535.034    22743522.3304
        43.100          28.7004
 120818878.113 7  94144548.33044  22991067.510    22991057.5614
        42.300          27.9004
 128461985.921 5                  24445503.736
        34.300
 16  2  1 12  0 25.0000000  0  9G26G20G02G29G13G05G21G25G18
 120142965.111 6  93617863.41544  22862445.687    22862436.6174
        41.700          28.0004
 108380794.739 8  84452523.46546  20624177.308    20624164.2534
        48.200          38.3004
 126697120.472 6  98724978.46543  24109659.245    24109644.7254
        36.600          21.1004
 105265158.563 8  82024767.61947  20031290.556    20031278.6154
        50.500          45.0004
 131073824.509 5                  24942519.438
        34.800
 113479546.189 7  88425584.16846  21594437.214    21594424.5104
        47.800          37.5004
 119516000.268 7  93129288.42944  22743135.421    22743123.0114
        43.000          29.6004
 120822387.627 7  94147283.02244  22991735.442    22991725.2594
        42.400          27.0004
 128458528.610 5                  24444845.554
        34.300
 16  2  1 12  0 26.0000000  0  9G26G20G02G29G13G05G21G25G18
 120141027.992 6  93616353.97444  22862077.482    22862068.2374
        41.800          28.5004
 108379101.718 8  84451204.22746  20623854.820    20623841.5894
        48.000          38.4004
 126699991.964 6  98727215.99643  24110205.027    24110191.0344
        37.100          20.9004
 105265239.776 8  82024830.90147  20031306.348    20031294.0554
        50.800          45.2004
 131070877.170 5                  24941960.266
        34.800
 113481314.687 7  88426962.22546  21594773.767    21594761.6504
        47.600          37.8004
 119513899.760 7  93127651.66844  22742735.707    22742723.0034
        42.800          29.7004
 120825897.309 7  94150017.83744  22992403.112    22992393.1044
        42.400          27.7004
 128455071.311 5                  24444188.442
        34.100
 16  2  1 12  0 27.0000000  0  9G26G20G02G29G13G05G21G25G18
 120139091.269 6  93614844.83544  22861708.403    22861699.4514
        41.800          28.8004
 108377409.131 8  84449885.32546  20623532.955    20623519.4324
        48.000          38.6004
 126702863.313 6  98729453.41843  24110751.341    24110737.8754
        37.300          20.6004
 105265321.299 8  82024894.42247  20031321.611    20031309.6114
        50.900          45.2004
 131067929.828 5                  24941398.415
        35.100
 113483083.589 7  88428340.59146  21595110.123    21595098.0064
        47.900          38.0004
 119511799.287 7  93126014.93544  22742336.352    22742323.1214
        43.000          29.0004
 120829407.110 7  94152752.74744  22993071.280    22993061.0384
        42.000          27.8004
 128451613.978 5                  24443530.913
        34.200
 16  2  1 12  0 28.0000000  0  9G26G20G02G29G13G05G21G25G18
 120137155.279 6  93613336.26344  22861340.398    22861331.2704
        41.300          27.7004
 108375717.308 7  84448567.02646  20623210.824    20623197.5344
        47.600          38.6004
 126705734.922 6  98731691.03843  24111298.501    24111283.8054
        37.000          20.6004
 105265403.469 8  82024958.44847  20031336.965    20031325.0824
        50.600          44.9004
 131064982.840 5                  24940838.415
        35.200
 113484853.255 7  88429719.54846  21595447.227    21595434.5244
        47.600          37.4004
 119509699.176 7  93124378.49244  22741936.552    22741923.5564
        43.200          29.5004
 120832917.319 7  94155487.97144  22993738.725    22993728.9524
        42.400          28.2004
 128448156.890 5                  24442872.932
        34.800
 16  2  1 12  0 29.0000000  0  9G26G20G02G29G13G05G21G25G18
 120135219.623 6  93611827.95044  22860971.831    22860962.4694
        41.200          27.2004
 108374025.843 8  84447248.99846  20622889.269    20622876.1554
        48.100          38.5004
 126708606.325 6  98733928.48243  24111845.159    24111830.8154
        37.700          21.3004
 105265485.882 8  82025022.66747  20031353.181    20031340.8884
        50.500          45.1004
 131062035.776 5                  24940277.972
        35.100
 113486623.243 7  88431098.75746  21595784.024    21595771.2034
        47.900          38.0004
 119507599.055 7  93122742.03544  22741537.476    22741524.3634
        43.400          29.3004
 120836427.576 6  94158223.23944  22994407.299    22994396.9994
        41.800          28.7004
 128444699.647 5                  24442215.020
        35.300
 16  2  1 12  0 30.0000000  0  9G26G20G02G29G13G05G21G25G18
 120133284.643 6  93610320.17144  22860603.588    22860594.4014
        40.900          28.2004
 108372335.128 7  84445931.56246  20622567.452    20622554.5144
        47.600          38.5004
 126711477.975 6  98736166.12443  24112390.421    24112376.8394
        37.900          20.9004
 105265568.913 8  82025087.36947  20031368.513    20031356.3374
        50.700          44.9004
 131059089.059 5                  24939717.961
        34.700
 113488393.954 8  88432478.53346  21596121.244    21596108.6574
        48.000          38.0004
 119505499.286 7  93121105.85344  22741137.162    22741124.5174
        43.500          28.9004
 120839938.198 7  94160958.79044  22995075.449    22995064.9734
        42.200          28.0004
 128441242.631 5                  24441556.944
        34.900
 16  2  1 12  0 31.0000000  0  9G26G20G02G29G13G05G21G25G18
 120131350.224 6  93608812.84044  22860235.570    22860226.3244
        41.100          28.5004
 108370644.982 7  84444614.57046  20622245.963    20622232.6154
        47.500          38.4004
 126714349.706 6  98738403.83243  24112937.894    24112923.5504
        37.200          20.6004
 105265652.420 8  82025152.43747  20031384.654    20031372.5374
        50.600          45.1004
 131056142.420 5                  24939157.603
        35.000
 113490165.246 7  88433858.76246  21596458.489    21596445.4924
        47.800          37.9004
 119503399.723 7  93119469.82744  22740738.346    22740725.2914
        43.600          29.3004
 120843449.076 7  94163694.53144  22995743.410    22995733.5794
        42.300          27.9004
 128437785.676 5                  24440899.026
        35.000
 16  2  1 12  0 32.0000000  0  9G26G20G02G29G13G05G21G25G18
 120129416.322 6  93607305.89744  22859867.623    22859858.3784
        41.500          28.7004
 108368955.352 7  84443297.97146  20621924.138    20621910.9084
        47.800          38.4004
 126717221.383 6  98740641.50143  24113484.190    24113469.9634
        37.000          20.6004
 105265736.341 8  82025217.83047  20031400.390    20031388.0974
        50.100          45.1004
 131053195.961 5                  24938596.821
        34.900
 113491937.074 7  88435239.40746  21596795.415    21596782.7124
        47.900          37.7004
 119501300.297 7  93117833.91144  22740338.623    22740325.4514
        43.300          29.0004
 120846960.149 7  94166430.43844  22996411.636    22996401.4534
        42.400          28.6004
 128434328.784 5                  24440241.893
        35.000
 16  2  1 12  0 33.0000000  0  9G26G20G02G29G13G05G21G25G18
 120127482.949 6  93605799.37444  22859499.511    22859490.6174
        41.100          28.3004
 108367266.327 8  84441981.85446  20621602.635    20621589.5804
        48.100          38.5004
 126720093.144 6  98742879.21743  24114031.455    24114016.2324
        37.400          20.9004
 105265820.722 8  82025283.58147  20031416.606    20031404.4314
        50.200          45.2004
 131050249.606 5                  24938035.947
        34.800
 113493709.432 8  88436620.46446  21597132.569    21597119.6904
        48.100          37.8004
 119499201.082 7  93116198.16244  22739939.826    22739926.3024
        43.800          29.8004
 120850471.484 7  94169166.53944  22997079.818    22997069.4014
        42.100          28.4004
 128430871.970 5                  24439584.040
        34.900
 16  2  1 12  0 34.0000000  0  9G26G20G02G29G13G05G21G25G18
 120125550.211 6  93604293.34344  22859132.035    22859122.7314
        41.400          27.3004
 108365577.952 8  84440666.23646  20621281.561    20621268.7404
        48.200          38.7004
 126722965.087 6  98745117.09943  24114578.160    24114562.9954
        38.100          20.6004
 105265905.663 8  82025349.76947  20031432.678    20031420.5024
        50.700          45.4004
 131047303.495 5                  24937474.846
        34.800
 113495482.451 8  88438002.03646  21597470.320    21597457.6174
        48.100          38.2004
 119497102.128 7  93114562.61245  22739539.748    22739526.8694
        43.900          30.0004
 120853983.124 7  94171902.88944  22997747.817    22997738.0444
        42.200          27.7004
 128427415.266 5                  24438926.168
        35.100
 16  2  1 12  0 35.0000000  0  9G26G20G02G29G13G05G21G25G18
 120123617.940 6  93602787.67844  22858763.443    22858755.3704
        41.400          28.0004
 108363890.114 8  84439351.03646  20620960.739    20620946.7474
        48.000          38.8004
 126725836.942 6  98747354.93443  24115125.115    24115109.5394
        38.600          20.4004
 105265991.001 8  82025416.26947  20031449.088    20031437.0294
        50.500          45.4004
 131044357.472 5                  24936914.105
        35.800
 113497255.970 7  88439384.00146  21597807.708    21597794.8294
        47.600          38.0004
 119495003.307 7  93112927.17444  22739140.552    22739127.3804
        43.900          29.9004
 120857494.947 7  94174639.37544  22998416.059    22998406.1104
        42.000          27.4004
 128423958.616 5                  24438267.607
        34.700
 16  2  1 12  0 36.0000000  0  9G26G20G02G29G13G05G21G25G18
 120121686.360 6  93601282.55344  22858396.389    22858387.7884
        41.600          28.3004
 108362202.947 7  84438036.36046  20620639.572    20620625.7554
        47.600          38.9004
 126728709.007 6  98749592.91843  24115671.487    24115655.9124
        38.400          20.4004
 105266076.912 8  82025483.21147  20031465.509    20031453.3344
        50.600          45.4004
 131041411.742 5                  24936353.354
        35.800
 113499030.143 7  88440766.47246  21598144.980    21598132.3944
        47.600          38.2004
 119492904.805 7  93111291.97144  22738740.823    22738728.1204
        43.600          29.7004
 120861007.117 7  94177376.13244  22999084.283    22999074.3934
        42.200          28.4004
 128420502.097 5                  24437609.637
        34.600
 16  2  1 12  0 37.0000000  0  9G26G20G02G29G13G05G21G25G18
 120119755.271 6  93599777.80544  22858028.851    22858020.1924
        41.600          28.6004
 108360516.323 7  84436722.10446  20620318.386    20620305.0384
        47.800          38.9004
 126731581.106 6  98751830.91543  24116217.548    24116202.1484
        38.300          20.4004
 105266163.261 8  82025550.49547  20031481.903    20031469.8444
        50.700          45.3004
 131038466.065 5                  24935792.812
        35.500
 113500804.874 7  88442149.38246  21598482.821    21598470.0014
        47.900          38.0004
 119490806.447 7  93109656.88344  22738341.553    22738328.9674
        43.200          28.9004
 120864519.489 6  94180113.03944  22999752.363    22999742.8834
        41.900          28.7004
 128417045.683 5                  24436952.296
        34.100
 16  2  1 12  0 38.0000000  0  9G26G20G02G29G13G05G21G25G18
 120117824.776 7  93598273.52744  22857661.687    22857652.6764
        42.100          28.1004
 108358830.350 8  84435408.36446  20619997.881    20619984.2984
        48.100          38.9004
 126734453.265 6  98754068.95343  24116764.487    24116748.8534
        37.400          20.4004
 105266250.140 8  82025618.19347  20031498.453    20031486.3364
        50.900          45.5004
 131035520.700 5                  24935233.002
        35.900
 113502580.219 7  88443532.76146  21598820.857    21598808.0364
        47.900          38.0004
 119488708.370 7  93108022.01544  22737942.606    22737929.6104
        43.200          29.1004
 120868032.220 7  94182850.24344  23000421.050    23000411.2774
        42.000          28.9004
 128413589.363 5                  24436294.812
        34.100
 16  2  1 12  0 39.0000000  0  9G26G20G02G29G13G05G21G25G18
 120115894.860 7  93596769.69644  22857294.065    22857285.5234
        42.000          28.3004
 108357144.958 7  84434095.06846  20619676.718    20619663.7804
        47.800          39.3004
 126737325.546 6  98756307.08743  24117309.702    24117295.6514
        37.800          20.1004
 105266337.490 8  82025686.25447  20031515.021    20031502.8454
        51.200          45.6004
 131032575.443 5                  24934672.127
        35.700
 113504356.111 7  88444916.57746  21599158.854    21599145.6824
        47.500          37.9004
 119486610.502 7  93106387.31844  22737543.408    22737530.1184
        43.600          29.4004
 120871545.120 7  94185587.57244  23001089.428    23001079.7724
        42.100          27.9004
 128410133.102 5                  24435636.743
        34.100
 16  2  1 12  0 40.0000000  0  9G26G20G02G29G13G05G21G25G18
 120113965.447 6  93595266.26844  22856927.377    22856918.5424
        41.900          28.6004
 108355460.095 8  84432782.19446  20619356.175    20619342.7094
        48.000          38.9004
 126740197.813 6  98758545.21143  24117856.713    24117841.8414
        38.100          19.9004
 105266425.247 8  82025754.64747  20031531.849    20031519.4384
        50.900          45.8004
 131029630.305 5                  24934112.090
        35.500
 113506132.553 8  88446300.81846  21599496.689    21599483.5764
        48.100          37.9004
 119484512.784 7  93104752.73744  22737144.143    22737130.7954
        43.500          28.8004
 120875058.269 7  94188325.09144  23001758.000    23001748.3444
        42.000          28.9004
 128406676.977 5                  24434978.764
        34.500
 16  2  1 12  0 41.0000000  0  9G26G20G02G29G13G05G21G25G18
 120112036.470 6  93593763.16244  22856560.292    22856551.2814
        41.500          27.4004
 108353775.719 7  84431469.68946  20619036.304    20619022.5464
        47.800          39.2004
 126743069.975 6  98760783.24343  24118403.767    24118388.7774
        37.000          20.1004
 105266513.384 8  82025823.32247  20031548.508    20031536.4504
        50.800          45.5004
 131026685.174 5                  24933550.779
        35.400
 113507909.432 8  88447685.40546  21599834.691    21599821.9294
        48.100          38.0004
 119482415.124 7  93103118.20144  22736745.156    22736731.8674
        43.900          29.6004
 120878571.546 6  94191062.71044  23002426.455    23002416.7414
        41.400          27.6004
 128403220.715 5                  24434321.560
        34.300
 16  2  1 12  0 42.0000000  0  9G26G20G02G29G13G05G21G25G18
 120110108.415 6  93592260.77944  22856192.710    22856184.2854
        41.400          27.6004
 108352092.289 8  84430157.92746  20618715.457    20618702.4604
        48.200          39.1004
 126745942.624 6  98763021.68043  24118950.724    24118935.2074
        37.100          20.6004
 105266602.356 8  82025892.64747  20031565.507    20031553.2734
        50.900          45.5004
 131023740.583 6                  24932990.520
        36.100
 113509687.260 8  88449070.71946  21600173.262    21600160.3244
        48.100          38.0004
 119480318.042 7  93101484.10444  22736346.285    22736332.8204
        43.400          29.5004
 120882085.449 6  94193800.81044  23003095.229    23003086.0424
        41.400          28.2004
 128399764.925 5                  24433662.766
        33.900
 16  2  1 12  0 43.0000000  0  9G26G20G02G29G13G05G21G25G18
 120108180.864 6  93590758.79344  22855826.302    22855817.8784
        41.400          27.7004
 108350409.397 8  84428846.57846  20618395.330    20618382.0994
        48.400          39.2004
 126748815.308 6  98765260.14843  24119496.755    24119481.4724
        37.200          20.6004
 105266691.745 8  82025962.31047  20031582.472    20031569.9444
        51.300          45.5004
 131020796.146 5                  24932430.710
        35.900
 113511465.614 8  88450456.45446  21600511.725    21600498.7284
        48.200          38.0004
 119478221.139 7  93099850.15044  22735946.911    22735933.5634
        43.600          28.8004
 120885599.514 6  94196539.03444  23003763.599    23003754.2364
        41.300          27.2004
 128396309.209 5                  24433006.064
        33.100
 16  2  1 12  0 44.0000000  0  9G26G20G02G29G13G05G21G25G18
 120106253.408 6  93589256.88244  22855459.531    22855450.8724
        41.900          27.9004
 108348726.612 8  84427535.32346  20618075.076    20618061.6694
        48.100          39.3004
 126751687.545 6  98767498.27543  24120043.634    24120028.0594
        37.100          20.6004
 105266781.140 8  82026031.96247  20031599.743    20031587.3924
        50.900          45.4004
 131017851.395 6                  24931870.466
        36.300
 113513244.041 7  88451842.24046  21600849.956    21600837.1364
        47.800          38.2004
 119476123.944 7  93098215.97444  22735548.370    22735534.4354
        43.100          29.0004
 120889113.386 6  94199277.11044  23004432.140    23004422.9534
        41.100          27.5004
 128392853.052 5                  24432348.217
        32.800
 16  2  1 12  0 45.0000000  0  9G26G20G02G29G13G05G21G25G18
 120104326.904 7  93587755.71444  22855093.223    22855084.3294
        42.200          27.4004
 108347044.866 8  84426224.86546  20617754.856    20617741.3914
        48.000          39.1004
 126754560.241 6  98769736.73543  24120590.546    24120574.5604
        37.600          20.4004
 105266871.452 8  82026102.33347  20031616.628    20031604.5114
        50.700          45.3004
 131014907.206 6                  24931309.875
        36.200
 113515023.509 7  88453228.83946  21601188.486    21601175.5484
        47.500          38.1004
 119474027.398 7  93096582.30944  22735149.414    22735135.6564
        43.000          29.8004
 120892627.952 6  94202015.73344  23005100.797    23005091.7864
        41.500          28.1004
 128389397.431 5                  24431690.005
        33.500
 16  2  1 12  0 46.0000000  0  9G26G20G02G29G13G05G21G25G18
 120102400.989 6  93586254.99744  22854726.181    22854717.4634
        41.700          27.1004
 108345363.677 8  84424914.85546  20617435.080    20617421.6154
        48.000          39.3004
 126757433.062 6  98771975.28843  24121137.026    24121121.3344
        38.000          20.6004
 105266962.232 8  82026173.07047  20031633.824    20031621.5904
        50.800          45.1004
 131011963.211 5                  24930750.176
        35.700
 113516803.524 8  88454615.86646  21601527.394    21601514.5154
        48.000          38.1004
 119471931.054 7  93094948.79644  22734749.762    22734736.5904
        43.200          29.6004
 120896142.721 6  94204754.50344  23005770.098    23005760.6184
        41.800          27.5004
 128385941.874 5                  24431032.447
        34.100
 16  2  1 12  0 47.0000000  0  9G26G20G02G29G13G05G21G25G18
 120100475.581 6  93584754.68344  22854360.872    22854351.5684
        41.700          28.7004
 108343683.029 8  84423605.25946  20617115.001    20617101.7114
        48.200          38.9004
 126760305.854 6  98774213.82543  24121683.567    24121668.6374
        37.800          20.1004
 105267053.425 8  82026244.13247  20031651.014    20031638.8974
        50.500          45.1004
 131009019.285 6                  24930189.836
        36.200
 113518584.033 7  88456003.26846  21601866.621    21601853.4494
        47.800          38.2004
 119469834.845 7  93093315.38444  22734351.255    22734338.2004
        42.900          29.4004
 120899657.707 7  94207493.45744  23006439.541    23006429.5344
        42.300          27.4004
 128382486.340 5                  24430374.326
        33.200
 16  2  1 12  0 48.0000000  0  9G26G20G02G29G13G05G21G25G18
 120098550.603 7  93583254.70044  22853994.334    22853985.0894
        42.200          28.5004
 108342002.879 8  84422296.05746  20616795.175    20616782.4134
        48.500          39.1004
 126763178.619 6  98776452.33343  24122230.511    24122214.9944
        37.000          19.9004
 105267144.985 8  82026315.47747  20031668.677    20031656.3844
        50.200          45.2004
 131006075.450 6                  24929629.994
        36.000
 113520365.036 7  88457391.06846  21602205.169    21602192.1144
        47.800          38.1004
 119467738.746 7  93091682.06145  22733951.697    22733938.9944
        42.400          30.1004
 120903172.838 7  94210232.51944  23007108.172    23007098.4004
        42.700          27.9004
 128379030.853 5                  24429717.032
        32.500
 16  2  1 12  0 49.0000000  0  9G26G20G02G29G13G05G21G25G18
 120096626.269 7  93581755.21844  22853627.603    22853618.5924
        42.000          28.9004
 108340323.373 8  84420987.35246  20616475.911    20616462.5634
        48.000          38.8004
 126766051.498 6  98778690.94943  24122777.025    24122761.7434
        36.900          19.9004
 105267237.096 8  82026387.25047  20031685.977    20031673.9184
        50.200          45.4004
 131003131.837 5                  24929067.983
        35.300
 113522146.682 7  88458779.36146  21602544.652    21602531.4804
        47.800          38.3004
 119465642.940 7  93090048.96744  22733553.058    22733540.1214
        42.700          29.8004
 120906688.277 7  94212971.83344  23007777.439    23007767.3734
        42.700          28.8004
 128375575.425 5                  24429059.343
        33.100
 16  2  1 12  0 50.0000000  0  9G26G20G02G29G13G05G21G25G18
 120094702.370 6  93580256.07744  22853261.852    22853252.9584
        41.600          28.5004
 108338644.372 8  84419679.03546  20616156.455    20616142.9314
        48.200          38.9004
 126768924.354 6  98780929.54643  24123323.064    24123308.4854
        36.900          19.3004
 105267329.588 8  82026459.32447  20031703.625    20031691.7424
        50.100          45.6004
 131000188.241 5                  24928507.765
        35.400
 113523928.791 7  88460168.01846  21602883.186    21602870.3654
        47.900          38.1004
 119463547.217 7  93088415.94344  22733154.462    22733141.5244
        42.800          29.3004
 120910203.890 7  94215711.27644  23008446.250    23008436.1844
        42.400          28.2004
 128372120.045 5                  24428402.841
        33.400
 16  2  1 12  0 51.0000000  0  9G26G20G02G29G13G05G21G25G18
 120092779.448 6  93578757.69144  22852896.010    22852886.7654
        41.500          28.6004
 108336966.368 8  84418371.49546  20615837.021    20615823.3804
        48.100          39.0004
 126771797.730 6  98783168.54943  24123869.755    24123855.1174
        36.800          19.0004
 105267422.970 8  82026532.08247  20031721.211    20031709.3874
        50.100          45.5004
 130997245.290 5                  24927948.058
        35.400
 113525711.885 8  88461557.44246  21603223.017    21603210.0794
        48.000          38.3004
 119461452.143 7  93086783.41644  22732755.775    22732742.1924
        42.700          29.3004
 120913720.148 7  94218451.22144  23009115.659    23009105.3594
        42.600          27.9004
 128368665.158 5                  24427746.154
        33.900
 16  2  1 12  0 52.0000000  0  9G26G20G02G29G13G05G21G25G18
 120090856.554 6  93577259.33544  22852529.524    22852520.9824
        41.600          28.8004
 108335288.383 8  84417063.98346  20615517.879    20615504.4134
        48.200          38.6004
 126774670.552 6  98785407.11943  24124416.916    24124401.7514
        37.300          19.0004
 105267516.259 8  82026604.77847  20031739.143    20031727.0264
        50.200          45.5004
 130994301.945 5                  24927388.704
        35.600
 113527495.006 7  88462946.88946  21603561.996    21603549.3524
        47.900          38.3004
 119459356.656 7  93085150.56844  22732357.166    22732343.8764
        43.000          29.4004
 120917236.094 7  94221190.91444  23009785.141    23009774.4304
        42.800          27.6004
 128365209.786 5                  24427088.331
        34.300
 16  2  1 12  0 53.0000000  0  9G26G20G02G29G13G05G21G25G18
 120088934.407 6  93575761.55744  22852163.585    22852154.9844
        41.400          28.7004
 108333611.263 8  84415757.13146  20615198.645    20615185.5904
        48.300          38.6004
 126777543.735 6  98787645.95843  24124963.730    24124948.5654
        36.700          19.0004
 105267610.284 8  82026678.04447  20031756.895    20031744.7784
        50.700          45.4004
 130991358.972 5                  24926829.128
        35.400
 113529278.921 7  88464336.95646  21603901.141    21603888.5554
        47.900          38.3004
 119457261.642 7  93083518.09544  22731958.563    22731945.3914
        42.600          29.1004
 120920752.544 7  94223931.01444  23010454.117    23010444.1684
        42.700          27.9004
 128361754.760 5                  24426430.863
        33.900
 16  2  1 12  0 54.0000000  0  9G26G20G02G29G13G05G21G25G18
 120087013.052 6  93574264.39744  22851797.584    22851789.4524
        41.500          28.7004
 108331934.852 8  84414450.83746  20614879.614    20614866.0904
        48.300          38.2004
 126780417.059 6  98789884.90343  24125509.622    24125495.5704
        37.000          18.3004
 105267704.931 8  82026751.79447  20031775.443    20031762.6224
        50.500          45.4004
 130988416.337 5                  24926269.694
        35.400
 113531063.573 7  88465727.59046  21604240.955    21604227.9014
        47.600          38.3004
 119455166.977 7  93081885.89244  22731560.348    22731546.7654
        43.000          29.3004
 120924269.372 7  94226671.39544  23011123.552    23011113.0764
        42.600          28.3004
 128358299.989 5                  24425773.790
        35.000
 16  2  1 12  0 55.0000000  0  9G26G20G02G29G13G05G21G25G18
 120085091.894 6  93572767.39544  22851432.813    22851423.9784
        41.300          28.0004
 108330258.752 7  84413144.78846  20614560.576    20614547.2284
        47.800          38.3004
 126783290.215 6  98792123.73243  24126056.673    24126041.8594
        36.600          18.6004
 105267799.757 8  82026825.68747  20031793.696    20031780.8754
        50.300          45.3004
 130985473.533 5                  24925708.310
        35.100
 113532848.505 7  88467118.45346  21604580.578    21604567.5824
        47.900          38.2004
 119453072.230 7  93080253.62144  22731161.284    22731148.1704
        43.000          29.5004
 120927786.206 7  94229411.78244  23011792.507    23011782.0314
        42.700          27.6004
 128354844.982 5                  24425116.772
        35.000
 16  2  1 12  0 56.0000000  0  9G26G20G02G29G13G05G21G25G18
 120083171.653 6  93571271.10744  22851066.605    22851058.4154
        41.100          28.5004
 108328583.561 7  84411839.44646  20614242.182    20614228.5414
        47.900          38.5004
 126786163.752 6  98794362.85143  24126604.247    24126588.6714
        36.900          19.0004
 105267895.367 8  82026900.18647  20031811.777    20031799.4844
        50.300          45.3004
 130982531.266 5                  24925149.297
        35.800
 113534634.330 7  88468509.99646  21604920.717    21604907.7794
        47.600          37.8004
 119450978.020 7  93078621.76444  22730762.830    22730749.4824
        43.500          29.3004
 120931303.570 7  94232152.58444  23012461.635    23012451.3354
        42.800          27.1004
 128351390.369 5                  24424460.008
        35.400
 16  2  1 12  0 57.0000000  0  9G26G20G02G29G13G05G21G25G18
 120081251.824 6  93569775.14144  22850701.417    22850692.9934
        41.000          28.2004
 108326908.857 7  84410534.48246  20613923.442    20613909.7424
        47.900          38.8004
 126789037.206 6  98796601.92343  24127151.344    24127135.7104
        37.400          18.6004
 105267991.362 8  82026974.99347  20031830.217    20031817.6904
        50.200          45.1004
 130979589.045 5                  24924588.553
        35.400
 113536420.622 7  88469901.91346  21605260.538    21605247.8354
        47.700          38.0004
 119448883.926 7  93076990.00044  22730364.287    22730350.9984
        43.700          29.7004
 120934821.108 7  94234893.51844  23013131.689    23013121.0954
        42.800          27.5004
 128347935.782 5                  24423801.999
        35.700
 16  2  1 12  0 58.0000000  0  9G26G20G02G29G13G05G21G25G18
 120079332.338 6  93568279.43344  22850336.573    22850328.0314
        41.400          28.7004
 108325234.480 8  84409229.77046  20613604.111    20613591.2314
        48.000          38.8004
 126791910.530 6  98798840.85143  24127697.754    24127681.8274
        37.500          18.3004
 105268087.583 8  82027049.96947  20031848.428    20031835.7834
        50.300          45.1004
 130976646.757 5                  24924029.011
        35.100
 113538207.238 7  88471294.07846  21605600.483    21605587.6624
        47.800          38.0004
 119446789.745 7  93075358.17544  22729965.604    22729952.3144
        43.800          28.8004
 120938338.634 7  94237634.45644  23013800.040    23013790.6784
        42.400          27.3004
 128344481.026 5                  24423145.321
        35.300
 16  2  1 12  0 59.0000000  0  9G26G20G02G29G13G05G21G25G18
 120077413.549 7  93566784.26644  22849971.632    22849962.8554
        42.100          28.9004
 108323560.843 8  84407925.63446  20613286.277    20613272.3434
        48.100          38.8004
 126794784.008 6  98801079.93043  24128244.044    24128229.1724
        37.100          18.6004
 105268184.427 8  82027125.42347  20031866.538    20031854.3034
        50.200          45.1004
 130973704.724 5 102057389.78253  24923469.086    24923456.9694
        34.800          20.4004
 113539994.547 7  88472686.78746  21605940.849    21605927.4424
        47.900          38.0004
 119444695.949 7  93073726.64544  22729567.344    22729553.8784
        43.900          28.8004
 120941856.533 7  94240375.67144  23014470.322    23014459.6124
        42.600          28.3004
 128341026.483 5                  24422487.373
        35.800
 16  2  1 12  1  0.0000000  0  9G26G20G02G29G13G05G21G25G18
 120075495.421 7  93565289.62044  22849606.697    22849597.9204
        42.000          29.4004
 108321887.899 8  84406622.04246  20612967.908    20612954.3254
        48.400          38.6004
 126797657.655 6  98803319.12743  24128791.263    24128775.8644
        36.700          19.0004
 105268281.837 8  82027201.33247  20031884.990    20031872.6384
        50.300          45.1004
 130970762.985 5 102055097.50143  24922909.073    24922896.6044
        34.100          19.9004
 113541782.548 8  88474080.03746  21606281.135    21606267.7284
        48.100          37.8004
 119442602.450 7  93072095.34644  22729168.737    22729155.5064
        43.600          29.9004
 120945374.811 7  94243117.18744  23015139.593    23015129.1764
        42.300          28.2004
 128337572.175 5                  24421831.330
        35.700
 16  2  1 12  1  1.0000000  0  9G26G20G02G29G13G05G21G25G18
 120073577.790 7  93563795.36344  22849241.715    22849232.7634
        42.000          28.8004
 108320215.509 8  84405318.87946  20612649.427    20612635.8444
        48.300          38.9004
 126800531.369 6  98805558.38643  24129337.584    24129322.0674
        36.300          19.3004
 105268379.706 8  82027277.58847  20031903.917    20031891.4484
        49.100          45.0004
 130967821.446 5 102052805.38743  24922349.566    24922337.1564
        34.400          19.3004
 113543571.068 8  88475473.69346  21606621.003    21606608.1244
        48.300          37.7004
 119440509.112 7  93070464.16944  22728770.897    22728757.3734
        43.300          28.9004
 120948893.297 7  94245858.85944  23015809.021    23015798.7214
        42.200          27.2004
 128334117.832 5                  24421173.553
        35.200
 16  2  1 12  1  2.0000000  0  9G26G20G02G29G13G05G21G25G18
 120071660.729 7  93562301.55444  22848877.605    22848867.9494
        42.200          29.7004
 108318543.681 7  84404016.16346  20612331.345    20612318.0554
        47.900          38.7004
 126803405.090 6  98807797.63843  24129885.573    24129869.5284
        36.700          19.3004
 105268478.023 8  82027354.20547  20031922.663    20031910.6044
        48.800          45.1004
 130964879.964 5 102050513.30643  24921789.327    24921777.2104
        34.200          18.6004
 113545360.163 8  88476867.79546  21606961.730    21606948.6164
        48.100          37.8004
 119438415.969 7  93068833.14844  22728372.254    22728359.0244
        43.300          29.9004
 120952412.005 6  94248600.70944  23016478.681    23016467.9114
        41.900          27.7004
 128330663.613 6                  24420515.669
        36.100
 16  2  1 12  1  3.0000000  0  9G26G20G02G29G13G05G21G25G18
 120069744.359 7  93560808.27744  22848513.140    22848503.2504
        42.300          29.5004
 108316872.601 7  84402714.01846  20612013.471    20611999.5954
        47.900          38.2004
 126806279.022 6  98810037.06843  24130431.933    24130416.3584
        36.700          19.3004
 105268576.954 8  82027431.29247  20031941.468    20031928.9404
        49.200          45.1004
 130961938.785 5 102048221.45243  24921229.773    24921217.3634
        34.000          18.3004
 113547149.934 8  88478262.41846  21607302.347    21607289.2924
        48.000          37.8004
 119436323.186 7  93067202.40744  22727974.773    22727960.8394
        43.300          29.0004
 120955931.108 7  94251342.87144  23017148.692    23017137.9814
        42.600          28.2004
 128327209.606 6                  24419859.400
        36.000
 16  2  1 12  1  4.0000000  0  9G26G20G02G29G13G05G21G25G18
 120067828.279 7  93559315.22344  22848148.151    22848138.7894
        42.500          29.2004
 108315201.837 8  84401412.13246  20611695.346    20611681.8224
        48.000          38.2004
 126809152.756 6  98812276.34643  24130978.553    24130963.0954
        36.900          19.6004
 105268676.100 8  82027508.55547  20031960.055    20031947.9384
        49.300          45.1004
 130958997.508 5 102045929.54843  24920671.066    24920657.9534
        34.500          18.3004
 113548940.034 8  88479657.30046  21607642.701    21607629.9394
        48.000          38.0004
 119434230.306 7  93065571.59544  22727576.064    22727562.5984
        43.700          28.7004
 120959450.176 7  94254084.99644  23017818.498    23017807.3774
        42.400          28.0004
 128323755.401 5                  24419201.466
        35.900
 16  2  1 12  1  5.0000000  0  9G26G20G02G29G13G05G21G25G18
 120065912.916 7  93557822.73444  22847783.299    22847774.1714
        42.300          28.9004
 108313531.824 8  84400110.81846  20611377.431    20611364.3184
        48.100          38.4004
 126812026.695 6  98814515.79043  24131526.258    24131509.7454
        36.700          19.0004
 105268775.904 8  82027586.32047  20031979.004    20031966.8874
        49.300          45.1004
 130956056.619 5 102043637.99543  24920109.934    24920098.3454
        34.600          18.3004
 113550730.861 7  88481052.75346  21607983.793    21607970.5624
        47.500          38.0004
 119432137.829 7  93063941.09944  22727177.954    22727164.2554
        43.800          29.9004
 120962969.676 7  94256827.46344  23018487.816    23018476.9894
        42.800          27.2004
 128320301.458 5                  24418544.023
        35.900
 16  2  1 12  1  6.0000000  0  9G26G20G02G29G13G05G21G25G18
 120063998.090 7  93556330.66444  22847419.583    22847409.6934
        42.600          29.5004
 108311862.361 8  84398809.94346  20611060.207    20611046.6254
        48.300          38.5004
 126814900.721 6  98816755.29843  24132073.022    24132056.9194
        37.000          19.3004
 105268876.105 8  82027664.40347  20031998.161    20031985.9274
        49.500          45.2004
 130953115.853 5 102041346.49742  24919551.162    24919538.8114
        34.800          17.8004
 113552522.215 7  88482448.61546  21608324.415    21608311.3024
        47.500          38.0004
 119430045.499 7  93062310.71344  22726780.137    22726766.1444
        44.000          29.4004
 120966489.354 7  94259570.06344  23019157.503    23019147.1444
        42.800          27.2004
 128316847.581 5                  24417887.212
        35.800
 16  2  1 12  1  7.0000000  0  9G26G20G02G29G13G05G21G25G18
 120062083.668 6  93554838.91044  22847055.035    22847045.5554
        41.900          29.1004
 108310193.333 8  84397509.40046  20610742.241    20610728.8344
        48.200          38.7004
 126817774.562 6  98818994.64543  24132619.398    24132603.9404
        37.300          19.0004
 105268976.655 8  82027742.74747  20032017.217    20032004.7484
        49.300          45.1004
 130950175.051 5 102039054.97142  24918992.167    24918979.4644
        35.100          17.8004
 113554313.992 7  88483844.80446  21608665.631    21608652.6944
        47.500          37.7004
 119427953.249 7  93060680.38844  22726381.652    22726368.0694
        43.800          28.7004
 120970009.197 7  94262312.81244  23019827.601    23019817.3004
        43.000          27.1004
 128313393.587 6                  24417229.399
        36.000
 16  2  1 12  1  8.0000000  0  9G26G20G02G29G13G05G21G25G18
 120060170.029 7  93553347.76244  22846690.305    22846681.0604
        42.400          29.3004
 108308525.162 8  84396209.52146  20610424.822    20610411.4744
        48.100          38.6004
 126820648.760 6  98821234.28643  24133166.731    24133150.2764
        37.600          18.6004
 105269077.941 8  82027821.67447  20032036.257    20032024.3154
        49.000          44.9004
 130947234.668 5 102036763.78242  24918432.457    24918420.2234
        35.400          17.8004
 113556106.595 8  88485241.63446  21609006.588    21608993.7094
        48.200          37.4004
 119425861.447 7  93059050.42144  22725984.061    22725969.8344
        44.200          29.9004
 120973529.480 7  94265055.88544  23020497.801    23020486.9144
        42.600          27.0004
 128309939.987 6                  24416572.067
        36.300
 16  2  1 12  1  9.0000000  0  9G26G20G02G29G13G05G21G25G18
 120058256.978 6  93551857.08044  22846326.669    22846316.9554
        41.700          29.7004
 108306857.579 8  84394910.10846  20610107.357    20610094.1264
        48.600          38.5004
 126823523.058 6  98823474.01043  24133713.830    24133697.5514
        37.100          18.6004
 105269179.710 8  82027900.97347  20032055.818    20032043.4084
        49.100          45.0004
 130944294.490 5 102034472.71442  24917872.393    24917860.5694
        35.000          17.8004
 113557899.766 8  88486638.91046  21609348.024    21609335.2624
        48.200          37.6004
 119423769.868 7  93057420.61045  22725585.970    22725571.7434
        44.100          30.2004
 120977050.034 7  94267799.18244  23021167.970    23021157.3184
        42.600          27.1004
 128306486.451 5                  24415914.554
        35.500
 16  2  1 12  1 10.0000000  0  9G26G20G02G29G13G05G21G25G18
 120056344.269 7  93550366.65044  22845962.320    22845953.3094
        42.300          29.1004
 108305190.382 8  84393610.99146  20609790.457    20609776.9334
        48.400          38.7004
 126826397.210 6  98825713.59543  24134261.013    24134244.6174
        37.000          18.3004
 105269281.735 8  82027980.47447  20032075.153    20032062.8604
        49.600          45.1004
 130941354.291 5 102032181.62642  24917312.925    24917300.9254
        35.100          17.8004
 113559693.315 8  88488036.48246  21609688.783    21609676.2554
        48.300          37.8004
 119421678.250 7  93055790.77444  22725187.094    22725173.7464
        44.100          29.2004
 120980570.642 7  94270542.50944  23021837.970    23021827.3184
        42.100          27.7004
 128303032.784 5                  24415257.146
        35.200
 16  2  1 12  1 11.0000000  0  9G26G20G02G29G13G05G21G25G18
 120054432.587 7  93548877.02744  22845598.361    22845589.4084
        42.500          28.5004
 108303524.175 8  84392312.65146  20609473.361    20609460.0134
        48.500          38.6004
 126829271.802 6  98827953.53043  24134807.928    24134791.5324
        37.300          18.6004
 105269384.642 8  82028060.66347  20032094.705    20032082.4704
        49.600          45.1004
 130938414.642 5 102029890.94943  24916753.888    24916741.7714
        35.400          18.3004
 113561487.851 8  88489434.82546  21610030.695    21610017.6984
        48.400          37.6004
 119419587.275 7  93054161.43944  22724789.166    22724776.2284
        43.400          29.2004
 120984091.873 7  94273286.32944  23022507.914    23022496.9104
        42.400          28.0004
 128299579.632 6                  24414600.934
        36.000
 16  2  1 12  1 12.0000000  0  9G26G20G02G29G13G05G21G25G18
 120052520.725 7  93547387.26144  22845234.887    22845225.8184
        42.500          29.1004
 108301857.895 8  84391014.25346  20609155.793    20609142.6804
        48.100          38.9004
 126832145.805 6  98830193.00643  24135354.522    24135338.3024
        36.900          19.0004
 105269487.369 8  82028140.71447  20032114.703    20032102.0584
        49.700          45.2004
 130935474.465 5 102027599.89643  24916193.896    24916182.0144
        34.600          18.3004
 113563282.251 8  88490833.05746  21610372.076    21610358.7874
        48.100          37.6004
 119417495.831 7  93052531.74844  22724390.969    22724378.0904
        43.600          29.4004
 120987612.718 7  94276029.83544  23023178.267    23023166.9124
        42.600          28.1004
 128296125.930 6                  24413943.661
        36.600
 16  2  1 12  1 13.0000000  0  9G26G20G02G29G13G05G21G25G18
 120050610.053 7  93545898.42444  22844871.057    22844861.8704
        42.200          29.4004
 108300192.813 8  84389716.78646  20608839.313    20608825.9064
        48.300          38.7004
 126835020.486 6  98832433.03543  24135901.221    24135885.1774
        36.900          19.0004
 105269591.151 8  82028221.58047  20032133.701    20032121.4084
        50.200          45.1004
 130932535.097 5 102025309.48242  24915634.194    24915622.3704
        34.300          17.8004
 113565077.849 8  88492232.22946  21610713.864    21610700.6924
        48.200          37.7004
 119415405.250 7  93050902.72044  22723993.137    22723980.1414
        43.700          28.9004
 120991134.418 7  94278774.01644  23023847.628    23023837.1524
        42.500          28.2004
 128292672.879 6                  24413287.267
        36.500
 16  2  1 12  1 14.0000000  0  9G26G20G02G29G13G05G21G25G18
 120048699.503 7  93544409.69144  22844507.574    22844498.5044
        42.200          29.1004
 108298527.895 8  84388419.44746  20608522.286    20608509.0564
        48.200          38.5004
 126837894.769 6  98834672.74043  24136448.314    24136432.3284
        37.300          19.3004
 105269694.990 8  82028302.48947  20032153.901    20032141.5504
        50.100          44.9004
 130929595.463 5 102023018.94342  24915074.910    24915063.1454
        34.300          17.8004
 113566873.583 8  88493631.50246  21611055.815    21611042.8194
        48.400          37.8004
 119413314.407 7  93049273.49144  22723595.386    22723582.0964
        43.300          29.5004
 120994655.914 7  94281518.03644  23024517.966    23024507.0214
        42.400          27.5004
 128289219.519 6                  24412630.872
        36.500
 16  2  1 12  1 15.0000000  0  9G26G20G02G29G13G05G21G25G18
 120046789.865 7  93542921.66444  22844143.912    22844135.3114
        42.600          29.2004
 108296863.924 7  84387122.84946  20608205.950    20608192.5444
        47.800          38.7004
 126840769.523 6  98836912.82143  24136995.253    24136979.5614
        36.800          19.6004
 105269799.680 8  82028384.06747  20032174.023    20032161.4964
        49.800          45.1004
 130926656.378 5 102020728.74542  24914515.265    24914504.3794
        33.900          17.4004
 113568670.246 8  88495031.50046  21611397.402    21611384.5814
        48.600          38.0004
 119411224.113 7  93047644.69844  22723197.882    22723184.5934
        43.600          29.8004
 120998177.991 7  94284262.52344  23025189.013    23025177.1894
        42.400          28.2004
 128285766.631 6                  24411973.737
        36.200
 16  2  1 12  1 16.0000000  0  9G26G20G02G29G13G05G21G25G18
 120044880.476 7  93541433.82044  22843780.924    22843771.4454
        42.200          29.1004
 108295200.210 8  84385826.44646  20607889.177    20607875.9464
        48.100          38.5004
 126843643.975 6  98839152.65743  24137542.102    24137526.1164
        37.300          19.6004
 105269904.501 8  82028465.74347  20032194.042    20032181.9834
        49.800          45.1004
 130923717.073 5 102018438.31342  24913956.273    24913945.0354
        33.900          16.9004
 113570467.157 8  88496431.68846  21611739.323    21611726.5034
        48.300          37.8004
 119409133.724 7  93046015.82744  22722799.914    22722786.8004
        43.800          29.8004
 121001700.020 7  94287006.97044  23025858.865    23025847.5684
        42.300          28.6004
 128282313.428 5                  24411316.039
        35.900
 16  2  1 12  1 17.0000000  0  9G26G20G02G29G13G05G21G25G18
 120042971.967 6  93539946.67645  22843417.903    22843408.5994
        41.800          30.0004
 108293537.440 8  84384530.78746  20607572.423    20607559.7204
        48.400          38.2004
 126846518.874 6  98841392.83343  24138089.197    24138073.2704
        37.000          19.9004
 105270010.152 8  82028548.06947  20032213.758    20032201.4654
        49.500          44.9004
 130920778.320 5 102016148.36242  24913397.397    24913385.4564
        33.900          16.3004
 113572264.977 8  88497832.58546  21612081.314    21612068.4944
        48.200          37.9004
 119407043.884 7  93044387.37944  22722402.689    22722389.4004
        43.900          29.4004
 121005222.655 7  94289751.88044  23026528.841    23026518.1894
        42.300          28.1004
 128278860.680 5                  24410658.154
        35.900
 16  2  1 12  1 18.0000000  0  9G26G20G02G29G13G05G21G25G18
 120041063.918 7  93538459.88544  22843054.997    22843045.2834
        42.000          29.3004
 108291875.096 8  84383235.44846  20607256.462    20607243.0554
        48.200          38.2004
 126849393.634 6  98843632.91643  24138636.433    24138620.5654
        37.000          19.6004
 105270116.134 8  82028630.64947  20032234.004    20032221.8294
        49.700          44.8004
 130917839.534 5 102013858.38942  24912837.581    24912826.4614
        34.300          16.3004
 113574063.224 8  88499233.81946  21612423.844    21612410.8484
        48.000          37.9004
 119404954.092 7  93042758.97144  22722005.070    22721991.0774
        44.000          29.3004
 121008745.379 7  94292496.85644  23027199.122    23027188.0604
        42.300          27.7004
 128275407.880 5                  24410001.981
        35.900
 16  2  1 12  1 19.0000000  0  9G26G20G02G29G13G05G21G25G18
 120039156.256 7  93536973.39644  22842692.421    22842682.4724
        42.400          28.7004
 108290213.266 8  84381940.51746  20606939.865    20606926.8104
        48.600          38.2004
 126852268.395 6  98845872.98243  24139182.242    24139167.1354
        37.200          19.9004
 105270222.479 8  82028713.52047  20032254.281    20032242.3994
        49.700          45.1004
 130914900.894 5 102011568.55842  24912279.116    24912267.2334
        33.800          15.6004
 113575861.929 7  88500635.40646  21612765.902    21612753.0814
        47.900          37.7004
 119402864.395 7  93041130.63044  22721606.858    22721593.8034
        43.900          29.7004
 121012268.237 7  94295241.93644  23027868.793    23027858.9024
        42.400          28.1004
 128271955.034 5                  24409344.404
        35.700
 16  2  1 12  1 20.0000000  0  9G26G20G02G29G13G05G21G25G18
 120037249.355 7  93535487.50244  22842329.455    22842319.5654
        42.200          28.6004
 108288552.146 8  84380646.14246  20606623.697    20606610.8774
        48.400          38.3004
 126855143.323 6  98848113.18543  24139728.889    24139714.4284
        37.500          19.6004
 105270329.456 8  82028796.88047  20032274.613    20032262.4384
        49.800          45.1004
 130911962.526 5 102009278.97442  24911719.941    24911708.1174
        34.000          16.3004
 113577661.363 7  88502037.56046  21613108.272    21613095.1584
        47.700          38.0004
 119400775.053 7  93039502.57644  22721209.490    22721195.9674
        43.300          29.4004
 121015791.515 7  94297987.34244  23028540.408    23028529.2874
        42.600          27.8004
 128268502.444 5                  24408686.796
        35.400
 16  2  1 12  1 21.0000000  0  9G26G20G02G29G13G05G21G25G18
 120035342.948 6  93534001.98944  22841966.204    22841956.8414
        41.800          28.5004
 108286891.575 8  84379352.18746  20606307.763    20606294.6504
        48.200          38.2004
 126858018.309 6  98850353.43343  24140276.688    24140261.4654
        37.100          19.6004
 105270436.854 8  82028880.56347  20032295.219    20032282.8094
        50.200          45.1004
 130909024.286 5 102006989.47442  24911159.902    24911149.1334
        33.500          16.3004
 113579461.308 7  88503440.11946  21613450.875    21613437.9374
        47.600          37.9004
 119398685.869 7  93037874.63844  22720812.461    22720798.6444
        43.000          29.0004
 121019314.960 7  94300732.87844  23029210.481    23029199.7714
        42.500          28.5004
 128265049.862 5                  24408029.600
        35.000
 16  2  1 12  1 22.0000000  0  9G26G20G02G29G13G05G21G25G18
 120033437.287 6  93532517.05544  22841603.729    22841594.0734
        41.800          29.2004
 108285231.792 8  84378058.85146  20605992.173    20605979.0014
        48.300          38.3004
 126860893.508 6  98852593.84743  24140822.715    24140808.7234
        36.900          19.3004
 105270544.900 8  82028964.75547  20032315.726    20032303.1984
        50.000          44.8004
 130906086.448 5 102004700.25742  24910600.625    24910589.5044
        33.500          16.3004
 113581262.011 7  88504843.26546  21613793.252    21613780.8424
        47.600          38.1004
 119396597.041 7  93036246.98244  22720414.384    22720400.7434
        43.400          29.2004
 121022838.838 7  94303478.76344  23029880.714    23029870.6484
        42.100          28.8004
 128261597.571 5                  24407371.971
        34.800
 16  2  1 12  1 23.0000000  0  9G26G20G02G29G13G05G21G25G18
 120031531.781 7  93531032.24544  22841241.142    22841231.4284
        42.300          29.3004
 108283572.168 8  84376765.63846  20605676.134    20605663.0204
        48.600          38.6004
 126863768.343 6  98854833.97443  24141370.160    24141355.6984
        36.500          18.6004
 105270653.037 8  82029049.01947  20032336.502    20032323.7404
        49.900          45.1004
 130903148.279 5 102002410.76142  24910041.076    24910030.7174
        33.700          16.3004
 113583062.859 7  88506246.52346  21614136.493    21614123.3214
        47.900          37.8004
 119394508.062 7  93034619.19944  22720017.027    22720003.5614
        43.400          29.3004
 121026362.581 7  94306224.52644  23030551.386    23030540.7344
        42.000          28.5004
 128258144.943 5                  24406715.242
        35.200
 16  2  1 12  1 24.0000000  0  9G26G20G02G29G13G05G21G25G18
 120029627.427 7  93529548.33644  22840878.620    22840869.3754
        42.800          29.4004
 108281913.740 8  84375473.36246  20605360.711    20605347.4804
        48.400          38.5004
 126866643.889 6  98857074.64743  24141916.663    24141902.9054
        36.600          19.3004
 105270762.234 8  82029134.09947  20032357.331    20032344.9214
        50.200          44.9004
 130900210.932 5 102000121.83842  24909482.349    24909471.8734
        33.500          15.6004
 113584864.896 7  88507650.70246  21614479.121    21614466.1834
        47.900          38.0004
 119392419.869 7  93032992.03744  22719619.137    22719605.9064
        43.100          29.8004
 121029887.150 6  94308970.94844  23031221.920    23031211.5024
        41.700          28.5004
 128254693.003 5                  24406058.119
        35.000
 16  2  1 12  1 25.0000000  0  9G26G20G02G29G13G05G21G25G18
 120027723.230 7  93528064.55044  22840517.006    22840506.8234
        43.000          29.1004
 108280255.487 8  84374181.21646  20605044.982    20605032.1614
        48.300          38.2004
 126869519.080 6  98859315.02043  24142464.627    24142449.8144
        36.900          19.0004
 105270871.509 8  82029219.25947  20032377.991    20032365.4054
        50.100          44.9004
 130897273.315 5 101997832.80442  24908923.349    24908912.8734
        32.200          15.6004
 113586667.086 8  88509055.01146  21614822.540    21614809.4264
        48.200          37.8004
 119390331.465 7  93031364.70444  22719221.730    22719208.7344
        43.200          28.9004
 121033411.570 6  94311717.25444  23031892.736    23031881.7324
        41.600          28.2004
 128251240.731 5                  24405401.065
        34.600
 16  2  1 12  1 26.0000000  0  9G26G20G02G29G13G05G21G25G18
 120025819.824 7  93526581.37144  22840154.403    22840144.7484
        42.600          28.7004
 108278598.054 8  84372889.70546  20604729.654    20604716.5994
        48.300          38.5004
 126872394.562 6  98861555.66243  24143011.591    24142997.3644
        37.400          18.6004
 105270981.505 8  82029304.97247  20032398.879    20032386.5284
        50.300          45.1004
 130894336.110 5 101995544.04142  24908364.523    24908353.5784
        33.000          16.3004
 113588470.086 7  88510459.94346  21615165.533    21615152.2444
        47.800          38.0004
 119388243.528 7  93029737.74444  22718824.591    22718811.4784
        42.800          29.4004
 121036936.433 6  94314463.89844  23032563.279    23032552.5684
        41.400          28.0004
 128247788.824 5                  24404745.184
        35.000
 16  2  1 12  1 27.0000000  0  9G26G20G02G29G13G05G21G25G18
 120023916.792 7  93525098.48544  22839792.408    22839782.2844
        42.800          28.7004
 108276941.021 8  84371598.51046  20604414.654    20604401.0134
        48.000          38.5004
 126875269.925 6  98863796.20543  24143559.042    24143544.6394
        37.500          19.6004
 105271091.773 8  82029390.89547  20032419.606    20032407.3134
        50.600          45.0004
 130891398.884 5 101993255.32442  24907805.091    24907795.2014
        32.900          16.3004
 113590273.456 7  88511865.16046  21615508.695    21615495.8164
        47.800          38.0004
 119386155.582 7  93028110.77644  22718426.944    22718414.1234
        42.800          29.3004
 121040461.393 7  94317210.61644  23033234.448    23033223.6204
        42.200          28.3004
 128244336.810 5                  24404087.217
        35.700
 16  2  1 12  1 28.0000000  0  9G26G20G02G29G13G05G21G25G18
 120022014.428 7  93523616.12444  22839430.413    22839419.9374
        43.000          29.3004
 108275284.719 8  84370307.88646  20604099.217    20604086.0454
        48.000          38.5004
 126878145.445 6  98866036.89443  24144105.788    24144091.7374
        37.200          19.9004
 105271202.643 8  82029477.28447  20032440.769    20032428.5344
        50.700          45.1004
 130888461.956 5 101990966.81242  24907245.703    24907236.2244
        32.300          15.6004
 113592077.509 8  88513270.92546  21615851.968    21615838.7374
        48.000          37.8004
 119384067.976 7  93026484.07944  22718030.141    22718016.3244
        43.000          29.8004
 121043986.712 7  94319957.61644  23033904.764    23033894.5234
        42.300          28.5004
 128240884.977 5                  24403430.409
        35.700
 16  2  1 12  1 29.0000000  0  9G26G20G02G29G13G05G21G25G18
 120020112.560 7  93522134.15344  22839067.958    22839058.3034
        43.000          28.6004
 108273628.889 7  84369017.63446  20603784.150    20603770.6844
        47.900          38.4004
 126881020.938 6  98868277.54043  24144653.164    24144638.4094
        37.600          19.6004
 105271313.892 8  82029563.97047  20032462.090    20032449.4454
        50.600          45.1004
 130885525.114 5 101988678.36742  24906687.576    24906677.1594
        32.900          16.3004
 113593882.048 8  88514677.05846  21616195.163    21616182.1674
        48.000          37.8004
 119381980.499 7  93024857.47644  22717632.674    22717619.3264
        43.000          29.4004
 121047512.169 6  94322704.72744  23034575.325    23034565.6704
        41.800          28.4004
 128237433.136 5                  24402773.545
        35.200
 16  2  1 12  1 30.0000000  0  9G26G20G02G29G13G05G21G25G18
 120018211.252 7  93520652.61244  22838706.366    22838696.3594
        42.400          28.9004
 108271973.724 8  84367727.89746  20603469.417    20603456.0104
        48.300          38.2004
 126883896.532 6  98870518.27643  24145201.397    24145186.0564
        38.400          19.9004
 105271425.652 8  82029651.05547  20032483.159    20032470.9834
        50.700          45.1004
 130882588.459 5 101986390.07042  24906127.624    24906118.1454
        33.300          15.6004
 113595687.187 8  88516083.65946  21616538.430    21616525.7854
        48.000          37.8004
 119379893.249 7  93023231.04545  22717235.736    22717222.2124
        42.800          30.0004
 121051037.898 6  94325452.04444  23035246.365    23035236.6514
        41.700          27.9004
 128233981.443 5                  24402116.635
        35.100
 16  2  1 12  1 31.0000000  0  9G26G20G02G29G13G05G21G25G18
 120016310.601 7  93519171.58044  22838343.998    22838334.8114
        42.400          29.0004
 108270319.155 8  84366438.62246  20603154.352    20603140.8284
        48.200          38.2004
 126886772.223 6  98872759.07243  24145748.407    24145733.3004
        37.700          19.9004
 105271537.931 8  82029738.55047  20032504.517    20032492.1654
        50.700          45.1004
 130879651.994 5 101984101.93042  24905569.784    24905559.6594
        33.000          15.6004
 113597492.939 8  88517490.74246  21616882.330    21616869.3344
        48.000          38.2004
 119377806.240 7  93021604.79844  22716838.432    22716825.2604
        43.000          29.7004
 121054563.932 6  94328199.60844  23035917.222    23035907.2734
        41.800          28.2004
 128230529.862 5                  24401459.529
        35.600
 16  2  1 12  1 32.0000000  0  9G26G20G02G29G13G05G21G25G18
 120014410.501 7  93517690.98844  22837982.523    22837973.5124
        42.300          29.0004
 108268665.235 8  84365149.85046  20602839.654    20602826.4234
        48.100          38.3004
 126889648.070 6  98874999.99843  24146296.095    24146280.2264
        37.700          19.6004
 105271650.722 8  82029826.43547  20032526.018    20032513.9594
        50.800          45.3004
 130876715.780 5 101981813.99542  24905011.255    24905000.8384
        33.800          15.6004
 113599299.284 8  88518898.27646  21617225.841    21617213.0794
        48.000          38.2004
 119375719.464 7  93019978.74144  22716441.240    22716428.2444
        42.800          29.9004
 121058090.242 6  94330947.36944  23036588.327    23036578.4954
        41.400          28.7004
 128227078.371 5                  24400803.037
        35.500
 16  2  1 12  1 33.0000000  0  9G26G20G02G29G13G05G21G25G18
 120012510.974 7  93516210.84144  22837621.501    22837611.9634
        42.700          28.9004
 108267011.922 7  84363861.55446  20602525.153    20602511.6884
        47.900          38.4004
 126892523.900 6  98877240.90643  24146843.170    24146827.2434
        37.800          19.3004
 105271764.007 8  82029914.71147  20032547.867    20032535.5154
        50.800          45.3004
 130873779.673 5 101979526.10442  24904453.197    24904442.0764
        32.800          15.6004
 113601106.238 7  88520306.29546  21617569.547    21617556.9024
        47.800          38.3004
 119373632.946 7  93018352.88045  22716044.404    22716031.2324
        43.200          30.0004
 121061616.824 6  94333695.35444  23037259.600    23037249.4764
        41.500          28.1004
 128223627.035 5                  24400147.434
        35.900
 16  2  1 12  1 34.0000000  0  9G26G20G02G29G13G05G21G25G18
 120010611.838 7  93514730.99244  22837260.095    22837250.5564
        42.900          28.9004
 108265359.004 8  84362573.56846  20602210.838    20602197.1384
        48.000          38.5004
 126895399.632 6  98879481.72543  24147390.864    24147374.5274
        37.400          19.6004
 105271877.566 8  82030003.20247  20032568.977    20032556.6844
        50.500          45.1004
 130870843.617 5 101977238.28442  24903894.995    24903883.1134
        33.700          15.6004
 113602913.543 7  88521714.58846  21617913.477    21617900.7154
        47.800          38.4004
 119371546.419 7  93016727.01944  22715646.592    22715633.8304
        43.200          29.9004
 121065143.434 7  94336443.37144  23037930.815    23037920.7494
        42.100          27.2004
 128220175.531 5                  24399489.725
        35.500
 16  2  1 12  1 35.0000000  0  9G26G20G02G29G13G05G21G25G18
 120008713.450 7  93513251.73044  22836898.811    22836889.3324
        42.800          28.9004
 108263706.902 7  84361286.21246  20601896.312    20601882.5534
        47.700          38.5004
 126898275.648 6  98881722.77543  24147938.330    24147922.1104
        37.400          19.3004
 105271991.842 8  82030092.24147  20032590.687    20032578.3354
        50.000          45.2004
 130867907.915 5 101974950.73142  24903335.521    24903324.9274
        34.000          16.3004
 113604721.628 7  88523123.48046  21618257.651    21618244.9484
        47.500          38.3004
 119369460.309 7  93015101.48445  22715249.988    22715236.8164
        43.700          30.4004
 121068670.515 7  94339191.73244  23038601.800    23038591.7344
        42.500          27.0004
 128216724.381 5                  24398833.661
        35.400
 16  2  1 12  1 36.0000000  0  9G26G20G02G29G13G05G21G25G18
 120006815.543 7  93511772.83744  22836537.613    22836528.3094
        42.400          28.5004
 108262055.298 7  84359999.24946  20601582.378    20601568.5614
        47.300          38.8004
 126901151.649 6  98883963.81243  24148485.985    24148469.2374
        37.700          18.6004
 105272106.493 8  82030181.58347  20032612.871    20032600.3444
        49.900          45.1004
 130864972.326 5 101972663.26242  24902776.204    24902766.1384
        34.600          15.6004
 113606530.209 8  88524532.76946  21618601.862    21618589.3354
        48.000          38.1004
 119367374.328 7  93013476.04944  22714853.191    22714840.0184
        43.600          29.8004
 121072197.780 7  94341940.25344  23039273.210    23039263.1444
        42.700          27.9004
 128213273.168 5                  24398176.329
        35.300
 16  2  1 12  1 37.0000000  0  9G26G20G02G29G13G05G21G25G18
 120004918.099 7  93510294.30144  22836176.757    22836167.0434
        42.500          29.1004
 108260404.154 7  84358712.64946  20601267.835    20601254.4284
        47.500          38.8004
 126904027.581 6  98886204.81443  24149032.969    24149016.7494
        37.600          19.0004
 105272221.489 8  82030271.19247  20032634.449    20032622.3314
        50.100          45.3004
 130862036.677 5 101970375.79342  24902218.401    24902207.5154
        34.200          15.6004
 113608339.225 8  88525942.39046  21618946.134    21618933.1964
        48.300          38.1004
 119365288.427 7  93011850.67244  22714456.586    22714443.1204
        43.700          29.0004
 121075725.109 7  94344688.82044  23039944.625    23039934.8524
        42.100          27.1004
 128209821.950 5                  24397520.017
        35.500
 16  2  1 12  1 38.0000000  0  9G26G20G02G29G13G05G21G25G18
 120003021.520 7  93508816.45144  22835815.134    22835805.8304
        42.600          28.6004
 108258753.958 7  84357426.78346  20600953.700    20600940.1764
        47.800          38.9004
 126906903.917 6  98888446.12443  24149580.650    24149563.9614
        38.000          19.3004
 105272337.332 8  82030361.46047  20032656.577    20032644.2254
        50.200          45.1004
 130859101.683 5 101968088.79342  24901659.529    24901648.8774
        33.900          15.6004
 113610149.166 7  88527352.73346  21619290.753    21619277.6984
        47.900          38.2004
 119363203.110 7  93010225.74144  22714060.064    22714046.3064
        43.900          29.6004
 121079253.096 6  94347437.89944  23040615.625    23040605.5014
        41.700          27.3004
 128206371.222 5                  24396862.916
        35.400
 16  2  1 12  1 39.0000000  0  9G26G20G02G29G13G05G21G25G18
 120001125.067 7  93507338.69544  22835454.441    22835444.8444
        42.600          28.9004
 108257103.922 7  84356141.03446  20600640.046    20600626.5814
        47.600          38.6004
 126909779.879 6  98890687.13343  24150128.099    24150111.4694
        37.900          19.3004
 105272453.199 8  82030451.74747  20032678.479    20032666.2454
        50.000          44.9004
 130856166.341 5 101965801.47642  24901102.041    24901090.3344
        34.300          15.6004
 113611959.232 7  88528763.17446  21619635.098    21619622.2194
        47.700          37.9004
 119361117.544 7  93008600.62144  22713663.476    22713649.1904
        43.700          29.7004
 121082780.854 6  94350186.81344  23041286.513    23041277.0924
        41.700          27.4004
 128202920.104 5                  24396205.408
        35.300
 16  2  1 12  1 40.0000000  0  9G26G20G02G29G13G05G21G25G18
 119999229.728 7  93505861.81144  22835094.611    22835084.6044
        42.300          28.9004
 108255454.977 7  84354856.14346  20600326.109    20600312.5864
        47.500          38.6004
 126912656.393 6  98892928.58143  24150675.308    24150658.6194
        38.100          19.9004
 105272570.043 8  82030542.79047  20032700.749    20032688.4564
        50.300          44.8004
 130853231.669 5 101963514.71542  24900543.510    24900531.8614
        34.300          15.6004
 113613770.362 7  88530174.44846  21619979.413    21619966.7094
        47.600          38.1004
 119359032.667 7  93006976.04344  22713266.453    22713252.2264
        43.800          29.8004
 121086309.336 6  94352936.27244  23041958.191    23041948.1844
        41.700          27.3004
 128199469.527 5                  24395549.601
        35.400
 16  2  1 12  1 41.0000000  0  9G26G20G02G29G13G05G21G25G18
 119997334.392 7  93504384.91844  22834733.298    22834723.6434
        42.300          28.6004
 108253806.106 7  84353571.30846  20600012.394    20599998.5194
        47.500          38.3004
 126915532.457 6  98895169.66043  24151222.305    24151206.0854
        38.100          20.1004
 105272686.839 8  82030633.80347  20032723.116    20032710.8814
        49.900          44.8004
 130850296.655 5 101961227.64842  24899984.535    24899973.7664
        34.300          16.3004
 113615581.537 7  88531585.75246  21620324.221    21620311.4594
        47.500          37.8004
 119356947.503 7  93005351.24044  22712869.732    22712855.9154
        43.400          29.9004
 121089837.597 6  94355685.55344  23042630.179    23042619.7614
        41.400          26.5004
 128196018.596 5                  24394893.198
        35.900
 16  2  1 12  1 42.0000000  0  9G26G20G02G29G13G05G21G25G18
 119995439.921 6  93502908.71044  22834372.908    22834363.1354
        41.800          29.0004
 108252158.126 7  84352287.17446  20599698.451    20599685.1034
        47.500          38.4004
 126918408.905 6  98897411.05043  24151769.566    24151753.2294
        37.300          19.9004
 105272804.446 8  82030725.43947  20032745.520    20032733.2854
        50.000          44.9004
 130847362.174 5 101958940.96942  24899426.519    24899414.6374
        34.300          16.3004
 113617393.546 7  88532997.70946  21620669.128    21620656.1914
        47.400          38.0004
 119354862.840 7  93003726.82544  22712473.206    22712459.0374
        43.100          29.4004
 121093366.372 6  94358435.24644  23043301.307    23043291.3594
        41.700          27.8004
 128192568.027 5                  24394236.910
        35.800
 16  2  1 12  1 43.0000000  0  9G26G20G02G29G13G05G21G25G18
 119993545.832 7  93501432.79444  22834012.248    22834002.9444
        42.000          29.3004
 108250510.564 8  84351003.35546  20599384.944    20599371.5964
        48.000          38.2004
 126921285.243 6  98899652.34443  24152317.865    24152301.1764
        37.300          20.4004
 105272922.329 8  82030817.29747  20032767.729    20032755.8474
        49.800          44.9004
 130844427.595 5 101956654.27342  24898867.330    24898856.6784
        34.800          16.3004
 113619205.985 7  88534410.00246  21621014.131    21621001.3104
        47.300          37.7004
 119352778.225 7  93002102.45244  22712076.424    22712062.3144
        43.100          29.9004
 121096895.224 6  94361185.01244  23043973.148    23043962.7894
        41.400          27.7004
 128189117.398 5                  24393579.505
        35.300
 16  2  1 12  1 44.0000000  0  9G26G20G02G29G13G05G21G25G18
 119991652.565 7  93499957.53044  22833652.309    22833642.5954
        42.000          29.3004
 108248863.828 7  84349720.18446  20599071.722    20599058.3154
        47.900          38.5004
 126924161.880 6  98901893.88843  24152863.905    24152848.5644
        37.900          20.6004
 105273040.917 8  82030909.70547  20032790.474    20032778.2394
        49.900          44.9004
 130841493.522 5                  24898309.524
        34.400
 113621019.194 7  88535822.88846  21621358.890    21621346.1284
        47.500          37.8004
 119350694.040 7  93000478.41144  22711679.440    22711665.1544
        43.400          29.3004
 121100424.547 6  94363935.13744  23044643.795    23044634.4324
        41.600          27.3004
 128185667.040 5                  24392921.994
        35.300
 16  2  1 12  1 45.0000000  0  9G26G20G02G29G13G05G21G25G18
 119989759.663 7  93498482.54544  22833291.651    22833282.5234
        42.100          29.3004
 108247217.484 8  84348437.32046  20598759.191    20598745.1404
        48.400          38.5004
 126927038.378 6  98904135.32143  24153411.846    24153395.5674
        38.100          20.4004
 105273159.808 8  82031002.34247  20032813.222    20032801.1054
        50.100          44.7004
 130838559.376 5                  24897750.896
        35.000
 113622832.796 7  88537236.08046  21621704.029    21621691.3844
        47.900          37.4004
 119348609.857 7  92998854.37944  22711282.777    22711268.9014
        43.600          29.7004
 121103953.931 6  94366685.31144  23045315.581    23045305.8674
        41.500          27.0004
 128182216.592 5                  24392265.786
        35.400
 16  2  1 12  1 46.0000000  0  9G26G20G02G29G13G05G21G25G18
 119987867.426 7  93497008.06644  22832932.297    22832922.0554
        42.000          28.3004
 108245571.855 7  84347155.01646  20598446.007    20598431.8974
        47.600          38.5004
 126929915.017 6  98906376.85443  24153958.668    24153943.4444
        37.500          20.9004
 105273279.285 8  82031095.44647  20032836.008    20032823.7734
        50.000          44.9004
 130835625.445 5                  24897192.661
        34.600
 113624647.078 7  88538649.81046  21622049.646    21622036.7664
        47.900          37.7004
 119346526.014 7  92997230.61245  22710886.552    22710872.7354
        43.100          30.2004
 121107483.673 7  94369435.76044  23045987.159    23045977.6204
        42.000          26.4004
 128178766.376 5                  24391610.231
        35.200
 16  2  1 12  1 47.0000000  0  9G26G20G02G29G13G05G21G25G18
 119985975.734 7  93495534.03344  22832572.130    22832562.7684
        42.200          29.0004
 108243926.808 8  84345873.16346  20598132.415    20598118.7154
        48.000          38.9004
 126932791.760 6  98908618.46943  24154506.585    24154490.2484
        37.100          20.9004
 105273399.214 8  82031188.89847  20032859.092    20032846.5644
        50.000          45.0004
 130832691.740 5                  24896634.992
        35.000
 113626461.913 7  88540063.97046  21622395.013    21622381.9584
        47.800          37.7004
 119344442.386 7  92995607.00145  22710490.073    22710476.0224
        43.100          30.2004
 121111013.646 7  94372186.39844  23046658.957    23046649.3604
        42.000          26.8004
 128175316.215 5                  24390953.537
        35.000
 16  2  1 12  1 48.0000000  0  9G26G20G02G29G13G05G21G25G18
 119984084.690 7  93494060.49144  22832211.868    22832202.3894
        42.700          28.5004
 108242282.424 8  84344591.82346  20597819.782    20597805.8484
        48.200          38.9004
 126935668.592 6  98910860.14943  24155053.606    24155037.9724
        36.900          20.4004
 105273519.697 8  82031282.77847  20032881.711    20032869.3014
        49.500          45.0004
 130829758.335 5                  24896077.320
        35.400
 113628277.393 7  88541478.62446  21622740.768    21622727.4794
        47.700          37.7004
 119342358.983 7  92993983.56044  22710093.462    22710079.7634
        43.600          29.9004
 121114543.926 7  94374937.25644  23047331.125    23047320.9424
        42.200          27.9004
 128171866.229 5                  24390295.751
        34.100
 16  2  1 12  1 49.0000000  0  9G26G20G02G29G13G05G21G25G18
 119982194.074 7  93492587.28344  22831852.598    22831842.8254
        42.500          28.1004
 108240638.494 8  84343310.83746  20597506.714    20597493.0734
        48.700          38.9004
 126938545.364 6  98913101.78443  24155600.421    24155585.6664
        36.600          20.6004
 105273640.513 8  82031376.92247  20032904.616    20032892.3814
        49.500          44.9004
 130826824.881 5                  24895519.262
        35.500
 113630093.307 7  88542893.62546  21623085.752    21623073.0494
        47.300          37.5004
 119340275.695 7  92992360.22444  22709697.331    22709682.9284
        43.400          29.8004
 121118074.341 7  94377688.22344  23048002.965    23047992.7234
        42.200          27.3004
 128168416.191 5                  24389639.869
        35.500
 16  2  1 12  1 50.0000000  0  9G26G20G02G29G13G05G21G25G18
 119980303.906 7  93491114.43044  22831492.734    22831483.0204
        42.600          28.5004
 108238995.060 8  84342030.23846  20597193.985    20597180.2274
        48.900          38.7004
 126941422.139 6  98915343.42743  24156148.605    24156132.7954
        37.200          20.9004
 105273761.740 8  82031471.39047  20032927.856    20032915.5044
        49.300          45.0004
 130823891.528 5                  24894960.422
        35.700
 113631909.694 7  88544308.98946  21623431.284    21623418.4634
        47.600          37.6004
 119338192.528 7  92990736.98145  22709300.211    22709286.8634
        43.500          30.2004
 121121604.868 6  94380439.28344  23048675.377    23048664.8424
        41.800          27.2004
 128164966.151 5                  24388983.862
        35.200
 16  2  1 12  1 51.0000000  0  9G26G20G02G29G13G05G21G25G18
 119978414.558 7  93489642.20344  22831133.426    22831123.3604
        42.900          29.1004
 108237352.500 8  84340750.32346  20596881.535    20596868.0694
        48.900          38.6004
 126944299.171 6  98917585.25843  24156696.395    24156680.5264
        37.500          20.9004
 105273883.700 8  82031566.42147  20032950.898    20032938.4884
        49.300          44.8004
 130820958.623 6                  24894402.341
        36.100
 113633726.935 7  88545725.02146  21623777.133    21623764.5474
        47.500          37.8004
 119336109.820 7  92989114.09444  22708903.999    22708890.7104
        43.800          29.6004
 121125135.914 7  94383190.75044  23049347.351    23049336.6994
        42.200          28.0004
 128161516.482 5                  24388328.014
        35.400
 16  2  1 12  1 52.0000000  0  9G26G20G02G29G13G05G21G25G18
 119976525.781 7  93488170.42344  22830773.951    22830764.1204
        43.000          29.7004
 108235710.482 8  84339470.82446  20596568.999    20596555.4174
        48.800          39.0004
 126947176.325 6  98919827.18943  24157243.709    24157228.3104
        37.700          20.9004
 105274006.110 8  82031661.80247  20032974.550    20032961.7304
        49.700          44.9004
 130818025.853 6                  24893844.254
        36.100
 113635544.694 7  88547141.45846  21624123.175    21624110.2954
        47.400          38.0004
 119334027.298 7  92987491.35344  22708507.119    22708494.1814
        43.600          29.4004
 121128667.177 6  94385942.37844  23050018.620    23050008.6714
        41.800          26.4004
 128158066.849 5                  24387670.586
        34.800
 16  2  1 12  1 53.0000000  0  9G26G20G02G29G13G05G21G25G18
 119974637.333 7  93486698.90344  22830414.487    22830404.3044
        43.200          29.5004
 108234068.841 8  84338191.62446  20596256.610    20596242.6764
        48.300          38.8004
 126950053.246 6  98922068.95443  24157791.363    24157775.7294
        38.100          21.3004
 105274128.775 8  82031757.38847  20032997.743    20032985.2744
        49.900          45.0004
 130815093.048 5                  24893285.883
        35.700
 113637362.804 8  88548558.17046  21624469.114    21624456.5284
        48.000          37.7004
 119331944.729 7  92985868.56844  22708111.289    22708098.1174
        43.700          29.7004
 121132198.479 6  94388694.04544  23050691.344    23050680.9854
        41.700          26.5004
 128154617.084 5                  24387013.494
        34.200
 16  2  1 12  1 54.0000000  0  9G26G20G02G29G13G05G21G25G18
 119972749.677 7  93485228.00144  22830055.363    22830045.5324
        42.300          29.3004
 108232428.024 8  84336913.07346  20595944.231    20595930.4724
        48.400          38.9004
 126952930.477 6  98924310.95843  24158338.389    24158322.8724
        37.900          21.5004
 105274252.153 8  82031853.52547  20033021.052    20033008.7594
        49.600          44.9004
 130812160.636 6                  24892728.360
        36.200
 113639181.706 8  88549975.49646  21624814.828    21624802.3594
        48.100          37.7004
 119329862.632 7  92984246.14244  22707714.699    22707701.7034
        43.000          29.4004
 121135730.264 6  94391446.07944  23051362.826    23051352.8194
        41.500          25.8004
 128151167.642 5                  24386357.909
        34.900
 16  2  1 12  1 55.0000000  0  9G26G20G02G29G13G05G21G25G18
 119970862.593 7  93483757.55444  22829695.555    22829686.3684
        42.700          29.7004
 108230787.823 8  84335634.99346  20595631.642    20595618.4114
        48.100          39.0004
 126955807.825 6  98926553.05843  24158887.291    24158870.6604
        38.300          21.5004
 105274376.014 8  82031950.04047  20033044.752    20033032.5764
        49.600          44.8004
 130809228.367 6                  24892170.907
        36.600
 113641001.173 8  88551393.26246  21625161.268    21625148.5644
        48.000          37.7004
 119327780.740 7  92982623.89144  22707318.968    22707305.5614
        42.600          29.9004
 121139262.274 6  94394198.29544  23052035.110    23052024.8104
        41.800          27.4004
 128147718.343 5                  24385701.528
        35.800
 16  2  1 12  1 56.0000000  0  9G26G20G02G29G13G05G21G25G18
 119968975.791 7  93482287.32145  22829337.599    22829327.4164
        42.600          30.0004
 108229147.934 7  84334357.15446  20595319.608    20595306.4364
        47.900          39.0004
 126958684.918 6  98928794.94543  24159433.503    24159418.6314
        38.100          21.3004
 105274500.091 8  82032046.72247  20033068.422    20033056.0114
        50.000          45.0004
 130806296.039 6                  24891612.888
        36.300
 113642820.964 7  88552811.28046  21625507.661    21625495.0164
        47.500          38.1004
 119325698.774 7  92981001.58045  22706923.213    22706909.3974
        43.100          30.5004
 121142794.272 6  94396950.50244  23052707.029    23052696.7884
        41.400          25.9004
 128144268.817 5                  24385045.285
        35.500
 16  2  1 12  1 57.0000000  0  9G26G20G02G29G13G05G21G25G18
 119967089.843 7  93480817.74644  22828978.342    22828968.5114
        42.800          29.6004
 108227508.911 8  84333079.99246  20595007.715    20594994.1324
        48.100          38.8004
 126961562.370 6  98931037.10843  24159981.640    24159965.9474
        37.600          21.3004
 105274624.915 8  82032143.99447  20033091.931    20033079.8724
        50.100          45.1004
 130803364.160 5                  24891055.420
        35.100
 113644641.586 7  88554229.94846  21625854.012    21625841.7194
        47.600          38.1004
 119323617.314 7  92979379.66945  22706526.546    22706513.1394
        43.200          30.2004
 121146326.785 7  94399703.10844  23053379.198    23053369.1914
        42.000          26.2004
 128140819.685 5                  24384389.423
        34.800
 16  2  1 12  1 58.0000000  0  9G26G20G02G29G13G05G21G25G18
 119965204.317 7  93479348.50744  22828619.676    22828609.4934
        42.600          28.4004
 108225870.362 8  84331803.20346  20594696.445    20594682.6874
        48.200          39.1004
 126964439.752 6  98933279.21343  24160529.212    24160513.1104
        37.700          21.3004
 105274750.093 8  82032241.53047  20033115.579    20033103.0514
        50.000          44.8004
 130800432.312 5                  24890497.408
        35.400
 113646462.631 7  88555648.93846  21626200.806    21626188.1624
        47.800          37.5004
 119321535.914 7  92977757.79844  22706130.805    22706117.0474
        43.600          29.9004
 121149859.419 7  94402455.81844  23054051.698    23054041.0464
        42.000          26.7004
 128137370.479 5                  24383732.573
        34.800
 16  2  1 12  1 59.0000000  0  9G26G20G02G29G13G05G21G25G18
 119963319.309 6  93477879.66844  22828260.547    22828250.5394
        41.900          29.7004
 108224232.361 8  84330526.84046  20594384.266    20594371.1534
        48.200          38.9004
 126967317.128 6  98935521.33843  24161076.017    24161061.0284
        37.500          21.1004
 105274875.686 8  82032339.39847  20033139.479    20033127.4794
        50.000          44.8004
 130797500.627 5                  24889939.311
        35.700
 113648284.217 7  88557068.35846  21626547.459    21626534.5804
        47.800          37.4004
 119319454.684 7  92976136.06544  22705735.278    22705721.2274
        43.500          29.2004
 121153392.228 7  94405208.65344  23054724.303    23054713.6514
        42.500          27.1004
 128133921.380 5                  24383076.563
        35.800
 16  2  1 12  2  0.0000000  0  9G26G20G02G29G13G05G21G25G18
 119961434.951 7  93476411.33044  22827901.988    22827892.6844
        42.200          29.2004
 108222595.030 8  84329250.99346  20594073.095    20594059.5714
        48.200          38.8004
 126970194.658 6  98937763.55443  24161623.636    24161608.2954
        36.900          20.9004
 105275001.871 8  82032437.72047  20033163.726    20033151.5504
        49.900          44.8004
 130794569.154 6                  24889380.840
        36.100
 113650106.464 8  88558488.29546  21626894.602    21626881.2544
        48.000          37.7004
 119317373.776 7  92974514.57844  22705339.611    22705325.1494
        43.700          29.3004
 121156925.389 7  94407961.76244  23055396.929    23055385.6914
        42.700          27.1004
 128130472.460 6                  24382421.924
        36.100
 16  2  1 12  2  1.0000000  0  9G26G20G02G29G13G05G21G25G18
 119959550.948 7  93474943.27244  22827543.084    22827533.9564
        42.600          29.4004
 108220958.085 8  84327975.46246  20593760.985    20593748.0474
        48.100          38.8004
 126973072.047 6  98940005.67243  24162171.626    24162155.8164
        37.100          21.3004
 105275128.289 8  82032536.23047  20033188.088    20033175.5604
        50.000          44.8004
 130791637.653 6                  24888822.940
        36.000
 113651929.055 8  88559908.49346  21627240.995    21627228.1754
        48.200          37.6004
 119315292.808 7  92972893.04444  22704943.549    22704929.3814
        43.700          29.4004
 121160458.566 7  94410714.88744  23056069.496    23056058.1994
        42.400          27.7004
 128127023.299 5                  24381765.486
        35.700
 16  2  1 12  2  2.0000000  0  9G26G20G02G29G13G05G21G25G18
 119957667.748 7  93473475.84844  22827185.644    22827175.4024
        42.600          29.1004
 108219321.985 7  84326700.56946  20593450.406    20593436.7654
        47.900          38.9004
 126975949.773 6  98942248.05743  24162719.272    24162703.3454
        37.600          21.1004
 105275255.451 8  82032635.31847  20033212.252    20033199.6664
        50.300          44.7004
 130788706.575 5                  24888264.922
        35.800
 113653752.455 8  88561329.32446  21627588.589    21627575.3584
        48.100          37.6004
 119313212.303 7  92971271.87144  22704547.674    22704533.6224
        43.900          29.9004
 121163992.232 7  94413468.40744  23056741.541    23056730.6554
        42.600          26.7004
 128123574.590 6                  24381108.070
        36.100
 16  2  1 12  2  3.0000000  0  9G26G20G02G29G13G05G21G25G18
 119955785.083 7  93472008.83944  22826826.904    22826817.3664
        42.700          29.3004
 108217686.426 8  84325426.11046  20593138.845    20593125.8484
        48.300          39.0004
 126978827.419 6  98944490.39043  24163267.380    24163250.8674
        37.300          21.3004
 105275383.036 8  82032734.73947  20033236.518    20033223.7564
        50.300          44.8004
 130785775.628 5                  24887707.056
        35.900
 113655576.396 8  88562750.57846  21627935.122    21627922.4774
        48.200          37.7004
 119311131.963 7  92969650.81844  22704151.406    22704137.0024
        43.900          29.4004
 121167526.068 7  94416222.04144  23057414.417    23057403.0614
        42.200          27.4004
 128120125.906 6                  24380452.513
        36.200
 16  2  1 12  2  4.0000000  0  9G26G20G02G29G13G05G21G25G18
 119953903.013 7  93470542.29344  22826469.111    22826459.0454
        42.400          29.1004
 108216051.531 8  84324152.16546  20592828.298    20592814.4234
        48.200          39.1004
 126981705.264 6  98946732.86343  24163813.603    24163798.4974
        37.100          20.9004
 105275511.177 8  82032834.58047  20033260.736    20033248.0334
        50.300          45.1004
 130782844.900 6                  24887150.260
        36.100
 113657400.928 8  88564172.29146  21628281.823    21628269.5894
        48.000          37.6004
 119309051.893 7  92968029.98744  22703755.598    22703741.6054
        43.800          29.2004
 121171060.236 7  94418975.93944  23058086.861    23058075.4474
        42.000          26.4004
 128116677.355 6                  24379797.668
        37.000
 16  2  1 12  2  5.0000000  0  9G26G20G02G29G13G05G21G25G18
 119952021.435 7  93469076.13644  22826110.677    22826101.0224
        42.400          29.3004
 108214417.156 8  84322878.62946  20592516.661    20592503.5484
        48.200          39.0004
 126984583.070 6  98948975.30443  24164362.934    24164346.0704
        37.100          20.6004
 105275639.731 8  82032934.75647  20033285.188    20033272.9534
        50.400          45.3004
 130779914.297 5                  24886591.742
        35.400
 113659225.997 8  88565594.42246  21628629.457    21628616.8124
        48.000          37.8004
 119306971.940 7  92966409.24544  22703360.394    22703345.9324
        43.700          29.2004
 121174594.572 6  94421729.96444  23058758.646    23058747.9944
        41.800          26.8004
 128113228.815 6                  24379140.960
        36.900
 16  2  1 12  2  6.0000000  0  9G26G20G02G29G13G05G21G25G18
 119950140.512 7  93467610.48344  22825752.618    22825743.0214
        42.200          29.1004
 108212783.420 8  84321605.58546  20592206.218    20592192.8114
        48.400          39.2004
 126987461.016 6  98951217.86643  24164909.678    24164893.8104
        37.200          20.4004
 105275768.792 8  82033035.32247  20033309.786    20033297.6694
        50.700          45.4004
 130776983.892 5                  24886033.230
        35.100
 113661051.668 7  88567017.02446  21628976.913    21628964.0934
        47.800          37.7004
 119304892.233 7  92964788.69844  22702964.268    22702949.9234
        43.400          28.7004
 121178129.231 6  94424484.24444  23059431.083    23059420.7244
        41.800          27.1004
 128109780.462 6                  24378484.643
        36.700
 16  2  1 12  2  7.0000000  0  9G26G20G02G29G13G05G21G25G18
 119948260.041 7  93466145.17244  22825395.241    22825385.0584
        42.100          29.7004
 108211150.225 8  84320332.96646  20591895.478    20591881.8364
        48.500          39.4004
 126990338.952 6  98953460.42243  24165458.004    24165441.3154
        36.800          19.9004
 105275898.277 8  82033136.21947  20033334.368    20033322.1334
        50.300          45.1004
 130774053.630 5                  24885476.620
        35.500
 113662877.834 7  88568440.00846  21629324.601    21629311.7804
        47.900          37.7004
 119302812.688 7  92963168.27044  22702569.024    22702554.3284
        43.600          29.4004
 121181664.041 6  94427238.64644  23060104.026    23060092.9054
        41.700          26.8004
 128106332.096 6                  24377828.224
        36.900
 16  2  1 12  2  8.0000000  0  9G26G20G02G29G13G05G21G25G18
 119946380.136 7  93464680.30645  22825037.505    22825027.5574
        42.200          30.2004
 108209517.577 8  84319060.77946  20591584.815    20591571.2334
        48.400          39.4004
 126993216.888 6  98955702.97043  24166005.115    24165989.1884
        37.200          20.4004
 105276028.191 8  82033237.45147  20033359.248    20033346.8384
        50.100          45.1004
 130771123.465 5                  24884919.081
        35.900
 113664704.541 7  88569863.42146  21629671.919    21629658.7474
        47.600          37.9004
 119300733.290 7  92961547.96344  22702172.754    22702158.4684
        43.400          29.4004
 121185199.042 6  94429993.19344  23060777.160    23060766.2154
        41.700          26.8004
 128102883.830 6                  24377172.759
        36.900
 16  2  1 12  2  9.0000000  0  9G26G20G02G29G13G05G21G25G18
 119944501.017 7  93463216.06744  22824679.584    22824670.0454
        42.600          29.3004
 108207885.802 8  84317789.26946  20591274.166    20591260.8764
        48.100          39.0004
 126996095.220 6  98957945.82043  24166552.460    24166536.8274
        37.200          20.1004
 105276158.881 8  82033339.28647  20033384.013    20033371.3094
        50.200          45.1004
 130768193.763 5                  24884361.388
        35.000
 113666532.079 7  88571287.47246  21630019.718    21630007.0154
        47.700          37.9004
 119298654.399 7  92959928.04444  22701777.185    22701762.9584
        43.800          29.8004
 121188734.591 6  94432748.16344  23061449.437    23061438.7854
        41.700          27.1004
 128099435.899 6                  24376515.965
        37.000
 16  2  1 12  2 10.0000000  0  9G26G20G02G29G13G05G21G25G18
 119942622.120 7  93461751.99444  22824322.468    22824312.5194
        42.400          28.1004
 108206254.232 8  84316517.91146  20590963.336    20590949.8714
        48.200          39.1004
 126998973.199 6  98960188.39943  24167099.922    24167084.4644
        37.000          19.9004
 105276289.651 8  82033441.19047  20033408.752    20033396.4004
        50.300          44.9004
 130765263.875 5                  24883803.724
        35.700
 113668359.798 7  88572711.66646  21630368.206    21630354.8584
        47.500          38.2004
 119296575.322 7  92958307.98744  22701381.091    22701367.2744
        43.600          29.2004
 121192269.960 6  94435502.99944  23062121.355    23062111.4654
        41.700          27.0004
 128095987.712 6                  24375858.088
        37.100
 16  2  1 12  2 11.0000000  0  9G26G20G02G29G13G05G21G25G18
 119940744.107 7  93460288.60644  22823964.631    22823954.8584
        42.100          28.9004
 108204623.562 8  84315247.26546  20590653.261    20590640.0314
        48.300          39.1004
 127001851.519 6  98962431.25743  24167647.598    24167632.3164
        37.200          20.1004
 105276421.200 8  82033543.69347  20033433.870    20033421.7524
        50.300          44.8004
 130762334.477 5                  24883246.393
        35.000
 113670188.387 7  88574136.54146  21630716.219    21630702.5784
        47.700          38.2004
 119294496.766 7  92956688.33444  22700985.636    22700971.7614
        43.400          28.9004
 121195805.892 6  94438258.26644  23062795.720    23062784.2484
        41.800          26.0004
 128092539.889 6                  24375202.450
        36.800
 16  2  1 12  2 12.0000000  0  9G26G20G02G29G13G05G21G25G18
 119938866.515 7  93458825.55044  22823607.359    22823597.8204
        42.400          29.1004
 108202993.357 8  84313976.97046  20590342.936    20590329.8814
        48.200          39.2004
 127004729.800 6  98964674.07643  24168195.159    24168180.3454
        37.600          20.4004
 105276553.116 8  82033646.48647  20033459.319    20033446.3824
        50.100          44.8004
 130759405.080 5                  24882690.101
        34.800
 113672017.448 7  88575561.78846  21631064.165    21631050.7004
        47.700          37.7004
 119292418.289 7  92955068.74344  22700590.804    22700576.1674
        43.400          28.7004
 121199341.980 6  94441013.66644  23063467.600    23063457.3004
        41.300          26.8004
 128089091.993 6                  24374545.562
        36.700
 16  2  1 12  2 13.0000000  0  9G26G20G02G29G13G05G21G25G18
 119936989.537 7  93457362.97344  22823249.677    22823240.6074
        42.300          28.1004
 108201363.804 8  84312707.18646  20590033.131    20590019.1384
        48.500          39.0004
 127007608.198 6  98966916.97543  24168743.107    24168727.8254
        37.500          20.6004
 105276685.528 8  82033749.66347  20033484.258    20033471.7894
        50.200          44.8004
 130756475.963 5                  24882132.248
        34.500
 113673847.090 8  88576987.48246  21631411.852    21631398.9144
        48.100          38.0004
 119290340.064 7  92953449.35044  22700194.784    22700180.9084
        43.200          29.7004
 121202878.314 6  94443769.25544  23064140.484    23064130.4184
        41.400          26.5004
 128085644.275 6                  24373889.841
        36.200
 16  2  1 12  2 14.0000000  0  9G26G20G02G29G13G05G21G25G18
 119935113.157 7  93455900.85844  22822893.108    22822883.5704
        42.600          29.4004
 108199734.892 8  84311437.90646  20589722.707    20589709.5354
        48.700          39.3004
 127010486.683 6  98969159.93443  24169290.749    24169275.9364
        37.500          20.4004
 105276818.491 8  82033853.26747  20033509.144    20033496.9104
        50.000          44.9004
 130753547.015 5                  24881574.239
        33.700
 113675677.346 8  88578413.65746  21631760.529    21631747.2394
        48.100          38.0004
 119288262.107 7  92951830.15744  22699798.835    22699785.0774
        43.400          29.1004
 121206414.973 6  94446525.09244  23064813.487    23064803.0114
        41.200          26.2004
 128082196.691 6                  24373233.472
        36.400
 16  2  1 12  2 15.0000000  0  9G26G20G02G29G13G05G21G25G18
 119933237.239 7  93454439.09744  22822536.466    22822526.4004
        42.500          29.8004
 108198106.462 8  84310169.00546  20589412.976    20589399.5694
        49.000          39.0004
 127013365.157 6  98971402.90043  24169838.209    24169823.5134
        37.400          20.6004
 105276951.815 8  82033957.15647  20033534.851    20033522.4994
        50.200          44.9004
 130750618.181 5                  24881016.936
        33.100
 113677508.085 8  88579840.20746  21632108.760    21632095.6464
        48.000          38.0004
 119286184.229 7  92950211.03044  22699403.654    22699389.8374
        43.400          28.7004
 121209951.731 6  94449280.99844  23065486.396    23065476.2724
        41.300          26.5004
 128078749.066 5                  24372576.838
        35.700
 16  2  1 12  2 16.0000000  0  9G26G20G02G29G13G05G21G25G18
 119931361.967 7  93452977.84244  22822179.416    22822169.4684
        42.300          29.2004
 108196478.709 8  84308900.62846  20589103.109    20589089.9964
        48.800          39.4004
 127016243.741 6  98973645.94943  24170385.831    24170371.5454
        37.400          20.1004
 105277085.710 8  82034061.49547  20033560.547    20033548.1954
        49.700          44.8004
 130747689.563 5                  24880459.187
        33.700
 113679339.453 7  88581267.24646  21632457.379    21632444.2064
        47.900          38.1004
 119284106.648 7  92948592.14244  22699008.370    22698994.6704
        43.000          29.0004
 121213488.830 6  94452037.18344  23066158.829    23066149.4674
        41.200          27.2004
 128075301.656 5                  24371920.865
        35.400
 16  2  1 12  2 17.0000000  0  9G26G20G02G29G13G05G21G25G18
 119929487.350 6  93451517.10244  22821822.707    22821813.2864
        41.800          28.7004
 108194851.634 8  84307632.77046  20588793.678    20588780.1544
        48.600          39.4004
 127019122.458 6  98975889.09143  24170934.875    24170918.9484
        37.400          19.6004
 105277220.160 8  82034166.25547  20033585.928    20033573.5764
        50.000          44.8004
 130744761.195 5                  24879901.617
        34.700
 113681171.480 8  88582694.80146  21632805.892    21632793.0134
        48.100          37.9004
 119282029.360 7  92946973.47644  22698612.943    22698599.7134
        43.400          29.2004
 121217026.248 6  94454793.61344  23066832.835    23066822.5354
        41.100          26.9004
 128071854.422 5                  24371265.684
        35.700
 16  2  1 12  2 18.0000000  0  9G26G20G02G29G13G05G21G25G18
 119927613.141 7  93450056.68544  22821466.016    22821456.5954
        42.100          29.6004
 108193225.011 8  84306365.27446  20588483.828    20588470.4804
        48.600          39.1004
 127022001.137 6  98978132.23243  24171482.189    24171467.2584
        37.500          19.3004
 105277354.939 8  82034271.28047  20033611.850    20033599.4984
        50.400          44.8004
 130741832.832 5                  24879345.191
        34.300
 113683003.904 7  88584122.66246  21633154.807    21633141.8114
        47.900          37.5004
 119279952.120 7  92945354.84444  22698217.922    22698204.3394
        43.100          29.4004
 121220563.734 6  94457550.08944  23067505.410    23067495.6964
        41.000          26.4004
 128068407.095 6                  24370609.620
        36.200
 16  2  1 12  2 19.0000000  0  9G26G20G02G29G13G05G21G25G18
 119925739.550 7  93448596.74744  22821110.176    22821100.2284
        42.400          28.8004
 108191599.036 8  84305098.28246  20588174.471    20588161.1824
        48.200          39.3004
 127024879.910 6  98980375.44343  24172030.748    24172015.0564
        37.900          19.3004
 105277490.249 8  82034376.71847  20033637.345    20033625.1104
        50.000          44.8004
 130738904.754 5                  24878787.183
        33.700
 113684836.980 8  88585551.03546  21633503.181    21633490.3614
        48.300          37.6004
 119277875.161 7  92943736.43844  22697822.293    22697808.6524
        43.100          29.2004
 121224101.576 6  94460306.84244  23068178.792    23068168.7854
        40.800          26.4004
 128064959.956 6                  24369952.725
        36.000
 16  2  1 12  2 20.0000000  0  9G26G20G02G29G13G05G21G25G18
 119923866.518 7  93447137.24744  22820752.708    22820743.5214
        42.600          28.3004
 108189973.644 8  84303831.74246  20587865.562    20587852.0974
        48.400          38.9004
 127027758.767 6  98982618.70843  24172578.706    24172562.8964
        37.300          19.6004
 105277626.045 8  82034482.53147  20033663.406    20033650.5854
        50.100          44.8004
 130735976.850 5                  24878230.403
        34.300
 113686670.589 8  88586979.82246  21633852.723    21633839.0824
        48.500          37.6004
 119275798.388 7  92942118.16944  22697427.154    22697413.5134
        42.700          28.8004
 121227639.623 6  94463063.75544  23068852.136    23068842.4814
        41.300          27.0004
 128061512.881 5                  24369296.882
        35.800
 16  2  1 12  2 21.0000000  0  9G26G20G02G29G13G05G21G25G18
 119921994.095 7  93445678.21644  22820396.017    22820387.0644
        42.500          28.9004
 108188348.877 8  84302565.69546  20587556.353    20587542.8884
        48.600          39.1004
 127030637.657 6  98984862.00143  24173126.324    24173110.6314
        37.700          19.6004
 105277762.340 8  82034588.73547  20033689.226    20033676.8164
        50.400          44.8004
 130733049.116 5                  24877673.147
        34.500
 113688504.794 8  88588409.07346  21634201.351    21634187.9444
        48.400          37.8004
 119273721.813 7  92940500.05244  22697032.191    22697018.7844
        42.600          29.5004
 121231177.930 6  94465820.87844  23069526.115    23069515.6974
        41.700          27.9004
 128058065.914 5                  24368640.424
        35.800
 16  2  1 12  2 22.0000000  0  9G26G20G02G29G13G05G21G25G18
 119920122.241 7  93444219.62544  22820040.660    22820030.7704
        42.300          27.9004
 108186724.706 8  84301300.10746  20587247.304    20587233.6044
        48.500          38.9004
 127033516.637 6  98987105.35943  24173674.371    24173658.3274
        37.500          19.3004
 105277899.122 8  82034695.32047  20033715.608    20033702.9054
        50.600          44.9004
 130730121.589 5                  24877117.466
        34.400
 113690339.581 8  88589838.77746  21634550.685    21634537.6884
        48.400          38.2004
 119271645.471 7  92938882.13044  22696637.139    22696623.1474
        42.800          29.5004
 121234716.490 6  94468578.20844  23070199.386    23070188.9104
        41.900          27.4004
 128054619.079 6                  24367986.120
        37.300
 16  2  1 12  2 23.0000000  0  9G26G20G02G29G13G05G21G25G18
 119918250.836 7  93442761.38844  22819684.277    22819674.5044
        42.500          29.2004
 108185101.063 8  84300034.92946  20586938.327    20586924.7444
        48.500          38.9004
 127036395.589 6  98989348.67643  24174221.376    24174206.0944
        37.900          19.9004
 105278036.288 8  82034802.20147  20033740.814    20033728.8734
        50.600          45.0004
 130727194.144 5                  24876559.762
        34.600
 113692174.840 8  88591268.84646  21634899.770    21634886.5984
        48.300          38.0004
 119269569.254 7  92937264.30344  22696241.604    22696228.2564
        42.700          29.4004
 121238255.179 6  94471335.62944  23070872.477    23070862.3534
        41.700          26.9004
 128051172.201 6                  24367330.335
        37.200
 16  2  1 12  2 24.0000000  0  9G26G20G02G29G13G05G21G25G18
 119916380.172 7  93441303.72644  22819328.349    22819318.8694
        42.900          28.9004
 108183478.144 8  84298770.31746  20586629.286    20586616.2904
        49.000          38.9004
 127039274.762 6  98991592.20243  24174769.896    24174754.2044
        38.300          20.1004
 105278174.103 8  82034909.59047  20033767.460    20033754.9914
        50.700          45.2004
 130724267.021 5                  24876002.093
        33.800
 113694010.817 8  88592699.47546  21635249.063    21635236.3014
        48.000          37.9004
 119267493.419 7  92935646.76244  22695847.176    22695833.0664
        43.000          29.3004
 121241794.288 6  94474093.37644  23071546.324    23071535.9074
        41.600          26.2004
 128047725.626 6                  24366675.415
        37.000
 16  2  1 12  2 25.0000000  0  9G26G20G02G29G13G05G21G25G18
 119914509.961 7  93439846.42144  22818973.079    22818962.7204
        42.600          29.1004
 108181855.695 8  84297506.07046  20586321.127    20586307.0764
        48.500          38.9004
 127042153.889 6  98993835.68143  24175317.220    24175301.9384
        38.200          20.4004
 105278312.255 8  82035017.23547  20033793.820    20033781.2934
        50.800          45.1004
 130721339.937 5                  24875445.052
        33.700
 113695847.207 8  88594130.43746  21635598.505    21635585.3334
        48.100          38.0004
 119265417.638 7  92934029.27444  22695452.030    22695437.9794
        43.300          29.1004
 121245333.495 6  94476851.20244  23072219.400    23072209.1584
        41.600          27.1004
 128044278.989 6                  24366017.868
        36.400
 16  2  1 12  2 26.0000000  0  9G26G20G02G29G13G05G21G25G18
 119912640.315 7  93438389.54744  22818617.278    22818606.5684
        42.600          29.3004
 108180233.872 8  84296242.30946  20586012.262    20585998.5624
        48.300          38.9004
 127045033.072 6  98996079.18243  24175865.327    24175849.8694
        37.900          20.1004
 105278450.902 8  82035125.27547  20033820.163    20033807.8114
        50.500          45.1004
 130718413.109 5                  24874887.820
        33.800
 113697684.201 8  88595561.86246  21635948.071    21635935.1334
        48.100          37.6004
 119263342.090 7  92932411.97544  22695056.602    22695043.1364
        43.400          29.6004
 121248872.994 6  94479609.24544  23072892.549    23072883.2454
        41.700          26.7004
 128040832.452 6                  24365361.906
        37.000
 16  2  1 12  2 27.0000000  0  9G26G20G02G29G13G05G21G25G18
 119910771.300 7  93436933.16944  22818261.642    22818251.0494
        43.300          28.9004
 108178612.728 8  84294979.08746  20585703.407    20585689.7664
        48.200          39.3004
 127047912.363 6  98998322.79643  24176413.850    24176397.5134
        37.900          20.4004
 105278590.133 8  82035233.76947  20033846.648    20033834.2964
        50.900          45.0004
 130715486.433 5                  24874330.640
        33.100
 113699521.855 8  88596993.79446  21636298.042    21636284.8114
        48.000          37.4004
 119261266.865 7  92930794.90644  22694661.910    22694648.2694
        43.000          29.6004
 121252412.776 6  94482367.52244  23073566.163    23073556.5084
        41.700          26.9004
 128037386.093 6                  24364706.279
        36.900
 16  2  1 12  2 28.0000000  0  9G26G20G02G29G13G05G21G25G18
 119908902.974 7  93435477.32944  22817905.615    22817895.5494
        43.200          29.0004
 108176992.268 8  84293716.38746  20585395.294    20585382.0634
        48.400          39.2004
 127050791.894 6  99000566.58443  24176960.996    24176945.7144
        38.100          20.1004
 105278729.923 8  82035342.69147  20033873.286    20033860.7004
        50.900          45.2004
 130712560.128 5                  24873774.417
        34.100
 113701360.160 8  88598426.24046  21636647.803    21636634.4554
        48.300          37.7004
 119259191.909 7  92929178.05444  22694266.969    22694253.6214
        43.200          29.3004
 121255952.945 6  94485126.09444  23074240.174    23074230.1664
        41.700          27.2004
 128033939.941 6                  24364051.172
        36.400
 16  2  1 12  2 29.0000000  0  9G26G20G02G29G13G05G21G25G18
 119907034.951 7  93434021.73244  22817550.242    22817540.4114
        42.800          28.9004
 108175372.155 8  84292453.95746  20585086.240    20585073.4194
        48.300          38.8004
 127053671.161 6  99002810.17543  24177509.953    24177493.2054
        37.700          20.6004
 105278869.958 8  82035451.80947  20033899.911    20033887.2674
        50.500          45.1004
 130709633.759 5                  24873217.243
        33.700
 113703198.797 8  88599858.94246  21636997.440    21636984.3264
        48.500          37.7004
 119257116.941 7  92927561.19644  22693871.051    22693858.7584
        43.500          29.7004
 121259493.047 6  94487884.61744  23074913.851    23074903.9024
        41.600          26.7004
 128030493.632 6                  24363395.454
        36.400
 16  2  1 12  2 30.0000000  0  9G26G20G02G29G13G05G21G25G18
 119905167.648 7  93432566.69044  22817194.682    22817185.0264
        42.600          29.6004
 108173752.757 8  84291192.09546  20584778.366    20584765.4294
        48.100          38.9004
 127056550.660 6  99005053.94943  24178057.182    24178041.5484
        37.700          20.9004
 105279010.561 8  82035561.37047  20033926.749    20033914.2804
        50.200          44.9004
 130706707.603 5                  24872659.581
        33.300
 113705038.084 8  88601292.15246  21637347.977    21637334.5704
        48.700          37.8004
 119255042.287 7  92925944.59245  22693477.296    22693463.4214
        42.800          30.2004
 121263033.580 6  94490643.47744  23075587.977    23075577.2664
        41.800          26.7004
 128027047.516 6                  24362738.507
        36.300
 16  2  1 12  2 31.0000000  0  9G26G20G02G29G13G05G21G25G18
 119903300.697 7  93431111.92044  22816839.840    22816829.4814
        42.700          29.1004
 108172133.810 8  84289930.57846  20584469.902    20584457.0814
        48.000          38.9004
 127059430.027 6  99007297.60843  24178604.939    24178589.0714
        37.600          20.4004
 105279151.500 8  82035671.19747  20033953.713    20033941.1274
        50.500          44.9004
 130703781.498 5                  24872102.607
        33.300
 113706877.805 8  88602725.70346  21637697.558    21637684.1514
        48.700          37.4004
 119252967.641 7  92924327.98144  22693082.127    22693069.1314
        42.600          29.6004
 121266574.114 7  94493402.33444  23076261.967    23076251.4904
        42.100          27.6004
 128023601.358 5                  24362082.522
        35.600
 16  2  1 12  2 32.0000000  0  9G26G20G02G29G13G05G21G25G18
 119901434.819 7  93429657.99044  22816484.319    22816474.4294
        42.700          29.3004
 108170515.893 8  84288669.86646  20584162.403    20584149.5834
        48.200          38.9004
 127062309.944 6  99009541.71343  24179153.362    24179137.1424
        37.500          19.9004
 105279293.372 8  82035781.74447  20033980.612    20033968.0264
        50.800          45.1004
 130700856.045 5                  24871545.714
        33.300
 113708718.552 8  88604160.05246  21638047.873    21638034.8774
        48.200          37.8004
 119250893.670 7  92922711.89645  22692687.764    22692674.6514
        42.700          30.7004
 121270115.412 6  94496161.79344  23076934.737    23076924.9064
        41.800          26.2004
 128020155.765 5                  24361426.851
        35.500
 16  2  1 12  2 33.0000000  0  9G26G20G02G29G13G05G21G25G18
 119899569.073 7  93428204.16244  22816129.065    22816119.3514
        42.700          28.8004
 108168898.174 8  84287409.30446  20583854.411    20583841.2974
        48.300          38.7004
 127065189.480 6  99011785.51043  24179700.615    24179685.2744
        37.400          20.4004
 105279435.321 8  82035892.35447  20034007.277    20033995.2184
        50.700          45.1004
 130697930.364 5                  24870989.712
        33.700
 113710559.450 8  88605594.52246  21638398.210    21638384.8624
        48.400          38.0004
 119248819.526 7  92921095.68545  22692293.190    22692279.8424
        42.700          30.0004
 121273656.525 6  94498921.10444  23077609.401    23077598.5144
        41.800          26.5004
 128016709.811 6                  24360771.261
        36.000
 16  2  1 12  2 34.0000000  0  9G26G20G02G29G13G05G21G25G18
 119897704.010 7  93426750.86644  22815774.641    22815764.3414
        42.500          29.3004
 108167281.168 7  84286149.30146  20583546.986    20583533.6974
        47.900          39.0004
 127068069.184 6  99014029.43343  24180248.728    24180233.4464
        37.200          20.1004
 105279577.870 8  82036003.43447  20034034.387    20034022.0354
        50.500          44.9004
 130695004.935 5                  24870434.378
        33.700
 113712401.000 8  88607029.49846  21638748.607    21638735.8454
        48.300          37.8004
 119246745.686 7  92919479.70644  22691898.568    22691885.3374
        43.100          29.3004
 121277197.973 7  94501680.67544  23078283.326    23078272.4404
        42.100          25.6004
 128013264.083 5                  24360115.743
        35.200
 16  2  1 12  2 35.0000000  0  9G26G20G02G29G13G05G21G25G18
 119895839.618 7  93425298.09144  22815419.222    22815409.6834
        42.400          28.9004
 108165664.861 7  84284889.83846  20583239.301    20583226.3054
        47.900          39.2004
 127070949.102 6  99016273.52943  24180796.766    24180781.4844
        37.400          19.9004
 105279720.985 8  82036114.94947  20034061.514    20034049.6314
        50.600          45.1004
 130692079.850 5                  24869877.003
        33.900
 113714243.240 8  88608465.01046  21639099.613    21639085.5624
        48.200          37.7004
 119244672.146 7  92917863.95544  22691503.960    22691490.7294
        43.100          29.4004
 121280739.757 7  94504440.50444  23078956.787    23078946.7214
        42.400          26.6004
 128009818.534 6                  24359460.203
        36.000
 16  2  1 12  2 36.0000000  0  9G26G20G02G29G13G05G21G25G18
 119893975.537 7  93423845.55744  22815064.323    22815055.1954
        42.600          28.5004
 108164048.902 7  84283630.65146  20582931.402    20582918.5814
        47.700          39.2004
 127073828.793 6  99018517.45643  24181344.816    24181329.1234
        37.100          19.6004
 105279864.350 8  82036226.66247  20034089.264    20034076.4434
        50.400          45.1004
 130689154.631 5                  24869320.870
        34.200
 113716085.816 8  88609900.78246  21639449.736    21639436.5644
        48.400          38.0004
 119242598.589 7  92916248.20744  22691109.760    22691096.0604
        43.000          29.9004
 121284281.571 7  94507200.35544  23079630.263    23079620.8424
        42.100          26.9004
 128006372.895 6                  24358803.886
        36.100
 16  2  1 12  2 37.0000000  0  9G26G20G02G29G13G05G21G25G18
 119892112.524 7  93422393.86044  22814710.346    22814700.3394
        42.100          28.5004
 108162433.985 7  84282372.27846  20582624.571    20582611.3404
        47.900          39.0004
 127076709.023 6  99020761.78243  24181892.284    24181877.1194
        36.900          19.6004
 105280008.657 8  82036339.10647  20034116.757    20034104.4644
        50.800          45.1004
 130686230.097 5                  24868763.836
        34.000
 113717929.404 8  88611337.34846  21639800.706    21639787.1824
        48.100          37.9004
 119240525.709 7  92914632.96344  22690714.786    22690701.4384
        43.100          29.6004
 121287824.054 7  94509960.73144  23080304.665    23080294.7164
        42.400          26.8004
 128002927.768 6                  24358149.441
        36.700
 16  2  1 12  2 38.0000000  0  9G26G20G02G29G13G05G21G25G18
 119890249.605 7  93420942.23744  22814355.210    22814345.7304
        42.700          28.7004
 108160819.230 7  84281114.02646  20582317.440    20582303.7404
        47.700          39.1004
 127079588.863 6  99023005.79943  24182439.996    24182425.3584
        36.800          19.9004
 105280152.987 8  82036451.57747  20034143.964    20034131.6124
        50.200          44.9004
 130683305.239 5                  24868207.243
        33.700
 113719773.091 8  88612773.98546  21640151.860    21640138.2774
        48.200          37.9004
 119238452.576 7  92913017.53644  22690320.832    22690306.8394
        43.000          28.8004
 121291366.346 7  94512720.96344  23080978.738    23080968.7304
        42.000          27.1004
 127999482.305 6                  24357494.383
        36.400
 16  2  1 12  2 39.0000000  0  9G26G20G02G29G13G05G21G25G18
 119888387.311 7  93419491.09644  22814001.274    22813991.5594
        42.400          29.1004
 108159205.131 7  84279856.28646  20582010.170    20581997.2914
        47.800          39.1004
 127082468.825 6  99025249.93143  24182988.420    24182973.3734
        37.300          19.6004
 105280297.853 8  82036564.46047  20034171.294    20034159.0594
        50.200          45.1004
 130680380.670 5                  24867650.220
        33.300
 113721617.445 8  88614211.14246  21640502.136    21640489.0814
        48.100          38.0004
 119236379.751 7  92911402.34844  22689926.640    22689912.4714
        43.000          29.6004
 121294908.939 7  94515481.41744  23081653.243    23081642.8844
        42.200          27.6004
 127996036.980 6                  24356837.952
        36.900
 16  2  1 12  2 40.0000000  0  9G26G20G02G29G13G05G21G25G18
 119886525.912 7  93418040.66244  22813647.375    22813637.7204
        42.600          28.3004
 108157591.965 7  84278599.27046  20581703.106    20581689.7584
        47.700          38.9004
 127085349.176 6  99027494.36143  24183536.560    24183521.5124
        36.400          19.3004
 105280443.531 8  82036677.97647  20034199.334    20034186.9834
        50.000          44.9004
 130677456.558 5                  24867094.237
        33.400
 113723462.627 7  88615648.94846  21640853.412    21640840.1224
        47.900          37.4004
 119234307.411 7  92909787.54045  22689532.300    22689518.1324
        42.900          30.2004
 121298452.098 6  94518242.33444  23082326.897    23082317.1244
        41.800          26.6004
 127992592.076 6                  24356183.058
        36.300
 16  2  1 12  2 41.0000000  0  9G26G20G02G29G13G05G21G25G18
 119884664.753 7  93416590.41244  22813293.472    22813283.5234
        42.300          28.7004
 108155979.045 7  84277342.44946  20581396.519    20581383.2294
        47.800          39.0004
 127088229.289 5  99029738.60943  24184084.008    24184069.4294
        35.800          19.0004
 105280589.353 8  82036791.60447  20034227.082    20034214.6724
        49.900          45.0004
 130674532.281 5                  24866537.567
        32.800
 113725308.070 8  88617086.95746  21641204.692    21641191.4614
        48.100          37.7004
 119232234.936 7  92908172.62945  22689137.675    22689123.9174
        43.300          30.0004
 121301995.143 6  94521003.15244  23083001.596    23082991.4134
        41.400          26.7004
 127989146.987 6  99731748.16353  24355527.724    24355511.6224
        36.900          20.9004
 16  2  1 12  2 42.0000000  0  9G26G20G02G29G13G05G21G25G18
 119882804.268 7  93415140.67644  22812939.327    22812929.5544
        42.500          28.7004
 108154366.847 7  84276086.19746  20581089.695    20581076.3474
        47.900          38.9004
 127091109.550 6  99031982.96443  24184632.335    24184617.3464
        36.100          18.6004
 105280735.789 8  82036905.70547  20034254.608    20034242.4324
        50.000          45.1004
 130671608.437 5                  24865980.561
        32.000
 113727154.205 8  88618525.50446  21641556.072    21641542.7824
        48.000          37.8004
 119230162.806 7  92906557.98045  22688742.506    22688729.2164
        43.400          30.0004
 121305538.591 6  94523764.27944  23083675.562    23083665.7314
        41.300          25.9004
 127985702.036 6  99729063.81343  24354872.093    24354856.1084
        36.600          19.9004
 16  2  1 12  2 43.0000000  0  9G26G20G02G29G13G05G21G25G18
 119880944.242 7  93413691.30944  22812584.756    22812575.3944
        42.500          28.6004
 108152755.124 8  84274830.30646  20580783.267    20580769.3334
        48.400          39.0004
 127093989.766 5  99034227.28443  24185180.210    24185165.8074
        35.900          18.6004
 105280882.569 8  82037020.08147  20034283.106    20034270.2274
        50.200          45.1004
 130668684.501 5                  24865423.982
        32.200
 113729000.763 7  88619964.38146  21641907.377    21641894.0884
        47.300          37.5004
 119228090.767 7  92904943.41444  22688348.750    22688335.0504
        43.400          29.1004
 121309082.133 6  94526525.46944  23084350.514    23084340.0964
        41.100          26.0004
 127982257.120 6  99726379.50743  24354216.540    24354200.9654
        36.500          19.3004
 16  2  1 12  2 44.0000000  0  9G26G20G02G29G13G05G21G25G18
 119879085.101 7  93412242.62344  22812232.260    22812221.6674
        42.500          28.9004
 108151144.348 8  84273575.15546  20580476.595    20580463.4224
        48.500          39.0004
 127096870.360 5  99036471.90243  24185728.516    24185713.8204
        35.900          18.6004
 105281030.176 8  82037135.10347  20034310.884    20034298.7084
        50.300          45.0004
 130665761.186 5                  24864866.839
        32.800
 113730848.242 7  88621403.97046  21642258.895    21642245.7234
        47.700          37.6004
 119226019.270 7  92903329.25944  22687955.322    22687940.9774
        43.500          29.5004
 121312626.280 6  94529287.14144  23085024.232    23085014.0484
        41.500          27.3004
 127978812.599 6  99723695.45243  24353560.940    24353545.0724
        36.500          19.0004
 16  2  1 12  2 45.0000000  0  9G26G20G02G29G13G05G21G25G18
 119877226.199 7  93410794.13344  22811878.005    22811867.7634
        42.400          28.8004
 108149533.766 8  84272320.16046  20580169.637    20580156.2304
        48.100          38.8004
 127099750.646 5  99038716.27143  24186276.765    24186261.6004
        35.800          18.6004
 105281177.887 8  82037250.20347  20034338.989    20034326.5204
        50.300          44.9004
 130662837.618 5                  24864311.606
        31.800
 113732695.898 7  88622843.70346  21642610.562    21642597.6244
        47.300          37.9004
 119223947.634 7  92901714.99644  22687560.386    22687546.8044
        43.300          29.0004
 121316170.249 6  94532048.67744  23085699.174    23085688.8744
        41.900          25.9004
 127975367.817 5  99721011.18743  24352905.798    24352889.8714
        35.800          19.0004
 16  2  1 12  2 46.0000000  0  9G26G20G02G29G13G05G21G25G18
 119875368.085 7  93409346.25544  22811524.426    22811514.5364
        42.400          29.1004
 108147924.054 8  84271065.83746  20579863.488    20579849.9054
        48.000          39.2004
 127102631.249 5  99040960.89043  24186825.022    24186810.3264
        35.800          19.0004
 105281326.339 8  82037365.87747  20034367.324    20034355.0314
        50.500          44.9004
 130659914.557 5                  24863755.346
        31.800
 113734544.374 7  88624284.07846  21642961.768    21642949.0074
        47.600          37.4004
 119221876.450 7  92900101.08044  22687166.023    22687152.7344
        43.200          29.1004
 121319714.744 6  94534810.62244  23086374.127    23086363.6514
        41.700          26.4004
 127971923.355 5  99718327.19243  24352249.651    24352234.2524
        35.600          19.0004
 16  2  1 12  2 47.0000000  0  9G26G20G02G29G13G05G21G25G18
 119873510.343 7  93407898.65744  22811171.324    22811161.1414
        42.700          28.0004
 108146314.714 7  84269811.80546  20579557.296    20579543.8904
        47.600          39.1004
 127105511.731 5  99043205.41643  24187372.632    24187358.2294
        35.900          19.0004
 105281475.038 8  82037481.74447  20034395.594    20034383.3014
        50.800          45.0004
 130656991.353 5                  24863198.397
        31.800
 113736393.214 7  88625724.73546  21643313.616    21643300.7954
        47.600          37.6004
 119219805.259 7  92898487.16145  22686771.826    22686758.7124
        43.500          30.1004
 121323259.264 7  94537572.58944  23087048.085    23087038.3124
        42.100          26.7004
 127968478.804 5  99715643.19043  24351593.138    24351578.8534
        35.300          18.3004
 16  2  1 12  2 48.0000000  0  9G26G20G02G29G13G05G21G25G18
 119871653.209 7  93406451.53644  22810817.140    22810807.8364
        42.600          28.2004
 108144706.035 7  84268558.28946  20579250.610    20579237.8484
        47.900          39.0004
 127108392.332 6  99045450.04943  24187920.598    24187906.4294
        36.200          19.6004
 105281624.274 8  82037598.03047  20034423.945    20034411.5934
        50.700          44.9004
 130654068.458 5                  24862641.914
        31.300
 113738242.661 7  88627165.86246  21643665.737    21643652.9164
        47.600          37.6004
 119217734.312 7  92896873.44344  22686378.221    22686364.2284
        43.100          29.8004
 121326804.051 7  94540334.75644  23087723.614    23087712.4934
        42.000          26.7004
 127965034.450 5  99712959.24343  24350937.164    24350923.5234
        35.400          18.6004
 16  2  1 12  2 49.0000000  0  9G26G20G02G29G13G05G21G25G18
 119869796.874 7  93405005.04644  22810463.532    22810454.1114
        43.000          28.0004
 108143098.176 7  84267305.41646  20578944.974    20578932.4474
        47.900          39.0004
 127111273.155 6  99047694.84843  24188468.475    24188454.7164
        36.400          19.6004
 105281774.235 8  82037714.88447  20034452.575    20034440.1654
        50.400          44.7004
 130651145.844 5                  24862084.992
        31.000
 113740092.892 7  88628607.59246  21644017.992    21644004.8194
        47.200          37.3004
 119215663.818 7  92895260.07144  22685984.438    22685970.2694
        43.500          29.4004
 121330349.318 7  94543097.30444  23088398.232    23088387.1124
        42.000          26.8004
 127961590.290 5  99710275.45943  24350282.903    24350267.9734
        35.900          18.3004
 16  2  1 12  2 50.0000000  0  9G26G20G02G29G13G05G21G25G18
 119867941.162 7  93403559.03644  22810110.500    22810100.8454
        42.700          29.3004
 108141490.960 7  84266053.03846  20578639.163    20578625.9914
        47.600          38.8004
 127114154.128 6  99049939.77843  24189017.037    24189002.9864
        36.700          19.3004
 105281924.726 8  82037832.14747  20034481.413    20034468.8274
        50.300          44.8004
 130648223.659 5                  24861529.854
        31.200
 113741943.766 7  88630049.83346  21644370.035    21644356.9804
        47.000          37.5004
 119213593.603 7  92893646.92044  22685590.209    22685576.3334
        43.200          29.0004
 121333894.860 6  94545860.06944  23089072.118    23089061.4074
        41.800          26.7004
 127958146.387 5  99707591.90842  24349627.471    24349612.8924
        35.500          17.8004
 16  2  1 12  2 51.0000000  0  9G26G20G02G29G13G05G21G25G18
 119866085.720 7  93402113.24444  22809757.599    22809747.8264
        42.600          28.8004
 108139884.057 7  84264800.91046  20578333.032    20578320.0944
        47.600          39.1004
 127117034.879 6  99052184.52643  24189565.433    24189550.6794
        36.900          19.6004
 105282075.397 8  82037949.56047  20034510.063    20034497.5354
        50.500          44.8004
 130645301.234 5                  24860973.692
        31.300
 113743794.910 7  88631492.28646  21644722.282    21644709.1694
        47.500          37.4004
 119211523.294 7  92892033.69244  22685195.942    22685182.5944
        43.400          28.9004
 121337440.379 6  94548622.81244  23089747.513    23089736.3934
        41.800          26.5004
 127954702.234 5  99704908.15142  24348971.690    24348957.5804
        35.300          17.8004
 16  2  1 12  2 52.0000000  0  9G26G20G02G29G13G05G21G25G18
 119864231.077 7  93400668.05944  22809404.723    22809394.9504
        42.800          28.6004
 108138277.976 7  84263549.41246  20578027.230    20578014.6444
        47.800          39.3004
 127119915.933 6  99054429.51243  24190114.078    24190099.2644
        37.200          20.1004
 105282226.785 8  82038067.52347  20034538.870    20034526.1664
        50.200          44.8004
 130642379.262 5                  24860417.186
        31.800
 113745646.821 7  88632935.32846  21645074.791    21645061.9714
        47.700          37.1004
 119209453.421 7  92890420.80344  22684802.135    22684788.6694
        43.600          29.3004
 121340986.353 6  94551385.90644  23090421.416    23090411.0574
        41.700          26.4004
 127951258.402 5  99702224.64442  24348316.718    24348302.3154
        35.500          17.8004
 16  2  1 12  2 53.0000000  0  9G26G20G02G29G13G05G21G25G18
 119862376.696 7  93399223.09044  22809051.957    22809042.3604
        42.800          28.7004
 108136672.200 7  84262298.16546  20577721.639    20577709.1124
        47.900          39.3004
 127122796.686 6  99056674.24643  24190663.192    24190647.5584
        37.200          20.4004
 105282378.361 8  82038185.63347  20034567.414    20034555.0624
        50.100          44.7004
 130639457.196 5                  24859861.315
        31.600
 113747499.015 7  88634378.59546  21645427.251    21645414.3144
        47.800          36.9004
 119207383.458 7  92888807.85045  22684408.807    22684394.9904
        43.900          30.0004
 121344532.285 6  94554148.97544  23091097.133    23091085.8954
        41.800          25.5004
 127947814.412 5  99699541.01742  24347662.605    24347647.0294
        35.700          17.4004
 16  2  1 12  2 54.0000000  0  9G26G20G02G29G13G05G21G25G18
 119860523.150 7  93397778.77144  22808698.566    22808689.4384
        42.700          28.4004
 108135067.259 7  84261047.56146  20577416.591    20577403.6534
        47.900          39.3004
 127125677.794 6  99058919.26743  24191210.585    24191196.0654
        36.300          20.4004
 105282530.654 8  82038304.30747  20034596.533    20034584.1234
        49.900          44.8004
 130636535.503 5                  24859306.209
        32.200
 113749352.019 7  88635822.49746  21645779.780    21645766.9594
        47.600          37.0004
 119205313.940 7  92887195.23544  22684014.970    22684001.1534
        43.300          29.4004
 121348078.672 6  94556912.39344  23091771.241    23091760.5894
        41.800          26.2004
 127944370.713 6  99696857.61942  24347006.332    24346992.2224
        36.000          16.9004
 16  2  1 12  2 55.0000000  0  9G26G20G02G29G13G05G21G25G18
 119858670.067 7  93396334.80944  22808345.855    22808336.3764
        42.100          28.9004
 108133462.804 8  84259797.33346  20577111.525    20577098.4704
        48.000          39.3004
 127128558.868 6  99061164.25443  24191758.947    24191744.0174
        36.800          20.1004
 105282683.344 8  82038423.28347  20034625.423    20034613.0724
        49.800          44.9004
 130633613.907 5                  24858749.986
        32.400
 113751205.483 7  88637266.75546  21646132.725    21646119.3774
        47.300          37.1004
 119203244.549 7  92885582.72644  22683620.866    22683607.5184
        43.200          29.3004
 121351625.214 6  94559675.93444  23092445.902    23092435.1914
        41.900          24.9004
 127940927.047 5  99694174.24642  24346351.444    24346336.8064
        35.700          16.9004
 16  2  1 12  2 56.0000000  0  9G26G20G02G29G13G05G21G25G18
 119856817.480 7  93394891.23044  22807994.132    22807984.1244
        42.400          28.6004
 108131858.932 8  84258547.56546  20576806.219    20576792.9884
        48.200          39.2004
 127131439.943 6  99063409.22543  24192307.217    24192292.2274
        36.200          20.1004
 105282836.464 8  82038542.60247  20034654.626    20034642.2744
        50.000          44.7004
 130630692.475 5                  24858194.470
        31.800
 113753059.466 7  88638711.42346  21646485.505    21646472.0984
        47.800          37.2004
 119201175.318 7  92883970.33145  22683227.076    22683213.5524
        43.100          30.2004
 121355171.948 7  94562439.62244  23093121.242    23093110.4154
        42.200          26.0004
 127937483.425 6  99691490.93042  24345695.676    24345681.6254
        36.400          15.6004
 16  2  1 12  2 57.0000000  0 10G26G20G02G29G13G05G21G25G18G16
 119854965.494 7  93393448.11944  22807640.993    22807631.9234
        42.400          29.3004
 108130255.636 8  84257298.24746  20576501.055    20576488.1174
        48.300          39.4004
 127134321.091 6  99065654.27543  24192856.236    24192840.4854
        36.500          19.9004
 105282990.075 8  82038662.29347  20034683.988    20034671.1684
        50.300          44.6004
 130627771.248 5                  24857638.053
        31.200
 113754914.003 7  88640156.51846  21646838.678    21646825.2134
        47.600          37.3004
 119199106.266 7  92882358.07644  22682833.216    22682820.1024
        43.000          29.1004
 121358718.922 6  94565203.49544  23093795.574    23093785.5674
        41.700          25.8004
 127934039.926 6  99688807.70642  24345041.143    24345026.0374
        36.000          15.6004
                                  24574859.060
        32.200
 16  2  1 12  2 58.0000000  0 10G26G20G02G29G13G05G21G25G18G16
 119853114.210 7  93392005.56044  22807288.853    22807279.4904
        42.400          29.2004
 108128653.062 8  84256049.48446  20576196.159    20576182.9874
        48.400          39.0004
 127137202.418 6  99067899.46943  24193403.598    24193388.9024
        36.400          20.1004
 105283144.286 8  82038782.45347  20034713.361    20034700.9514
        50.400          45.1004
 130624850.291 5                  24857082.954
        32.000
 113756769.238 7  88641602.14746  21647191.459    21647178.2874
        47.800          37.3004
 119197037.587 7  92880746.12744  22682438.932    22682426.2294
        42.500          29.2004
 121362266.271 7  94567967.65744  23094471.146    23094460.4354
        42.100          26.9004
 127930596.610 6  99686124.59042  24344385.148    24344371.2144
        36.100          15.6004
                                  24574257.430
        31.300
 16  2  1 12  2 59.0000000  0 10G26G20G02G29G13G05G21G25G18G16
 119851263.419 7  93390563.39044  22806936.125    22806927.4074
        42.300          29.2004
 108127051.017 8  84254801.13846  20575891.587    20575878.6504
        48.100          39.1004
 127140083.789 6  99070144.69043  24193951.556    24193937.2114
        36.500          19.9004
 105283298.909 8  82038902.94447  20034742.726    20034730.3164
        50.600          45.1004
 130621929.397 5                  24856526.803
        31.900
 113758624.979 8  88643048.18246  21647544.787    21647531.3814
        48.000          37.2004
 119194969.024 7  92879134.26244  22682045.423    22682032.4264
        42.900          29.6004
 121365813.758 6  94570731.94344  23095146.514    23095135.5694
        41.500          27.0004
 127927153.311 5  99683441.47842  24343730.055    24343715.7694
        35.600          14.8004
                                  24573655.869
        31.600
 16  2  1 12  3  0.0000000  0 10G26G20G02G29G13G05G21G25G18G16
 119849413.167 7  93389121.63844  22806584.872    22806575.1004
        42.400          28.7004
 108125449.566 7  84253553.25646  20575586.284    20575573.9914
        47.900          39.3004
 127142965.175 6  99072389.93743  24194500.364    24194485.3174
        36.500          19.9004
 105283453.997 8  82039023.79047  20034771.894    20034759.7774
        50.600          44.7004
 130619008.761 5                  24855970.429
        31.600
 113760481.250 8  88644494.63446  21647897.710    21647884.4794
        48.000          37.3004
 119192900.647 7  92877522.54144  22681652.070    22681638.7814
        43.200          29.9004
 121369361.482 6  94573496.40844  23095821.494    23095810.4904
        41.800          26.7004
 127923710.141 5  99680758.47842  24343075.559    24343060.9214
        35.900          15.6004
                                  24573053.223
        31.600
 16  2  1 12  3  1.0000000  0 10G26G20G02G29G13G05G21G25G18G16
 119847563.461 6  93387680.31244  22806232.377    22806223.5424
        41.900          29.7004
 108123848.667 7  84252305.80246  20575281.528    20575268.6494
        47.800          39.1004
 127145846.524 6  99074635.15443  24195048.387    24195033.6324
        36.500          19.9004
 105283609.528 8  82039144.98047  20034801.605    20034789.3704
        50.500          44.8004
 130616088.174 5                  24855414.928
        30.800
 113762338.059 8  88645941.49446  21648251.329    21648237.6884
        48.100          37.3004
 119190832.464 7  92875910.97445  22681259.031    22681245.3314
        43.000          30.0004
 121372909.444 7  94576261.04244  23096496.302    23096485.3574
        42.100          27.1004
 127920266.981 6  99678075.49142  24342419.463    24342405.8224
        36.100          15.6004
 129129104.23415                  24572451.447
        32.200
 16  2  1 12  3  2.0000000  0 10G26G20G02G29G13G05G21G25G18G16
 119845714.890 7  93386239.85945  22805881.167    22805871.2774
        42.500          30.2004
 108122248.932 7  84251059.25546  20574977.177    20574964.3574
        47.800          39.1004
 127148728.596 6  99076880.92843  24195596.584    24195582.1224
        37.000          19.9004
 105283766.090 8  82039266.97747  20034831.357    20034819.1814
        50.400          44.8004
 130613168.371 5                  24854859.422
        32.000
 113764196.003 8  88647389.24646  21648605.393    21648591.5184
        48.000          37.2004
 119188765.039 7  92874299.98644  22680865.124    22680852.0694
        43.200          29.9004
 121376458.162 6  94579026.27944  23097172.124    23097160.8864
        41.600          27.3004
 127916824.499 5  99675393.02942  24341764.409    24341750.8854
        35.700          15.6004
 129125943.650 5                  24571849.641
        31.900
 16  2  1 12  3  3.0000000  0 10G26G20G02G29G13G05G21G25G18G16
 119843866.714 7  93384799.71844  22805529.340    22805519.7434
        42.500          29.4004
 108120649.622 8  84249813.05146  20574672.918    20574659.9214
        48.100          39.4004
 127151610.530 6  99079126.57243  24196146.355    24196130.7804
        36.900          19.9004
 105283922.987 8  82039389.23147  20034861.555    20034849.0274
        50.000          44.8004
 130610248.622 5                  24854303.403
        32.200
 113766054.323 7  88648837.29046  21648958.608    21648945.1434
        47.800          37.3004
 119186697.625 7  92872689.00944  22680471.771    22680458.5404
        43.500          29.6004
 121380006.966 6  94581791.57144  23097847.007    23097836.5904
        41.600          25.4004
 127913381.904 5  99672710.49642  24341108.040    24341095.2194
        34.400          14.8004
 129122783.289 5                  24571248.577
        32.000
 16  2  1 12  3  4.0000000  0 10G26G20G02G29G13G05G21G25G18G16
 119842018.789 7  93383359.77944  22805177.597    22805168.2354
        43.000          28.5004
 108119050.611 7  84248567.06046  20574368.795    20574355.8574
        47.800          39.2004
 127154492.181 6  99081372.01543  24196693.662    24196679.1424
        37.100          20.1004
 105284080.035 8  82039511.61747  20034891.189    20034878.8374
        50.200          45.1004
 130607328.735 5                  24853748.095
        32.200
 113767912.914 7  88650285.54446  21649311.963    21649298.6744
        47.900          37.1004
 119184630.142 7  92871077.98844  22680078.701    22680065.3534
        43.200          29.5004
 121383555.698 6  94584556.82544  23098522.908    23098511.9054
        41.600          25.4004
 127909939.163 5  99670027.80942  24340452.905    24340440.4944
        34.800          14.8004
 129119622.875 5                  24570646.913
        31.800
 16  2  1 12  3  5.0000000  0 10G26G20G02G29G13G05G21G25G18G16
 119840171.759 7  93381920.53744  22804826.245    22804816.5894
        42.400          29.1004
 108117452.491 7  84247321.77246  20574064.515    20574051.3434
        47.800          39.1004
 127157374.192 6  99083617.72343  24197242.457    24197227.4094
        36.900          20.1004
 105284237.872 8  82039634.60247  20034920.960    20034908.8434
        49.600          45.1004
 130604409.282 5                  24853192.359
        32.500
 113769772.360 8  88651734.45646  21649665.613    21649652.4414
        48.100          37.0004
 119182563.159 7  92869467.35744  22679685.286    22679671.7044
        43.300          29.6004
 121387104.957 6  94587322.48944  23099197.748    23099187.0384
        41.800          24.7004
 127906496.773 5  99667345.46542  24339798.566    24339785.4524
        34.300          14.8004
 129116463.141 5                  24570044.854
        32.300
 16  2  1 12  3  6.0000000  0 10G26G20G02G29G13G05G21G25G18G16
 119838325.029 7  93380481.52244  22804474.839    22804465.1834
        42.700          29.6004
 108115854.763 7  84246076.78746  20573760.623    20573747.6854
        47.500          39.3004
 127160256.084 6  99085863.36743  24197791.340    24197775.4134
        37.300          19.6004
 105284395.969 8  82039757.79547  20034951.034    20034938.9764
        50.000          45.0004
 130601489.843 5                  24852637.349
        32.400
 113771632.133 7  88653183.63446  21650019.834    21650006.9544
        47.900          36.9004
 119180496.159 7  92867856.70544  22679292.010    22679278.4864
        43.100          29.4004
 121390654.266 6  94590088.18344  23099873.310    23099862.1894
        41.000          27.0004
 127903054.327 5  99664663.05442  24339142.289    24339130.1134
        34.000          15.6004
 129113303.487 5                  24569442.382
        31.300
 16  2  1 12  3  7.0000000  0 10G26G20G02G29G13G05G21G25G18G16
 119836479.108 7  93379043.14944  22804123.832    22804113.8844
        43.000          29.3004
 108114257.816 7  84244832.40946  20573456.924    20573443.4004
        47.300          39.1004
 127163138.247 6  99088109.19743  24198340.001    24198324.4844
        37.600          19.3004
 105284554.740 8  82039881.51247  20034981.637    20034969.4024
        50.200          45.0004
 130598570.726 5                  24852081.743
        32.400
 113773492.670 7  88654633.40346  21650373.519    21650360.4644
        47.600          37.0004
 119178429.580 7  92866246.38344  22678898.620    22678885.2144
        43.300          28.7004
 121394203.971 6  94592854.19944  23100548.392    23100537.9754
        41.300          25.5004
 127899612.059 5  99661980.75442  24338488.275    24338475.4554
        34.200          15.6004
 129110144.437 5                  24568841.288
        32.300
 16  2  1 12  3  8.0000000  0 10G26G20G02G29G13G05G21G25G18G16
 119834633.695 7  93377605.16544  22803773.118    22803762.9354
        42.500          29.7004
 108112661.418 7  84243588.47246  20573152.932    20573140.0534
        47.800          39.1004
 127166020.375 6  99090355.02643  24198887.745    24198872.6974
        37.600          19.0004
 105284713.943 8  82040005.56447  20035011.976    20034999.3904
        50.500          44.9004
 130595651.764 5                  24851525.675
        33.000
 113775353.714 7  88656083.56546  21650727.508    21650714.8054
        47.400          37.2004
 119176363.159 7  92864636.18544  22678505.301    22678491.7194
        43.100          29.3004
 121397753.858 6  94595620.33244  23101223.865    23101213.4484
        41.000          25.6004
 127896169.887 5  99659298.51942  24337832.626    24337820.0984
        34.100          16.3004
 129106985.574 5                  24568241.287
        32.300
 16  2  1 12  3  9.0000000  0 10G26G20G02G29G13G05G21G25G18G16
 119832789.066 7  93376167.79145  22803421.934    22803411.9274
        42.900          30.0004
 108111065.850 7  84242345.17246  20572849.635    20572836.1114
        47.500          39.1004
 127168902.821 6  99092601.10043  24199437.295    24199421.3104
        37.400          19.0004
 105284873.860 8  82040130.17447  20035042.581    20035030.0544
        50.600          45.1004
 130592733.211 5                  24850970.742
        32.300
 113777215.553 7  88657534.35246  21651082.028    21651069.3834
        47.200          37.2004
 119174297.171 7  92863026.32644  22678112.445    22678098.8044
        43.200          29.3004
 121401304.245 6  94598386.87044  23101899.888    23101889.0014
        41.300          26.6004
 127892728.082 5  99656616.62742  24337177.670    24337165.7874
        34.800          15.6004
 129103827.303 5                  24567641.491
        32.500
 16  2  1 12  3 10.0000000  0 10G26G20G02G29G13G05G21G25G18G16
 119830944.323 7  93374730.33244  22803070.630    22803061.1514
        42.900          29.8004
 108109470.169 7  84241101.78246  20572546.087    20572532.6224
        47.800          39.4004
 127171784.638 6  99094846.68043  24199985.046    24199969.5294
        36.900          19.0004
 105285033.558 8  82040254.62247  20035073.053    20035060.2334
        50.500          45.2004
 130589814.197 5                  24850414.310
        31.500
 113779077.267 7  88658985.03246  21651436.736    21651423.6814
        47.400          37.6004
 119172230.718 7  92861416.10244  22677719.192    22677705.7264
        43.200          29.5004
 121404854.166 6  94601153.04644  23102574.822    23102564.0534
        41.400          26.3004
 127889285.674 5  99653934.22642  24336522.415    24336510.3574
        34.800          15.6004
 129100668.680 5                  24567040.896
        32.800
 16  2  1 12  3 11.0000000  0 10G26G20G02G29G13G05G21G25G18G16
 119829100.101 7  93373293.27744  22802719.757    22802709.8084
        43.200          29.9004
 108107875.049 7  84239858.82546  20572242.078    20572229.3754
        47.400          39.1004
 127174666.422 6  99097092.20343  24200533.538    24200518.0804
        37.500          19.3004
 105285193.699 8  82040379.40447  20035103.129    20035090.9534
        50.600          45.3004
 130586895.271 5                  24849859.517
        31.500
 113780939.467 7  88660436.10046  21651790.797    21651777.9764
        47.200          37.8004
 119170164.407 7  92859805.99344  22677325.643    22677312.1204
        43.200          29.6004
 121408404.264 6  94603919.35744  23103250.271    23103239.7944
        41.700          25.8004
 127885843.276 5  99651251.83842  24335868.868    24335855.5204
        35.000          14.8004
 129097510.309 5                  24566440.098
        32.300
 16  2  1 12  3 12.0000000  0 10G26G20G02G29G13G05G21G25G18G16
 119827256.736 7  93371856.88744  22802369.400    22802358.9244
        43.400          29.6004
 108106280.785 7  84238616.54846  20571938.780    20571926.0194
        47.600          39.0004
 127177548.558 6  99099338.02843  24201080.940    24201065.8924
        37.900          20.1004
 105285354.580 8  82040504.76447  20035133.790    20035121.3804
        50.500          45.4004
 130583976.752 5                  24849304.740
        31.000
 113782802.508 7  88661887.82046  21652145.033    21652132.0364
        47.300          37.8004
 119168098.554 7  92858196.23244  22676932.052    22676919.0564
        43.600          29.6004
 121411954.864 6  94606686.05244  23103926.569    23103915.6244
        41.800          26.8004
 127882401.282 5  99648569.77142  24335213.560    24335200.2714
        34.900          14.8004
 129094352.552 5                  24565838.334
        32.800
 16  2  1 12  3 13.0000000  0 10G26G20G02G29G13G05G21G25G18G16
 119825414.100 7  93370421.06044  22802018.298    22802008.1154
        43.000          29.4004
 108104687.331 7  84237374.89646  20571635.841    20571622.7284
        47.700          39.3004
 127180430.989 6  99101584.09543  24201630.115    24201615.4194
        37.600          20.1004
 105285516.154 8  82040630.66447  20035164.809    20035152.3994
        50.300          45.1004
 130581058.668 5                  24848748.728
        31.300
 113784666.324 7  88663340.14746  21652500.092    21652486.6864
        46.800          38.0004
 119166033.077 7  92856586.76545  22676539.752    22676525.9354
        43.300          30.1004
 121415505.919 6  94609453.10244  23104602.471    23104591.3514
        41.800          26.2004
 127878959.535 5  99645887.90742  24334558.515    24334545.5194
        35.500          14.8004
 129091195.293 5                  24565237.558
        32.900
 16  2  1 12  3 14.0000000  0 10G26G20G02G29G13G05G21G25G18G16
 119823571.987 7  93368985.64244  22801667.993    22801657.9274
        43.300          29.3004
 108103094.398 8  84236133.64946  20571332.685    20571319.3374
        48.000          38.8004
 127183313.406 6  99103830.12643  24202178.892    24202163.3764
        37.900          19.9004
 105285678.139 8  82040756.88747  20035195.463    20035182.8774
        50.600          44.8004
 130578140.718 5                  24848194.060
        31.600
 113786530.649 7  88664792.86346  21652854.767    21652841.6544
        47.200          37.9004
 119163967.770 7  92854977.43644  22676147.037    22676133.3384
        43.500          29.7004
 121419057.131 6  94612220.26944  23105278.309    23105266.8364
        41.600          26.4004
 127875517.872 5  99643206.10542  24333904.131    24333890.9004
        35.700          15.6004
 129088038.367 5                  24564637.230
        32.600
 16  2  1 12  3 15.0000000  0 10G26G20G02G29G13G05G21G25G18G16
 119821730.122 7  93367550.42744  22801317.550    22801307.4264
        42.600          29.0004
 108101501.778 8  84234892.64546  20571029.657    20571016.4844
        48.100          38.7004
 127186195.511 6  99106075.90343  24202727.134    24202711.8524
        37.400          20.1004
 105285840.297 8  82040883.24347  20035226.312    20035213.9014
        50.300          44.8004
 130575222.625 5                  24847638.671
        32.400
 113788395.206 7  88666245.77146  21653209.431    21653196.1424
        46.700          37.8004
 119161902.355 7  92853368.01944  22675753.811    22675740.0534
        43.400          29.6004
 121422608.285 6  94614987.41244  23105953.359    23105943.0004
        41.500          25.8004
 127872076.026 5  99640524.15842  24333249.398    24333235.8164
        35.500          15.6004
 129084881.376 5                  24564035.923
        32.900
 16  2  1 12  3 16.0000000  0 10G26G20G02G29G13G05G21G25G18G16
 119819889.148 7  93366115.90044  22800967.727    22800957.2514
        42.600          29.4004
 108099910.010 8  84233652.31046  20570726.641    20570713.7034
        48.000          38.9004
 127189078.034 6  99108322.02143  24203276.084    24203260.3924
        37.300          20.1004
 105286003.197 8  82041010.18247  20035257.417    20035245.1824
        50.600          44.8004
 130572304.961 5                  24847082.309
        32.200
 113790260.594 7  88667699.31746  21653564.502    21653551.7404
        46.800          37.8004
 119159837.432 7  92851758.98944  22675360.528    22675347.1214
        43.200          29.4004
 121426159.909 6  94617754.91644  23106629.381    23106619.1394
        41.500          25.8004
 127868634.469 5  99637842.41242  24332593.921    24332580.6904
        34.900          15.6004
 129081725.033 5                  24563436.101
        32.800
 16  2  1 12  3 17.0000000  0 10G26G20G02G29G13G05G21G25G18G16
 119818048.537 7  93364681.64944  22800616.613    22800607.1924
        42.500          28.7004
 108098318.692 8  84232412.32046  20570423.962    20570410.7314
        48.200          38.8004
 127191960.429 6  99110568.04343  24203824.001    24203808.7194
        37.700          20.1004
 105286166.434 8  82041137.38147  20035288.688    20035276.1614
        51.000          44.8004
 130569387.349 5                  24846527.152
        32.000
 113792126.390 7  88669153.18446  21653919.311    21653906.7254
        47.500          37.7004
 119157772.568 7  92850150.00845  22674967.824    22674954.4764
        43.600          30.0004
 121429711.650 7  94620522.50344  23107305.679    23107294.7344
        42.100          24.8004
 127865192.889 5  99635160.64842  24331939.260    24331925.7364
        35.500          15.6004
 129078568.902 5                  24562834.922
        33.100
 16  2  1 12  3 18.0000000  0 10G26G20G02G29G13G05G21G25G18G16
 119816208.519 7  93363247.87344  22800267.061    22800256.6434
        42.700          29.6004
 108096727.994 8  84231172.81346  20570121.767    20570108.3024
        48.100          38.7004
 127194842.901 6  99112814.12243  24204373.727    24204357.0974
        38.200          20.4004
 105286330.149 8  82041264.94547  20035319.821    20035307.3524
        50.800          44.8004
 130566469.947 5                  24845973.504
        32.200
 113793992.754 7  88670607.50046  21654274.788    21654262.0264
        47.500          37.4004
 119155707.921 7  92848541.18945  22674574.697    22674561.0564
        43.600          30.2004
 121433263.628 7  94623290.28444  23107982.207    23107970.6174
        42.600          25.6004
 127861751.413 6  99632478.97642  24331284.110    24331271.1724
        36.200          15.6004
 129075413.062 5                  24562234.374
        32.800
 16  2  1 12  3 19.0000000  0 10G26G20G02G29G13G05G21G25G18G16
 119814369.022 7  93361814.50644  22799916.340    22799906.9774
        42.600          29.4004
 108095137.824 8  84229933.72746  20569818.482    20569805.3684
        48.300          38.8004
 127197725.354 6  99115060.20143  24204921.717    24204905.6144
        37.700          20.1004
 105286494.316 8  82041392.86747  20035350.812    20035338.1674
        50.500          44.9004
 130563552.647 5                  24845418.885
        31.500
 113795859.648 7  88672062.21646  21654629.774    21654616.6614
        47.300          37.7004
 119153643.425 7  92846932.49444  22674181.876    22674168.4114
        43.400          29.6004
 121436815.787 6  94626058.19744  23108658.057    23108646.4674
        41.800          26.0004
 127858309.971 5  99629797.29242  24330628.843    24330616.5504
        35.400          15.6004
 129072257.576 5                  24561634.278
        32.900
 16  2  1 12  3 20.0000000  0 10G26G20G02G29G13G05G21G25G18G16
 119812530.428 7  93360381.83444  22799566.550    22799557.0114
        42.600          29.6004
 108093548.574 8  84228695.34746  20569515.975    20569502.8034
        48.000          38.9004
 127200608.180 6  99117306.55943  24205469.993    24205454.1834
        38.300          20.4004
 105286659.237 8  82041521.37947  20035382.128    20035370.2454
        50.300          44.8004
 130560635.884 5                  24844863.435
        31.800
 113797727.401 7  88673517.60846  21654985.362    21654972.2484
        47.000          37.8004
 119151579.456 7  92845324.20545  22673788.867    22673775.8124
        43.600          30.0004
 121440368.494 7  94628826.54744  23109334.670    23109322.7874
        42.000          26.4004
 127854868.982 5  99627115.99342  24329973.519    24329961.5194
        35.000          15.6004
 129069102.618 5                  24561033.626
        33.400
 16  2  1 12  3 21.0000000  0 10G26G20G02G29G13G05G21G25G18G16
 119810692.380 7  93358949.59244  22799217.004    22799207.7004
        43.000          29.4004
 108091959.912 7  84227457.42946  20569213.654    20569200.6574
        47.900          38.9004
 127203491.106 6  99119553.01743  24206018.529    24206002.9544
        37.900          20.4004
 105286824.658 8  82041650.27547  20035413.475    20035401.1234
        50.100          44.8004
 130557719.252 5                  24844307.663
        32.000
 113799595.720 7  88674973.44246  21655341.292    21655328.1204
        47.400          37.5004
 119149515.678 7  92843716.07744  22673396.457    22673383.2264
        43.500          29.6004
 121443921.442 7  94631595.07444  23110010.593    23109998.7104
        42.100          26.4004
 127851428.039 5  99624434.77442  24329318.092    24329306.6784
        34.800          14.8004
 129065948.092 5                  24560433.755
        33.400
 16  2  1 12  3 22.0000000  0 10G26G20G02G29G13G05G21G25G18G16
 119808854.488 7  93357517.46944  22798867.346    22798857.4564
        42.500          29.8004
 108090371.449 8  84226219.66946  20568911.856    20568898.3914
        48.100          38.9004
 127206373.653 6  99121799.15543  24206567.776    24206551.5564
        37.700          20.6004
 105286990.156 8  82041779.23847  20035445.257    20035432.6714
        49.900          44.6004
 130554802.456 5                  24843752.354
        32.300
 113801464.211 7  88676429.40746  21655696.846    21655683.3234
        47.800          37.3004
 119147451.705 7  92842107.79144  22673003.559    22672990.3874
        43.600          29.4004
 121447474.214 6  94634363.46944  23110686.389    23110674.6234
        41.800          25.8004
 127847986.802 5  99621753.31042  24328663.197    24328652.1354
        35.200          15.6004
 129062793.453 5                  24559832.215
        33.500
 16  2  1 12  3 23.0000000  0 10G26G20G02G29G13G05G21G25G18G16
 119807017.362 7  93356085.93844  22798517.700    22798507.3994
        43.000          29.5004
 108088783.752 8  84224982.49346  20568609.037    20568596.2754
        48.000          39.0004
 127209256.447 6  99124045.46443  24207115.358    24207100.3104
        37.700          20.4004
 105287156.299 8  82041908.70047  20035476.964    20035464.0854
        49.800          44.8004
 130551885.954 5                  24843196.608
        31.600
 113803333.401 7  88677885.91646  21656052.542    21656039.5464
        47.900          37.7004
 119145388.103 7  92840499.78744  22672610.626    22672597.6884
        43.300          28.9004
 121451027.389 7  94637132.17544  23111362.752    23111351.0454
        42.300          25.8004
 127844545.832 5  99619072.06642  24328009.537    24327997.3024
        35.300          14.8004
 129059639.291 5                  24559233.098
        34.000
 16  2  1 12  3 24.0000000  0 10G26G20G02G29G13G05G21G25G18G16
 119805180.937 7  93354654.94744  22798167.945    22798158.8174
        42.900          29.8004
 108087196.791 8  84223745.90746  20568307.365    20568294.1344
        48.100          39.0004
 127212139.436 6  99126291.93743  24207664.724    24207648.6214
        38.300          20.6004
 105287323.068 8  82042038.65047  20035508.562    20035496.2694
        50.100          45.0004
 130548969.812 5                  24842642.051
        31.800
 113805203.331 7  88679343.00546  21656408.048    21656394.9934
        47.600          37.7004
 119143324.841 7  92838892.05045  22672218.048    22672204.8764
        43.200          30.2004
 121454580.952 6  94639901.19044  23112038.593    23112027.1794
        41.800          25.6004
 127841105.164 5  99616391.00042  24327355.016    24327342.3714
        35.400          14.8004
 129056485.606 5                  24558633.106
        33.200
 16  2  1 12  3 25.0000000  0 10G26G20G02G29G13G05G21G25G18G16
 119803344.959 7  93353224.32144  22797818.462    22797809.2174
        42.700          29.6004
 108085610.316 8  84222509.69546  20568006.157    20567992.5744
        48.100          39.0004
 127215022.401 6  99128538.41743  24208214.255    24208197.4494
        37.800          21.3004
 105287490.238 8  82042168.91247  20035540.014    20035527.4874
        50.200          44.7004
 130546053.687 5                  24842087.204
        32.600
 113807073.673 7  88680800.41646  21656763.690    21656751.1044
        46.800          37.4004
 119141261.700 7  92837284.40945  22671825.038    22671812.1594
        43.400          30.2004
 121458134.642 6  94642670.30544  23112714.590    23112703.2354
        41.800          26.3004
 127837664.408 5  99613709.89642  24326699.726    24326687.9014
        34.900          14.8004
 129053332.198 5                  24558032.886
        33.200
 16  2  1 12  3 26.0000000  0 10G26G20G02G29G13G05G21G25G18G16
 119801509.430 7  93351794.03544  22797469.196    22797459.6584
        42.900          29.7004
 108084024.311 8  84221273.84646  20567703.918    20567690.4534
        48.300          38.9004
 127217905.269 6  99130784.79543  24208762.065    24208746.1974
        38.300          21.8004
 105287657.698 8  82042299.39647  20035572.440    20035559.5024
        50.400          45.0004
 130543137.689 5                  24841532.281
        32.800
 113808944.473 7  88682258.18246  21657119.964    21657107.1444
        46.700          37.5004
 119139198.602 7  92835676.79545  22671432.498    22671419.7944
        43.000          30.2004
 121461688.407 7  94645439.47544  23113390.379    23113379.9034
        42.400          26.9004
 127834223.633 5  99611028.83242  24326045.493    24326032.9664
        35.200          15.6004
 129050178.942 5                  24557432.902
        33.500
 16  2  1 12  3 27.0000000  0 10G26G20G02G29G13G05G21G25G18G16
 119799674.787 6  93350364.44244  22797119.957    22797110.8874
        41.800          29.5004
 108082439.198 8  84220038.69446  20567402.188    20567389.0744
        48.500          39.0004
 127220788.475 6  99133031.45143  24209310.288    24209294.8304
        37.900          21.8004
 105287825.996 8  82042430.53847  20035604.287    20035591.7604
        50.600          45.1004
 130540222.138 5                  24840978.247
        33.400
 113810816.138 7  88683716.62246  21657475.745    21657463.2764
        47.000          37.7004
 119137136.021 7  92834069.59345  22671040.470    22671027.1804
        43.100          30.4004
 121465242.724 7  94648209.07644  23114067.276    23114056.0384
        42.200          26.9004
 127830783.263 5  99608348.04242  24325390.885    24325378.2994
        35.500          15.6004
 129047026.379 5                  24556832.426
        33.700
 16  2  1 12  3 28.0000000  0 10G26G20G02G29G13G05G21G25G18G16
 119797840.470 6  93348935.10644  22796771.552    22796761.8384
        41.800          29.5004
 108080854.494 8  84218803.85746  20567100.418    20567087.3634
        48.200          38.9004
 127223671.593 6  99135278.04843  24209858.667    24209843.6194
        38.500          21.7004
 105287994.554 8  82042561.88247  20035636.111    20035623.9354
        50.200          44.8004
 130537306.546 5                  24840422.813
        33.400
 113812688.165 7  88685175.34646  21657832.385    21657819.5644
        47.000          37.3004
 119135073.463 7  92832462.40644  22670648.047    22670634.5234
        43.300          29.7004
 121468797.087 7  94650978.70344  23114743.900    23114732.7794
        42.800          27.5004
 127827342.774 5  99605667.12242  24324735.699    24324723.8164
        35.000          15.6004
 129043873.890 5                  24556233.542
        33.800
 16  2  1 12  3 29.0000000  0 10G26G20G02G29G13G05G21G25G18G16
 119796006.713 7  93347506.19944  22796422.412    22796412.1124
        42.400          29.1004
 108079270.344 8  84217569.45846  20566799.196    20566785.8484
        48.600          39.0004
 127226554.710 6  99137524.64143  24210407.363    24210392.1984
        37.900          21.7004
 105288163.547 8  82042693.57347  20035668.319    20035655.9094
        50.400          45.1004
 130534391.156 5                  24839868.108
        33.800
 113814560.694 7  88686634.45646  21658188.424    21658175.7204
        47.000          37.2004
 119133011.056 7  92830855.33944  22670255.702    22670242.2964
        42.700          29.9004
 121472351.633 7  94653748.47144  23115420.368    23115408.8374
        42.700          27.0004
 127823902.397 5  99602986.27342  24324081.197    24324069.4324
        35.400          16.3004
 129040721.645 5                  24555633.617
        34.200
 16  2  1 12  3 30.0000000  0 10G26G20G02G29G13G05G21G25G18G16
 119794173.604 7  93346077.81344  22796073.382    22796063.9614
        42.500          29.1004
 108077686.865 8  84216335.57646  20566497.830    20566484.8334
        48.400          39.1004
 127229437.953 6  99139771.31843  24210955.827    24210941.1314
        37.700          21.7004
 105288333.093 8  82042825.68447  20035700.235    20035687.8834
        50.300          45.1004
 130531475.989 5                  24839314.799
        33.200
 113816433.861 7  88688094.06846  21658544.905    21658532.2024
        46.600          37.4004
 119130948.938 7  92829248.49344  22669863.508    22669850.1014
        43.000          29.8004
 121475906.487 7  94656518.48644  23116097.178    23116085.2374
        42.400          27.0004
 127820462.126 6  99600305.52742  24323428.892    24323415.0174
        36.100          15.6004
 129037569.908 5                  24555033.307
        34.500
 16  2  1 12  3 31.0000000  0 10G26G20G02G29G13G05G21G25G18G16
 119792341.218 7  93344649.98344  22795724.826    22795715.2294
        42.400          29.1004
 108076104.107 8  84215102.25746  20566196.783    20566183.5524
        48.400          39.2004
 127232321.404 6  99142018.15943  24211504.027    24211489.9174
        37.600          21.3004
 105288503.268 8  82042958.28847  20035733.068    20035720.8334
        50.700          45.2004
 130528561.152 5                  24838760.228
        33.700
 113818307.716 7  88689554.21246  21658901.418    21658888.5974
        47.100          37.4004
 119128887.165 7  92827641.91644  22669470.678    22669457.6234
        42.600          29.7004
 121479461.698 7  94659288.79144  23116773.332    23116761.8594
        42.100          27.8004
 127817022.114 5  99597624.95342  24322773.233    24322760.2364
        35.400          15.6004
 129034418.528 5                  24554433.381
        34.100
 16  2  1 12  3 32.0000000  0 10G26G20G02G29G13G05G21G25G18G16
 119790509.108 7  93343222.37344  22795375.967    22795366.7804
        42.400          29.1004
 108074521.727 8  84213869.23646  20565895.687    20565882.2214
        48.400          39.2004
 127235204.694 6  99144264.87043  24212053.539    24212038.4914
        37.300          21.5004
 105288673.674 8  82043091.06947  20035765.240    20035753.1234
        50.600          45.3004
 130525646.212 5                  24838205.293
        33.300
 113820181.911 7  88691014.63146  21659258.146    21659245.6774
        46.700          36.9004
 119126825.364 7  92826035.32345  22669078.538    22669065.1324
        42.600          30.4004
 121483016.940 7  94662059.10644  23117449.503    23117438.0904
        42.300          27.7004
 127813581.949 5  99594944.24842  24322118.148    24322105.4444
        35.300          15.6004
 129031267.304 5                  24553834.084
        34.300
 16  2  1 12  3 33.0000000  0 10G26G20G02G29G13G05G21G25G18G16
 119788677.853 6  93341795.42244  22795027.877    22795017.6364
        41.800          29.1004
 108072940.164 8  84212636.85146  20565594.560    20565581.4474
        48.000          39.4004
 127238088.230 6  99146511.78643  24212602.144    24212587.2734
        37.300          21.3004
 105288844.786 8  82043224.40047  20035797.888    20035785.5954
        50.300          45.2004
 130522731.706 5                  24837651.193
        33.400
 113822056.863 7  88692475.62746  21659614.822    21659602.0604
        47.200          37.0004
 119124764.013 7  92824429.07145  22668686.008    22668673.1884
        42.900          30.4004
 121486572.600 6  94664829.75544  23118125.894    23118115.3004
        41.900          26.9004
 127810142.100 5  99592263.90142  24321463.706    24321451.1784
        35.400          14.8004
 129028116.705 5                  24553235.061
        34.700
 16  2  1 12  3 34.0000000  0 10G26G20G02G29G13G05G21G25G18G16
 119786846.817 7  93340368.63844  22794678.342    22794669.3324
        42.200          29.0004
 108071358.927 8  84211404.71246  20565293.750    20565280.2854
        48.200          39.2004
 127240971.519 6  99148758.50643  24213150.563    24213135.9264
        37.600          21.1004
 105289016.088 8  82043357.88647  20035830.600    20035818.1314
        50.500          45.3004
 130519817.121 5                  24837094.918
        33.300
 113823932.123 7  88693936.87246  21659972.021    21659959.0244
        47.500          37.3004
 119122702.558 7  92822822.74545  22668293.883    22668280.5354
        43.200          30.2004
 121490128.207 6  94667600.34944  23118801.872    23118791.8064
        41.600          26.2004
 127806702.071 5  99589583.29642  24320808.813    24320796.3454
        35.600          13.9004
 129024966.027 5                  24552635.379
        34.700
 16  2  1 12  3 35.0000000  0 10G26G20G02G29G13G05G21G25G18G16
 119785016.741 7  93338942.60244  22794331.047    22794321.2154
        42.400          29.0004
 108069778.636 8  84210173.31646  20564992.857    20564979.6854
        48.200          39.2004
 127243855.265 6  99151005.58343  24213698.948    24213684.7804
        37.700          21.1004
 105289188.239 8  82043492.02247  20035863.099    20035851.2164
        50.300          45.2004
 130516903.068 5                  24836540.537
        32.800
 113825808.278 8  88695398.81046  21660329.201    21660316.0294
        48.000          37.0004
 119120641.702 7  92821216.88145  22667901.581    22667888.2914
        43.200          30.2004
 121493684.409 6  94670371.41344  23119479.705    23119468.2914
        41.500          26.2004
 127803262.518 5  99586903.13742  24320154.617    24320141.9144
        35.500          14.8004
 129021816.118 5                  24552035.302
        34.700
 16  2  1 12  3 36.0000000  0 10G26G20G02G29G13G05G21G25G18G16
 119783186.993 7  93337516.82544  22793982.641    22793972.8684
        42.300          29.3004
 108068198.661 8  84208942.16746  20564692.261    20564678.9124
        48.500          39.5004
 127246738.824 6  99153252.50143  24214248.618    24214232.9264
        38.100          21.3004
 105289360.600 8  82043626.33247  20035896.068    20035883.8924
        50.200          44.8004
 130513988.959 5                  24835986.223
        33.100
 113827684.721 7  88696860.97246  21660686.822    21660673.6504
        47.900          37.0004
 119118580.783 7  92819610.96844  22667509.921    22667496.1624
        43.200          29.9004
 121497240.603 6  94673142.47544  23120156.355    23120145.2924
        41.600          26.7004
 127799822.782 5  99584222.84042  24319499.185    24319487.1274
        35.300          14.8004
 129018666.185 5                  24551435.965
        34.100
 16  2  1 12  3 37.0000000  0 10G26G20G02G29G13G05G21G25G18G16
 119781357.944 7  93336091.59344  22793634.602    22793624.5364
        42.300          29.4004
 108066619.478 8  84207711.63846  20564391.438    20564378.3244
        48.400          39.3004
 127249622.568 6  99155499.58243  24214797.587    24214781.8364
        38.300          21.5004
 105289533.597 8  82043761.14047  20035928.884    20035916.7084
        50.200          44.8004
 130511075.142 5                  24835431.519
        33.700
 113829561.898 8  88698323.70746  21661043.763    21661030.3574
        48.000          37.2004
 119116520.249 7  92818005.36145  22667117.168    22667104.5234
        43.300          30.2004
 121500797.163 7  94675913.81644  23120833.168    23120822.2814
        42.100          26.8004
 127796383.263 5  99581542.74742  24318844.206    24318832.6174
        34.900          13.9004
 129015516.818 5                  24550836.305
        34.100
 16  2  1 12  3 38.0000000  0 10G26G20G02G29G13G05G21G25G18G16
 119779529.398 7  93334666.75544  22793286.739    22793276.9664
        42.900          29.1004
 108065040.796 8  84206481.49546  20564091.398    20564078.2844
        48.300          39.3004
 127252506.298 6  99157746.65743  24215345.748    24215330.7594
        38.500          21.5004
 105289707.004 8  82043896.26347  20035961.799    20035949.6244
        50.300          44.9004
 130508161.446 5                  24834877.145
        34.300
 113831439.559 8  88699786.82346  21661400.470    21661387.7094
        48.100          37.1004
 119114459.833 7  92816399.84344  22666725.370    22666712.3744
        43.100          29.6004
 121504353.922 6  94678685.32444  23121509.917    23121498.8554
        41.800          27.3004
 127792943.799 5  99578862.66142  24318189.857    24318178.1504
        35.100          14.8004
 129012367.682 5                  24550236.821
        34.300
 16  2  1 12  3 39.0000000  0 10G26G20G02G29G13G05G21G25G18G16
 119777701.518 7  93333242.43344  22792939.375    22792928.6644
        42.800          28.9004
 108063462.766 8  84205251.86446  20563790.688    20563777.8094
        48.300          39.5004
 127255390.165 6  99159993.80843  24215894.970    24215879.3364
        38.100          21.3004
 105289880.960 8  82044031.80847  20035995.269    20035982.8004
        50.300          44.8004
 130505248.029 5                  24834322.863
        34.200
 113833317.843 7  88701250.42046  21661758.445    21661745.0974
        47.900          37.0004
 119112399.692 7  92814794.53845  22666333.474    22666320.2434
        43.200          30.2004
 121507910.932 6  94681457.02844  23122186.690    23122175.8624
        41.700          27.7004
 127789504.496 5  99576182.68242  24317535.073    24317523.8354
        35.600          15.6004
 129009218.965 5                  24549638.351
        34.500
 16  2  1 12  3 40.0000000  0 10G26G20G02G29G13G05G21G25G18G16
 119775874.151 7  93331818.51044  22792590.923    22792581.1504
        42.600          29.4004
 108061885.332 8  84204022.69546  20563490.786    20563477.7904
        48.400          39.1004
 127258274.076 6  99162241.00243  24216443.031    24216428.1594
        38.700          21.1004
 105290055.369 8  82044167.71547  20036028.639    20036016.0534
        50.200          44.8004
 130502334.829 5                  24833769.441
        33.700
 113835196.655 7  88702714.43346  21662115.757    21662102.6434
        47.800          37.1004
 119110339.712 7  92813189.36245  22665941.162    22665928.0484
        43.400          30.2004
 121511468.202 6  94684228.92544  23122863.628    23122852.7424
        41.300          27.0004
 127786065.308 5  99573502.79842  24316881.440    24316869.3234
        35.400          14.8004
 129006070.503 5                  24549038.925
        33.900
 16  2  1 12  3 41.0000000  0 10G26G20G02G29G13G05G21G25G18G16
 119774047.330 7  93330395.01944  22792244.284    22792233.7494
        42.400          28.9004
 108060308.449 8  84202793.96146  20563190.671    20563177.4404
        48.100          39.1004
 127261158.008 6  99164488.20643  24216992.269    24216976.7524
        38.700          21.1004
 105290230.228 8  82044303.97047  20036061.881    20036049.1194
        50.400          45.2004
 130499421.663 5                  24833215.129
        34.200
 113837075.987 8  88704178.84646  21662473.261    21662459.9714
        48.000          37.0004
 119108279.954 7  92811584.35545  22665549.364    22665536.4264
        43.400          30.0004
 121515025.624 6  94687000.94444  23123540.215    23123529.6814
        40.800          26.5004
 127782626.124 5  99570822.88742  24316226.877    24316215.1124
        35.000          15.6004
 129002922.388 5                  24548439.519
        33.200
 16  2  1 12  3 42.0000000  0 10G26G20G02G29G13G05G21G25G18G16
 119772221.149 7  93328972.01344  22791895.724    22791886.4784
        42.200          29.1004
 108058732.221 8  84201565.72846  20562890.634    20562877.2274
        48.200          39.1004
 127264041.998 6  99166735.48743  24217541.439    24217525.9814
        38.100          20.9004
 105290405.621 8  82044440.63647  20036095.073    20036082.7214
        50.300          45.5004
 130496508.832 5                  24832661.029
        34.300
 113838955.939 8  88705643.74046  21662830.865    21662818.1034
        48.000          37.0004
 119106220.434 7  92809979.52545  22665157.301    22665144.3634
        43.400          30.0004
 121518583.377 6  94689773.21444  23124217.226    23124206.3404
        40.600          26.9004
 127779187.131 5  99568143.16142  24315572.400    24315560.6934
        35.500          14.8004
 128999774.683 5                  24547840.265
        33.200
 16  2  1 12  3 43.0000000  0 10G26G20G02G29G13G05G21G25G18G16
 119770395.482 7  93327549.41644  22791548.367    22791539.2984
        42.400          28.5004
 108057156.537 7  84200337.92346  20562590.591    20562577.4784
        47.900          39.2004
 127266926.089 6  99168982.84543  24218090.736    24218074.5164
        38.100          20.6004
 105290581.453 8  82044577.64947  20036128.698    20036116.2294
        50.800          45.2004
 130493596.065 5                  24832106.387
        34.100
 113840836.396 8  88707109.03146  21663188.790    21663175.7354
        48.000          36.8004
 119104161.064 7  92808374.82344  22664765.212    22664752.3914
        43.700          29.9004
 121522141.295 6  94692545.62044  23124894.476    23124883.2974
        40.700          26.9004
 127775748.185 5  99565463.48142  24314917.551    24314905.5514
        35.500          14.8004
 128996627.198 5                  24547241.479
        33.700
 16  2  1 12  3 44.0000000  0 10G26G20G02G29G13G05G21G25G18G16
 119768570.553 7  93326127.39044  22791202.120    22791191.7034
        42.300          29.1004
 108055581.638 8  84199110.72646  20562290.996    20562277.6484
        48.300          39.2004
 127269810.414 6  99171230.37143  24218638.782    24218623.4414
        37.900          20.4004
 105290757.929 8  82044715.16447  20036162.067    20036149.8334
        50.700          45.2004
 130490683.763 5                  24831552.202
        33.900
 113842717.599 7  88708574.90346  21663546.852    21663533.7974
        47.600          37.0004
 119102102.115 7  92806770.44745  22664373.890    22664360.7764
        43.500          30.6004
 121525699.635 6  94695318.34844  23125571.198    23125561.0154
        40.600          25.6004
 127772309.470 5  99562784.01442  24314263.913    24314251.7384
        35.600          14.8004
 128993480.275 5                  24546642.133
        33.200
 16  2  1 12  3 45.0000000  0 10G26G20G02G29G13G05G21G25G18G16
 119766745.935 7  93324705.60744  22790853.764    22790844.3434
        42.500          28.7004
 108054007.020 8  84197883.75046  20561991.365    20561978.3104
        48.200          39.1004
 127272694.455 6  99173477.68043  24219188.196    24219172.3864
        37.900          20.9004
 105290934.581 8  82044852.81047  20036195.765    20036183.4144
        51.100          45.0004
 130487771.195 5                  24830998.527
        34.000
 113844599.071 7  88710040.98346  21663904.969    21663892.0314
        47.600          36.5004
 119100043.069 7  92805165.99545  22663982.146    22663968.7984
        43.700          30.2004
 121529257.897 6  94698091.01144  23126248.834    23126237.8894
        40.900          25.9004
 127768870.610 5  99560104.38842  24313609.384    24313597.2084
        35.400          14.8004
 128990333.376 5                  24546042.973
        32.500
 16  2  1 12  3 46.0000000  0 10G26G20G02G29G13G05G21G25G18G16
 119764921.910 7  93323284.28144  22790506.927    22790497.1544
        42.600          29.2004
 108052433.100 7  84196657.31946  20561692.060    20561678.7124
        47.900          39.1004
 127275578.646 6  99175725.08943  24219736.635    24219720.9424
        38.100          20.6004
 105291111.794 8  82044990.89947  20036229.584    20036216.8234
        51.100          45.2004
 130484859.074 5                  24830443.629
        33.700
 113846481.167 7  88711507.55746  21664262.854    21664250.2094
        47.200          36.8004
 119097984.302 7  92803561.76845  22663590.464    22663577.2344
        43.600          30.7004
 121532816.450 6  94700863.91544  23126925.899    23126915.4824
        41.500          26.5004
 127765431.897 6  99557424.85842  24312956.033    24312943.2134
        36.700          14.8004
 128987186.853 5                  24545444.987
        33.200
 16  2  1 12  3 47.0000000  0 10G26G20G02G29G13G05G21G25G18G16
 119763098.689 7  93321863.59644  22790159.941    22790150.1684
        43.300          29.0004
 108050859.972 7  84195431.50846  20561392.379    20561379.0904
        47.500          39.0004
 127278463.102 6  99177972.71243  24220285.298    24220269.8404
        37.900          20.6004
 105291289.690 8  82045129.52347  20036263.302    20036250.9504
        50.900          45.1004
 130481947.231 5                  24829888.492
        33.700
 113848364.028 7  88712974.72146  21664621.087    21664608.2084
        47.300          36.9004
 119095925.933 7  92801957.84145  22663199.207    22663185.3314
        43.500          30.4004
 121536375.433 6  94703637.14644  23127602.908    23127592.4324
        41.700          26.2004
 127761993.500 6  99554745.56742  24312302.180    24312288.9494
        37.300          14.8004
 128984040.885 5                  24544846.311
        33.200
 16  2  1 12  3 48.0000000  0 10G26G20G02G29G13G05G21G25G18G16
 119761275.750 7  93320443.12644  22789813.288    22789803.4574
        43.400          29.8004
 108049287.189 7  84194205.96346  20561093.474    20561079.8914
        47.900          39.2004
 127281347.356 6  99180220.17543  24220834.154    24220818.9304
        37.300          21.1004
 105291467.808 8  82045268.31547  20036297.064    20036285.0644
        51.000          45.1004
 130479035.294 5                  24829335.682
        33.100
 113850247.186 7  88714442.11646  21664979.688    21664966.5154
        47.200          37.2004
 119093867.506 7  92800353.87145  22662806.463    22662793.7604
        43.500          30.2004
 121539934.415 6  94706410.38244  23128281.043    23128269.9814
        41.400          26.4004
 127758554.939 6  99552066.13442  24311648.183    24311634.3664
        36.900          14.8004
 128980895.039 5                  24544247.514
        33.700
 16  2  1 12  3 49.0000000  0 10G26G20G02G29G13G05G21G25G18G16
 119759453.664 7  93319023.31644  22789466.394    22789456.6214
        43.400          29.6004
 108047715.239 7  84192981.06346  20560794.288    20560780.8814
        47.600          38.8004
 127284231.901 6  99182467.86943  24221383.133    24221367.7344
        38.300          21.5004
 105291646.641 8  82045407.66947  20036331.106    20036318.6964
        51.000          45.1004
 130476123.832 5                  24828782.121
        33.900
 113852131.159 7  88715910.14746  21665338.871    21665325.2884
        47.500          37.1004
 119091809.550 7  92798750.27245  22662415.311    22662401.9054
        43.600          30.2004
 121543493.876 6  94709183.99644  23128958.063    23128946.7664
        41.400          26.4004
 127755116.728 6  99549387.01442  24310993.235    24310980.0044
        36.400          14.8004
 128977749.710 5                  24543648.993
        34.200
 16  2  1 12  3 50.0000000  0 10G26G20G02G29G13G05G21G25G18G16
 119757631.959 7  93317603.80844  22789119.555    22789110.1924
        43.200          28.8004
 108046143.694 7  84191756.49246  20560495.232    20560482.0604
        47.900          38.8004
 127287116.322 6  99184715.47043  24221930.713    24221916.6034
        37.800          21.5004
 105291825.771 8  82045547.24847  20036365.326    20036352.9154
        51.100          44.8004
 130473212.332 5                  24828228.227
        33.900
 113854015.481 7  88717378.44546  21665697.446    21665683.6884
        47.100          36.9004
 119089751.622 7  92797146.69445  22662023.324    22662010.5034
        43.300          30.0004
 121547053.366 6  94711957.61944  23129635.075    23129624.5404
        41.300          26.8004
 127751678.378 6  99546707.75542  24310338.827    24310325.5964
        36.500          14.8004
 128974604.585 5                  24543051.077
        34.400
 16  2  1 12  3 51.0000000  0 10G26G20G02G29G13G05G21G25G18G16
 119755810.799 7  93316184.71644  22788773.439    22788763.3744
        43.000          28.1004
 108044572.752 7  84190532.38046  20560196.376    20560183.0284
        47.700          39.1004
 127290000.785 6  99186963.09743  24222480.838    24222465.5564
        37.900          21.3004
 105292005.391 8  82045687.20847  20036399.329    20036387.1534
        50.900          44.8004
 130470301.065 5                  24827674.345
        33.800
 113855900.387 7  88718847.20346  21666055.824    21666042.3014
        47.300          37.1004
 119087693.885 7  92795543.26345  22661631.689    22661618.6344
        42.700          30.0004
 121550613.073 6  94714731.41744  23130312.462    23130301.8104
        41.400          26.5004
 127748240.194 6  99544028.65442  24309684.681    24309671.0984
        36.200          14.8004
 128971459.690 5                  24542452.657
        34.200
 16  2  1 12  3 52.0000000  0 10G26G20G02G29G13G05G21G25G18G16
 119753990.499 7  93314766.30444  22788426.770    22788416.5284
        43.200          28.4004
 108043002.682 7  84189308.94846  20559897.327    20559884.4484
        47.300          38.9004
 127292885.627 6  99189211.02943  24223029.418    24223014.5464
        37.300          21.3004
 105292185.759 8  82045827.75347  20036433.962    20036421.5524
        50.800          45.1004
 130467390.201 5                  24827119.370
        34.200
 113857786.098 7  88720316.59046  21666414.431    21666401.1414
        47.300          37.4004
 119085636.636 7  92793940.21545  22661241.145    22661227.3284
        43.200          30.9004
 121554173.289 6  94717505.61444  23130989.997    23130979.2284
        40.800          26.7004
 127744802.347 6  99541349.79242  24309029.790    24309017.0284
        36.100          14.8004
 128968315.475 5                  24541854.032
        34.300
 16  2  1 12  3 53.0000000  0 10G26G20G02G29G13G05G21G25G18G16
 119752170.517 7  93313348.13544  22788080.596    22788070.7064
        43.600          29.4004
 108041432.954 7  84188085.77846  20559598.683    20559585.2174
        47.600          38.8004
 127295770.257 6  99191458.79743  24223578.692    24223563.4684
        37.300          21.3004
 105292366.340 8  82045968.47147  20036468.329    20036455.6254
        50.800          45.1004
 130464479.327 5                  24826565.625
        34.600
 113859672.129 7  88721786.22646  21666772.892    21666760.0134
        47.300          37.5004
 119083579.362 7  92792337.14744  22660848.686    22660835.7484
        43.100          29.5004
 121557733.492 6  94720279.79844  23131667.281    23131657.0394
        40.900          26.4004
 127741364.373 5  99538670.86342  24308375.583    24308362.5864
        35.500          14.8004
 128965171.309 5                  24541255.759
        34.300
 16  2  1 12  3 54.0000000  0 10G26G20G02G29G13G05G21G25G18G16
 119750351.127 7  93311930.43144  22787733.873    22787724.2184
        42.900          29.0004
 108039863.848 7  84186863.10246  20559300.309    20559286.6094
        47.500          39.1004
 127298654.949 6  99193706.61743  24224128.125    24224112.6674
        37.500          21.3004
 105292547.437 8  82046109.58547  20036502.616    20036490.3824
        51.300          44.9004
 130461568.646 5                  24826011.508
        33.800
 113861558.753 7  88723256.32546  21667132.219    21667118.9884
        47.100          37.1004
 119081522.249 7  92790734.21045  22660457.468    22660444.1794
        42.900          30.4004
 121561293.960 6  94723054.19144  23132344.527    23132334.1684
        41.100          25.9004
 127737926.482 5  99535992.02642  24307721.025    24307708.7914
        35.200          15.6004
 128962027.530 5                  24540657.850
        34.300
 16  2  1 12  3 55.0000000  0 10G26G20G02G29G13G05G21G25G18G16
 119748532.376 7  93310513.21944  22787388.226    22787378.2194
        42.700          28.9004
 108038295.416 7  84185640.94446  20559001.836    20558987.9604
        47.800          39.3004
 127301539.809 6  99195954.56543  24224676.736    24224661.3364
        37.800          21.3004
 105292729.092 8  82046251.13147  20036537.077    20036524.8434
        51.200          45.1004
 130458658.214 5                  24825458.153
        34.600
 113863445.994 7  88724726.90046  21667491.364    21667478.2504
        47.200          37.3004
 119079465.475 7  92789131.52245  22660066.611    22660052.9114
        42.600          30.6004
 121564854.729 6  94725828.82244  23133021.547    23133011.8334
        41.000          25.0004
 127734488.761 5  99533313.26242  24307067.248    24307054.5454
        35.800          14.8004
 128958884.165 5                  24540058.820
        33.800
 16  2  1 12  3 56.0000000  0 10G26G20G02G29G13G05G21G25G18G16
 119746714.303 7  93309096.53744  22787041.987    22787032.4494
        42.700          29.7004
 108036727.683 7  84184419.34046  20558703.274    20558689.9854
        47.700          39.0004
 127304424.778 6  99198202.57843  24225225.561    24225210.6314
        37.800          20.9004
 105292911.304 8  82046393.11447  20036572.156    20036559.3354
        51.200          45.1004
 130455748.003 5                  24824904.636
        33.400
 113865333.887 7  88726197.98546  21667850.371    21667837.0824
        47.200          37.3004
 119077408.978 7  92787529.05145  22659674.725    22659661.7294
        43.200          30.2004
 121568415.821 6  94728603.69344  23133699.825    23133689.2914
        40.600          25.8004
 127731051.298 5  99530634.74342  24306412.995    24306400.1754
        35.100          14.8004
 128955741.213 5                  24539461.650
        33.900
 16  2  1 12  3 57.0000000  0 10G26G20G02G29G13G05G21G25G18G16
 119744896.479 7  93307680.05644  22786696.548    22786686.3064
        42.900          29.1004
 108035160.218 7  84183197.94046  20558405.157    20558391.7504
        47.900          39.3004
 127307309.490 6  99200450.39343  24225775.212    24225759.7544
        37.400          20.9004
 105293093.694 8  82046535.23847  20036606.329    20036594.3294
        50.900          45.0004
 130452837.716 5                  24824350.039
        33.700
 113867222.031 7  88727669.26746  21668209.725    21668196.2594
        47.200          37.6004
 119075352.385 7  92785926.50745  22659283.878    22659270.5304
        43.200          30.3004
 121571976.809 6  94731378.48444  23134377.226    23134367.2784
        40.600          25.9004
 127727613.532 5  99527955.95942  24305758.857    24305746.2134
        35.400          15.6004
 128952598.212 5                  24538862.951
        33.700
 16  2  1 12  3 58.0000000  0 10G26G20G02G29G13G05G21G25G18G16
 119743079.754 7  93306264.42144  22786350.707    22786340.5244
        42.400          29.3004
 108033593.899 7  84181977.43346  20558107.235    20558093.8294
        47.900          39.2004
 127310194.849 6  99202698.73443  24226323.690    24226308.2324
        37.900          20.9004
 105293277.113 8  82046678.16247  20036641.085    20036629.2024
        50.700          45.1004
 130449928.240 5                  24823795.749
        33.500
 113869111.270 7  88729141.39946  21668569.216    21668556.3964
        47.300          37.6004
 119073296.539 7  92784324.54845  22658891.953    22658879.1324
        43.400          30.2004
 121575538.608 6  94734153.90644  23135054.438    23135044.9584
        40.900          26.1004
 127724176.436 5  99525277.71842  24305104.856    24305092.3294
        34.600          16.3004
 128949456.161 5                  24538266.655
        33.500
 16  2  1 12  3 59.0000000  0 10G26G20G02G29G13G05G21G25G18G16
 119741263.012 7  93304848.77944  22786004.174    22785994.9294
        42.900          29.6004
 108032027.562 7  84180756.90846  20557809.138    20557796.0834
        47.800          39.2004
 127313079.596 6  99204946.60143  24226872.240    24226857.4854
        37.500          21.1004
 105293460.383 8  82046820.97047  20036676.273    20036663.9804
        50.900          45.1004
 130447018.238 5                  24823241.594
        33.200
 113871000.434 7  88730613.47846  21668928.858    21668915.8034
        46.900          37.4004
 119071240.286 7  92782722.27845  22658501.137    22658488.0244
        43.400          30.2004
 121579100.002 6  94736929.02144  23135732.463    23135722.6324
        40.500          25.1004
 127720738.826 5  99522599.06342  24304448.783    24304437.9554
        34.200          16.3004
 128946313.793 5                  24537668.403
        33.500
 16  2  1 12  4  0.0000000  0 10G26G20G02G29G13G05G21G25G18G16
 119739447.340 7  93303433.98044  22785659.239    22785649.5254
        42.500          28.9004
 108030462.323 8  84179537.24146  20557511.006    20557497.7754
        48.000          38.8004
 127315964.942 6  99207194.91543  24227420.471    24227406.4784
        38.300          20.9004
 105293644.628 8  82046964.54247  20036711.301    20036699.2434
        50.600          45.3004
 130444108.905 5                  24822688.560
        33.700
 113872890.649 7  88732086.37546  21669287.972    21669275.4454
        47.100          37.3004
 119069184.743 7  92781120.56645  22658109.947    22658096.9514
        43.300          30.2004
 121582662.115 6  94739704.69344  23136410.074    23136400.4774
        40.400          25.2004
 127717301.814 5  99519920.88042  24303795.324    24303784.0274
        34.600          16.3004
 128943172.253 5                  24537069.720
        34.100
 16  2  1 12  4  1.0000000  0 10G26G20G02G29G13G05G21G25G18G16
 119737631.740 7  93302019.22244  22785313.219    22785304.3254
        42.600          28.9004
 108028897.219 7  84178317.67946  20557213.409    20557199.9444
        47.900          39.0004
 127318849.867 6  99209442.90343  24227970.298    24227955.8374
        37.800          21.3004
 105293828.895 8  82047108.12147  20036746.353    20036733.8844
        50.600          45.2004
 130441199.358 5                  24822135.321
        33.900
 113874780.963 7  88733559.34246  21669648.142    21669635.3214
        47.100          37.4004
 119067128.944 7  92779518.64045  22657718.792    22657705.6784
        43.300          30.5004
 121586224.004 6  94742480.19244  23137087.626    23137078.2054
        40.000          25.5004
 127713864.405 5  99517242.35242  24303141.470    24303129.9394
        34.400          16.3004
 128940030.589 5                  24536472.409
        33.900
 16  2  1 12  4  2.0000000  0 10G26G20G02G29G13G05G21G25G18G16
 119735817.048 7  93300605.18144  22784967.580    22784958.3354
        42.300          28.5004
 108027333.031 7  84177098.82946  20556915.786    20556902.5564
        47.900          39.2004
 127321735.161 6  99211691.19443  24228519.227    24228504.6494
        37.700          20.9004
 105294013.945 8  82047252.31947  20036781.714    20036769.4794
        50.700          45.0004
 130438290.302 5                  24821582.125
        34.000
 113876672.158 7  88735033.00246  21670008.177    21669995.1804
        46.800          37.4004
 119065073.660 7  92777917.11945  22657327.867    22657314.5784
        43.600          30.0004
 121589786.426 6  94745256.10344  23137766.349    23137756.6354
        40.700          25.0004
 127710427.451 5  99514564.22342  24302487.258    24302475.7274
        35.000          16.3004
 128936889.624 5                  24535874.827
        33.900
 16  2  1 12  4  3.0000000  0 10G26G20G02G29G13G05G21G25G18G16
 119734002.904 7  93299191.56344  22784622.286    22784613.3344
        42.500          28.3004
 108025769.401 8  84175880.41746  20556618.070    20556605.1914
        48.300          39.2004
 127324620.494 6  99213939.50543  24229068.139    24229053.9704
        37.500          21.3004
 105294199.460 8  82047396.87347  20036816.945    20036804.9454
        50.500          45.2004
 130435381.374 5                  24821028.490
        33.700
 113878563.896 7  88736507.08046  21670368.119    21670355.1814
        47.000          37.4004
 119063018.559 7  92776315.73945  22656936.436    22656923.5574
        43.500          30.2004
 121593349.035 6  94748032.16744  23138444.216    23138434.2094
        41.000          25.3004
 127706990.552 5  99511886.14342  24301833.533    24301821.8844
        35.000          16.3004
 128933748.915 5                  24535276.744
        34.800
 16  2  1 12  4  4.0000000  0 10G26G20G02G29G13G05G21G25G18G16
 119732189.410 7  93297778.44244  22784277.749    22784268.2104
        42.600          28.6004
 108024206.466 8  84174662.54646  20556320.656    20556307.0734
        48.400          39.4004
 127327505.968 6  99216187.92743  24229618.091    24229602.6914
        37.700          21.7004
 105294385.525 8  82047541.85847  20036852.407    20036840.1144
        50.300          45.3004
 130432472.735 5                  24820473.966
        34.000
 113880456.250 7  88737981.64446  21670728.095    21670715.2754
        47.000          37.4004
 119060963.730 7  92774714.57645  22656545.672    22656532.5584
        43.500          30.4004
 121596911.987 6  94750808.50244  23139121.793    23139112.2544
        40.800          24.8004
 127703553.844 5  99509208.20142  24301181.043    24301167.6954
        34.800          16.3004
 128930608.702 5                  24534679.367
        34.100
 16  2  1 12  4  5.0000000  0 10G26G20G02G29G13G05G21G25G18G16
 119730376.262 7  93296365.59244  22783933.357    22783923.1744
        43.100          29.2004
 108022643.910 8  84173444.97746  20556023.296    20556010.4174
        48.000          39.5004
 127330391.270 6  99218436.19843  24230166.822    24230152.0084
        37.800          21.7004
 105294571.857 8  82047687.05247  20036887.684    20036875.3914
        50.500          45.3004
 130429564.045 5                  24819920.782
        34.500
 113882348.945 7  88739456.46846  21671088.206    21671075.3854
        47.300          37.5004
 119058908.902 7  92773113.41445  22656154.483    22656141.3694
        43.600          30.9004
 121600474.940 6  94753584.82644  23139800.527    23139790.5794
        41.100          25.3004
 127700117.011 5  99506530.10442  24300526.861    24300513.8064
        34.600          16.3004
 128927468.510 5                  24534082.637
        34.300
 16  2  1 12  4  6.0000000  0 10G26G20G02G29G13G05G21G25G18G16
 119728563.938 7  93294953.39344  22783588.691    22783578.7424
        43.200          28.9004
 108021082.215 7  84172228.06246  20555725.543    20555713.1334
        47.600          39.3004
 127333276.897 6  99220684.75343  24230715.843    24230701.1474
        38.100          21.8004
 105294758.919 8  82047832.81547  20036923.183    20036911.1254
        50.400          45.4004
 130426655.806 5                  24819367.430
        34.600
 113884242.437 7  88740931.91946  21671448.872    21671436.2864
        47.300          37.1004
 119056854.536 7  92771512.61045  22655763.261    22655750.5584
        43.300          30.8004
 121604038.394 6  94756361.53344  23140477.984    23140468.3284
        40.900          25.3004
 127696680.511 5  99503852.33742  24299872.847    24299859.4994
        35.200          16.3004
 128924328.927 5                  24533484.188
        34.600
 16  2  1 12  4  7.0000000  0 10G26G20G02G29G13G05G21G25G18G16
 119726751.958 7  93293541.46144  22783243.769    22783233.5854
        43.300          29.4004
 108019520.894 7  84171011.45446  20555428.580    20555415.7014
        47.400          39.2004
 127336162.356 6  99222933.16143  24231265.479    24231250.3734
        38.100          21.3004
 105294946.255 8  82047978.79047  20036959.045    20036946.7524
        50.500          45.4004
 130423747.535 5                  24818813.863
        34.100
 113886136.289 7  88742407.65346  21671809.346    21671796.5844
        47.300          37.3004
 119054800.173 7  92769911.80845  22655373.107    22655359.7594
        43.600          31.2004
 121607601.843 6  94759138.25244  23141156.270    23141146.7904
        41.000          26.3004
 127693243.901 5  99501174.42442  24299218.813    24299205.4654
        34.900          16.3004
 128921189.492 5                  24532886.086
        34.800
 16  2  1 12  4  8.0000000  0 10G26G20G02G29G13G05G21G25G18G16
 119724940.645 7  93292130.04844  22782899.304    22782888.9454
        42.800          29.1004
 108017960.249 7  84169795.36546  20555131.636    20555118.6394
        47.500          39.2004
 127339047.935 6  99225181.65443  24231815.179    24231798.9004
        37.600          21.3004
 105295134.144 8  82048125.20147  20036994.878    20036982.4674
        51.000          45.3004
 130420839.537 5                  24818260.881
        34.200
 113888030.768 7  88743883.87146  21672169.484    21672156.8394
        47.500          37.6004
 119052746.076 7  92768311.22045  22654981.636    22654968.7574
        43.400          30.9004
 121611165.573 6  94761915.18644  23141834.321    23141824.6664
        40.600          25.6004
 127689807.486 5  99498496.70142  24298564.682    24298551.8034
        35.200          16.3004
 128918050.475 5                  24532289.735
        34.600
 16  2  1 12  4  9.0000000  0 10G26G20G02G29G13G05G21G25G18G16
 119723129.802 7  93290719.00944  22782554.300    22782545.0554
        42.900          29.3004
 108016400.097 7  84168579.66546  20554834.926    20554821.9884
        47.300          38.8004
 127341933.508 6  99227430.14943  24232365.051    24232348.4214
        38.100          21.5004
 105295322.403 8  82048271.89647  20037030.806    20037018.2784
        50.800          45.5004
 130417931.596 5                  24817706.647
        34.700
 113889925.715 7  88745360.44946  21672530.518    21672517.2874
        47.500          37.6004
 119050692.105 7  92766710.72745  22654591.095    22654578.0404
        43.500          30.8004
 121614729.430 6  94764692.21144  23142513.035    23142502.7934
        40.600          25.7004
 127686371.050 5  99495818.96542  24297910.826    24297897.7124
        34.800          16.3004
 128914911.651 5                  24531692.901
        34.800
 16  2  1 12  4 10.0000000  0 10G26G20G02G29G13G05G21G25G18G16
 119721319.855 7  93289308.65844  22782210.114    22782200.1654
        43.200          29.2004
 108014840.880 7  84167364.68946  20554537.980    20554525.3944
        47.400          38.9004
 127344819.450 6  99229678.91943  24232913.457    24232897.5894
        38.100          21.5004
 105295511.502 8  82048419.24247  20037066.544    20037054.1334
        50.200          45.5004
 130415024.213 5                  24817153.301
        34.600
 113891821.525 7  88746837.70646  21672890.854    21672878.2104
        47.500          37.8004
 119048638.677 7  92765110.65545  22654200.274    22654187.2194
        43.300          30.3004
 121618293.882 6  94767469.71144  23143192.070    23143180.8324
        40.900          25.6004
 127682935.043 5  99493141.56342  24297257.002    24297243.7134
        35.100          16.3004
 128911773.539 5                  24531095.819
        34.900
 16  2  1 12  4 11.0000000  0 10G26G20G02G29G13G05G21G25G18G16
 119719510.061 7  93287898.43544  22781866.597    22781855.8284
        43.500          28.7004
 108013281.792 7  84166149.81846  20554241.541    20554228.4284
        47.800          38.9004
 127347704.918 6  99231927.33443  24233462.195    24233446.4444
        37.600          21.3004
 105295700.614 8  82048566.60247  20037102.447    20037090.4474
        50.300          45.5004
 130412116.585 5                  24816599.744
        34.500
 113893717.454 7  88748315.04746  21673252.177    21673238.8294
        47.800          37.8004
 119046584.986 7  92763510.37045  22653808.765    22653796.4724
        43.100          30.9004
 121621858.123 6  94770247.03844  23143870.092    23143859.3824
        41.300          26.6004
 127679498.745 6  99490463.94442  24296603.407    24296590.2344
        36.300          16.9004
 128908635.287 5                  24530498.236
        34.300
 16  2  1 12  4 12.0000000  0 10G26G20G02G29G13G05G21G25G18G16
 119717701.056 7  93286488.81444  22781521.107    22781511.8034
        43.200          29.4004
 108011723.572 7  84164935.61446  20553944.930    20553932.1684
        47.500          38.9004
 127350590.786 6  99234176.05343  24234012.055    24233995.3664
        38.500          21.8004
 105295890.445 8  82048714.52047  20037138.668    20037126.7274
        50.300          45.5004
 130409209.333 5                  24816047.835
        34.100
 113895614.167 8  88749793.00646  21673612.659    21673600.2484
        48.000          37.7004
 119044531.774 7  92761910.46044  22653418.683    22653404.9844
        43.200          29.7004
 121625422.782 6  94773024.69644  23144548.801    23144537.3874
        41.100          26.7004
 127676062.763 5  99487786.53342  24295950.025    24295936.2674
        35.700          16.9004
 128905497.625 5                  24529901.621
        34.300
 16  2  1 12  4 13.0000000  0 10G26G20G02G29G13G05G21G25G18G16
 119715892.513 7  93285079.56344  22781176.959    22781167.1874
        42.900          29.1004
 108010165.829 7  84163721.79246  20553648.507    20553635.8624
        47.400          38.8004
 127353476.604 6  99236424.75143  24234560.297    24234544.6044
        37.800          22.2004
 105296080.667 8  82048862.75047  20037174.994    20037162.7594
        50.300          45.5004
 130406302.206 5                  24815494.183
        34.600
 113897511.351 7  88751271.33446  21673973.753    21673960.7574
        47.700          37.6004
 119042478.634 7  92760310.61145  22653027.966    22653014.6764
        43.000          30.2004
 121628987.591 6  94775802.47944  23145226.695    23145216.2774
        40.900          26.6004
 127672626.720 5  99485109.08142  24295295.183    24295282.4794
        35.600          16.9004
 128902360.135 5                  24529303.638
        34.300
 16  2  1 12  4 14.0000000  0 10G26G20G02G29G13G05G21G25G18G16
 119714084.800 7  93283670.95144  22780833.246    22780823.2974
        42.600          29.2004
 108008608.920 7  84162508.61746  20553352.338    20553339.2834
        47.900          39.0004
 127356362.674 6  99238673.66643  24235109.234    24235093.6584
        38.000          21.8004
 105296271.606 8  82049011.53347  20037211.613    20037198.9094
        49.700          45.4004
 130403395.484 5                  24814941.503
        35.200
 113899409.317 7  88752750.27146  21674334.920    21674322.0414
        47.600          37.7004
 119040425.953 7  92758711.12145  22652637.393    22652624.3384
        43.200          30.8004
 121632552.882 6  94778580.62744  23145905.747    23145894.2164
        40.700          25.7004
 127669191.054 5  99482431.94042  24294639.986    24294628.4554
        35.300          16.3004
 128899223.281 5                  24528707.112
        34.600
 16  2  1 12  4 15.0000000  0 10G26G20G02G29G13G05G21G25G18G16
 119712277.379 7  93282262.57344  22780488.988    22780479.3324
        42.700          28.5004
 108007052.401 7  84161295.74746  20553056.451    20553043.0444
        47.600          38.9004
 127359248.610 6  99240922.44843  24235658.485    24235643.0274
        38.100          21.7004
 105296462.802 8  82049160.51547  20037247.713    20037235.3624
        49.800          45.4004
 130400488.730 5                  24814388.801
        35.200
 113901307.611 7  88754229.45746  21674696.255    21674683.3764
        47.600          37.6004
 119038373.283 7  92757111.64245  22652247.014    22652233.5484
        43.700          30.2004
 121636118.184 6  94781358.78844  23146583.901    23146573.0734
        40.800          26.4004
 127665755.265 5  99479754.71042  24293987.081    24293974.3784
        35.400          16.3004
 128896086.539 5                  24528110.188
        33.900
 16  2  1 12  4 16.0000000  0 10G26G20G02G29G13G05G21G25G18G16
 119710470.725 7  93280854.79445  22780145.241    22780135.3514
        42.100          30.0004
 108005496.609 7  84160083.44046  20552760.071    20552747.0744
        47.500          38.6004
 127362134.727 6  99243171.37243  24236208.511    24236192.6424
        38.100          21.5004
 105296654.596 8  82049309.96747  20037284.625    20037271.8634
        49.900          45.5004
 130397582.289 5                  24813836.210
        34.500
 113903206.605 7  88755709.20046  21675057.394    21675044.4564
        47.300          37.6004
 119036320.906 7  92755512.38745  22651855.943    22651843.0054
        43.400          30.4004
 121639683.807 6  94784137.20344  23147261.799    23147251.6744
        40.800          26.5004
 127662319.704 6  99477077.62942  24293334.204    24293320.7394
        36.800          16.3004
 128892950.203 5                  24527513.331
        34.300
 16  2  1 12  4 17.0000000  0 10G26G20G02G29G13G05G21G25G18G16
 119708664.526 7  93279447.36644  22779801.353    22779791.6394
        42.100          29.8004
 108003941.328 7  84158871.53546  20552464.593    20552451.1284
        47.600          38.9004
 127365020.819 6  99245420.26843  24236757.392    24236741.1724
        37.900          21.5004
 105296846.804 8  82049459.73947  20037320.677    20037308.2674
        50.200          45.5004
 130394675.948 5                  24813282.706
        34.400
 113905106.058 7  88757189.28846  21675419.405    21675406.3504
        47.300          37.3004
 119034268.657 7  92753913.23245  22651465.667    22651452.6714
        43.300          30.4004
 121643249.605 6  94786915.73444  23147940.836    23147930.3024
        40.700          26.4004
 127658884.165 6  99474400.59442  24292681.027    24292667.0934
        36.100          16.3004
 128889814.141 5                  24526916.156
        33.700
 16  2  1 12  4 18.0000000  0 10G26G20G02G29G13G05G21G25G18G16
 119706859.020 7  93278040.47944  22779458.323    22779448.1994
        42.200          29.8004
 108002386.736 7  84157660.16746  20552168.314    20552155.2594
        47.400          39.1004
 127367907.064 6  99247669.28743  24237306.270    24237290.8704
        37.600          20.9004
 105297039.570 8  82049609.95047  20037357.681    20037345.3294
        50.300          45.6004
 130391769.936 5                  24812729.915
        34.300
 113907006.157 7  88758669.88346  21675780.760    21675767.4714
        47.600          37.6004
 119032216.730 7  92752314.32245  22651074.741    22651062.0384
        43.400          30.6004
 121646815.716 6  94789694.51444  23148618.927    23148608.8614
        40.800          26.9004
 127655448.776 5  99471723.68742  24292026.615    24292013.3844
        35.500          16.9004
 128886678.563 5                  24526319.059
        34.000
 16  2  1 12  4 19.0000000  0 10G26G20G02G29G13G05G21G25G18G16
 119705054.000 7  93276633.97444  22779114.938    22779104.8724
        42.400          29.7004
 108000832.683 7  84156449.21246  20551872.672    20551859.6754
        47.800          39.0004
 127370793.299 6  99249918.30543  24237855.205    24237839.5134
        37.900          20.6004
 105297232.768 8  82049760.49647  20037394.206    20037381.8544
        50.200          45.6004
 130388864.008 5                  24812176.166
        34.100
 113908906.750 7  88760150.86046  21676141.881    21676129.0604
        47.600          37.7004
 119030164.960 7  92750715.54444  22650684.713    22650671.3654
        43.100          29.8004
 121650381.934 6  94792473.38244  23149297.461    23149287.5134
        41.600          26.3004
 127652013.478 5  99469046.84042  24291372.507    24291359.1594
        35.500          16.3004
 128883543.174 5                  24525722.493
        34.700
 16  2  1 12  4 20.0000000  0 10G26G20G02G29G13G05G21G25G18G16
 119703249.612 7  93275227.96044  22778770.878    22778761.2814
        42.300          28.9004
 107999279.279 7  84155238.76546  20551576.730    20551563.7334
        47.600          38.8004
 127373679.639 6  99252167.40143  24238404.063    24238389.3084
        37.800          20.9004
 105297426.485 8  82049911.44047  20037431.229    20037418.7014
        50.500          45.5004
 130385958.306 5                  24811623.760
        34.600
 113910807.952 7  88761632.32146  21676503.755    21676490.8764
        47.300          37.5004
 119028113.397 7  92749116.92245  22650293.949    22650281.0694
        43.400          30.0004
 121653948.534 6  94795252.54844  23149976.337    23149966.1544
        41.100          26.5004
 127648578.297 6  99466370.07642  24290718.967    24290705.6784
        36.100          16.9004
 128880408.223 5                  24525126.956
        34.600
 16  2  1 12  4 21.0000000  0 10G26G20G02G29G13G05G21G25G18G16
 119701445.743 7  93273822.34244  22778427.646    22778417.9914
        42.400          29.2004
 107997726.430 7  84154028.75946  20551281.640    20551268.2334
        47.800          38.9004
 127376565.995 6  99254416.50243  24238954.066    24238938.2564
        37.900          20.4004
 105297620.636 8  82050062.72547  20037468.237    20037455.5934
        50.500          45.6004
 130383052.796 5                  24811071.640
        33.900
 113912709.650 7  88763114.16246  21676865.837    21676853.1344
        47.400          37.6004
 119026062.045 7  92747518.46445  22649904.110    22649890.8214
        43.300          30.0004
 121657515.267 6  94798031.81944  23150654.402    23150644.8054
        40.900          27.2004
 127645143.170 5  99463693.36342  24290064.637    24290052.1104
        35.200          16.3004
 128877273.596 5                  24524530.659
        34.800
 16  2  1 12  4 22.0000000  0 10G26G20G02G29G13G05G21G25G18G16
 119699642.316 7  93272417.07044  22778084.456    22778074.9764
        42.600          29.0004
 107996174.034 8  84152819.09646  20550985.947    20550973.0684
        48.000          38.6004
 127379452.256 6  99256665.52743  24239503.109    24239487.3584
        38.600          20.4004
 105297815.142 8  82050214.28947  20037504.853    20037492.5604
        50.000          45.7004
 130380147.305 5                  24810517.721
        34.300
 113914611.785 7  88764596.34846  21677227.867    21677214.8124
        47.400          37.6004
 119024010.747 7  92745920.05645  22649513.733    22649500.2094
        42.900          31.0004
 121661082.098 6  94800811.17144  23151334.119    23151323.5844
        41.000          26.7004
 127641708.067 5  99461016.67642  24289410.477    24289398.5944
        35.000          16.9004
 128874139.117 5                  24523933.184
        35.100
 16  2  1 12  4 23.0000000  0 10G26G20G02G29G13G05G21G25G18G16
 119697839.743 7  93271012.46344  22777741.502    22777732.0814
        42.900          29.1004
 107994622.510 7  84151610.12146  20550690.859    20550677.3944
        47.500          38.9004
 127382338.900 6  99258914.85343  24240052.581    24240036.9484
        38.200          20.1004
 105298010.396 8  82050366.43247  20037542.226    20037529.9334
        50.000          45.6004
 130377242.253 5                  24809965.821
        34.300
 113916514.734 7  88766079.16046  21677589.940    21677577.2954
        47.500          37.3004
 119021959.916 7  92744322.00445  22649123.112    22649110.1164
        43.500          30.5004
 121664649.396 6  94803590.88244  23152012.248    23152002.5334
        41.100          27.4004
 127638273.247 5  99458340.17342  24288755.918    24288744.6224
        33.700          17.4004
 128871005.277 5                  24523336.762
        34.700
 16  2  1 12  4 24.0000000  0 10G26G20G02G29G13G05G21G25G18G16
 119696037.857 7  93269608.40044  22777398.847    22777389.1334
        43.500          29.8004
 107993071.714 7  84150401.70646  20550395.996    20550382.7064
        47.800          38.8004
 127385225.688 6  99261164.30943  24240602.257    24240586.0374
        38.800          20.4004
 105298206.253 8  82050519.04647  20037579.395    20037566.7504
        49.500          45.6004
 130374337.538 5                  24809412.799
        34.100
 113918418.357 7  88767562.50546  21677952.494    21677939.4974
        47.500          37.1004
 119019909.433 7  92742724.22645  22648733.446    22648720.1564
        43.200          30.4004
 121668217.092 6  94806370.90844  23152690.541    23152681.3544
        41.200          26.7004
 127634838.736 5  99455663.90942  24288102.310    24288091.0724
        33.700          17.4004
 128867871.828 5                  24522741.253
        35.100
 16  2  1 12  4 25.0000000  0 10G26G20G02G29G13G05G21G25G18G16
 119694236.203 7  93268204.51744  22777056.045    22777045.9794
        43.400          29.8004
 107991521.137 8  84149193.46446  20550100.580    20550087.7014
        48.300          38.6004
 127388112.122 6  99263413.49343  24241150.982    24241135.3484
        38.700          20.4004
 105298402.207 8  82050671.73847  20037616.625    20037604.5084
        49.800          45.5004
 130371432.632 5                  24808859.667
        34.600
 113920322.179 7  88769046.00346  21678314.225    21678301.4644
        47.500          37.3004
 119017858.799 7  92741126.32844  22648342.611    22648329.8494
        43.500          29.9004
 121671784.630 6  94809150.80144  23153370.296    23153360.5824
        41.400          26.7004
 127631403.855 5  99452987.41242  24287448.796    24287437.7344
        33.700          16.9004
 128864738.364 5                  24522144.674
        35.000
 16  2  1 12  4 26.0000000  0 10G26G20G02G29G13G05G21G25G18G16
 119692435.291 7  93266801.21145  22776713.535    22776703.6454
        43.300          30.1004
 107989971.393 7  84147985.87646  20549805.839    20549792.4914
        47.900          38.8004
 127390998.899 6  99265662.91443  24241700.509    24241684.5824
        38.100          20.4004
 105298598.873 8  82050824.98747  20037654.031    20037642.0314
        50.200          45.8004
 130368528.145 5                  24808307.204
        34.700
 113922226.782 7  88770530.10946  21678676.904    21678664.0244
        47.500          37.7004
 119015808.552 7  92739528.73845  22647952.700    22647939.3524
        43.600          30.6004
 121675352.605 6  94811931.04544  23154049.504    23154039.1454
        41.300          27.4004
 127627969.404 5  99450311.21542  24286795.754    24286784.5164
        34.000          16.9004
 128861605.506 5                  24521547.997
        34.500
 16  2  1 12  4 27.0000000  0 10G26G20G02G29G13G05G21G25G18G16
 119690634.977 7  93265398.36644  22776371.267    22776361.0254
        43.300          29.2004
 107988422.231 8  84146778.73446  20549511.359    20549497.7174
        48.000          38.8004
 127393885.692 6  99267912.38143  24242249.500    24242233.8674
        38.600          20.1004
 105298796.008 8  82050978.59647  20037692.053    20037679.2914
        50.200          45.7004
 130365623.841 5                  24807754.419
        34.500
 113924131.917 7  88772014.63246  21679040.130    21679026.6064
        47.900          37.6004
 119013758.520 7  92737931.30745  22647562.575    22647549.3444
        43.700          30.7004
 121678920.783 6  94814711.45344  23154727.841    23154718.4784
        41.300          27.1004
 127624534.945 5  99447634.98942  24286141.222    24286130.6884
        33.400          15.6004
 128858472.925 5                  24520951.706
        34.600
 16  2  1 12  4 28.0000000  0 10G26G20G02G29G13G05G21G25G18G16
 119688835.197 7  93263995.93844  22776028.446    22776018.1464
        43.200          28.7004
 107986873.654 7  84145572.05146  20549216.163    20549203.2254
        47.600          38.7004
 127396772.516 6  99270161.85543  24242799.548    24242783.4454
        38.800          20.1004
 105298993.584 8  82051132.55147  20037729.459    20037717.2254
        50.500          45.5004
 130362719.704 5                  24807201.609
        33.800
 113926037.583 7  88773499.56546  21679402.640    21679389.2334
        47.900          37.5004
 119011708.643 7  92736334.00045  22647172.649    22647159.5354
        43.900          30.4004
 121682489.172 6  94817492.00744  23155406.897    23155397.3004
        41.100          27.2004
 127621100.634 5  99444958.92742  24285487.989    24285477.2784
        33.600          16.3004
 128855340.641 5                  24520355.181
        34.700
 16  2  1 12  4 29.0000000  0 10G26G20G02G29G13G05G21G25G18G16
 119687035.942 7  93262593.92544  22775685.791    22775676.1354
        43.100          28.8004
 107985325.613 7  84144365.78746  20548921.321    20548908.6184
        47.500          38.8004
 127399659.317 6  99272411.31043  24243348.439    24243332.7464
        39.000          19.9004
 105299191.621 8  82051286.86647  20037767.111    20037754.7604
        50.200          45.6004
 130359815.686 5                  24806648.912
        33.600
 113927943.738 7  88774984.88546  21679765.022    21679752.1424
        47.600          38.0004
 119009658.932 7  92734736.82745  22646782.497    22646769.3244
        43.900          30.5004
 121686057.764 6  94820272.72744  23156086.344    23156076.3964
        41.400          26.3004
 127617666.331 5  99442282.89342  24284834.975    24284823.2094
        34.000          15.6004
 128852208.728 5                  24519759.457
        34.900
 16  2  1 12  4 30.0000000  0 10G26G20G02G29G13G05G21G25G18G16
 119685237.416 7  93261192.47344  22775343.588    22775333.5814
        43.300          29.7004
 107983778.347 7  84143160.12846  20548626.915    20548614.0954
        47.200          38.7004
 127402546.389 6  99274660.98043  24243897.621    24243882.3394
        38.900          19.9004
 105299390.305 8  82051441.68547  20037804.689    20037792.6894
        50.500          45.5004
 130356912.037 5                  24806095.780
        33.700
 113929850.644 7  88776470.78346  21680127.787    21680114.4974
        47.600          37.4004
 119007609.620 7  92733139.96645  22646392.875    22646379.2344
        44.100          31.1004
 121689626.734 6  94823053.75144  23156765.107    23156755.2764
        41.100          26.9004
 127614232.308 5  99439607.02242  24284181.904    24284170.4904
        34.700          15.6004
 128849077.232 5                  24519164.660
        34.800
 16  2  1 12  4 31.0000000  0 10G26G20G02G29G13G05G21G25G18G16
 119683439.380 7  93259791.41344  22775001.828    22774991.9974
        43.200          29.8004
 107982231.589 7  84141954.86146  20548332.782    20548319.4924
        47.400          38.8004
 127405433.426 6  99276910.63143  24244447.857    24244431.6374
        38.600          19.6004
 105299589.347 8  82051596.78147  20037842.594    20037830.5944
        50.300          45.7004
 130354008.500 5                  24805542.977
        33.300
 113931757.984 7  88777957.02146  21680490.819    21680477.8814
        47.300          37.6004
 119005560.398 7  92731543.16845  22646002.589    22645989.4754
        43.800          30.7004
 121693195.839 6  94825834.87344  23157444.510    23157434.9714
        40.900          27.8004
 127610798.296 5  99436931.18842  24283528.502    24283516.6194
        34.600          15.6004
 128845946.035 5                  24518569.018
        34.300
 16  2  1 12  4 32.0000000  0 10G26G20G02G29G13G05G21G25G18G16
 119681642.042 7  93258390.89145  22774659.625    22774650.0874
        42.700          30.3004
 107980685.539 7  84140750.14746  20548038.258    20548025.5544
        47.200          39.0004
 127408320.609 6  99279160.37843  24244997.304    24244980.9674
        38.400          20.4004
 105299788.997 8  82051752.35447  20037880.564    20037868.7394
        50.100          45.6004
 130351105.227 5                  24804990.377
        33.900
 113933666.016 7  88779443.80246  21680854.181    21680840.7164
        47.300          37.7004
 119003511.518 7  92729946.63545  22645612.886    22645599.5384
        43.800          30.7004
 121696765.259 6  94828616.23744  23158123.536    23158113.9984
        41.100          27.5004
 127607364.504 5  99434255.45042  24282875.287    24282863.9324
        34.800          15.6004
 128842815.223 5                  24517973.158
        33.800
 16  2  1 12  4 33.0000000  0 10G26G20G02G29G13G05G21G25G18G16
 119679845.108 7  93256990.68644  22774317.477    22774307.7054
        43.000          29.9004
 107979139.956 7  84139545.79746  20547743.998    20547731.5304
        47.600          38.6004
 127411207.728 6  99281410.07143  24245545.934    24245530.1834
        38.400          20.1004
 105299988.977 8  82051908.18847  20037918.480    20037906.3044
        50.200          45.7004
 130348202.030 5                  24804438.973
        34.100
 113935574.430 7  88780930.87946  21681217.108    21681203.8194
        47.500          37.8004
 119001462.690 7  92728350.14545  22645222.931    22645209.5254
        43.400          30.2004
 121700334.794 6  94831397.68744  23158802.505    23158793.0844
        41.200          27.6004
 127603930.586 5  99431579.62242  24282220.934    24282210.2824
        34.800          15.6004
 128839684.671 5                  24517376.849
        33.700
 16  2  1 12  4 34.0000000  0 10G26G20G02G29G13G05G21G25G18G16
 119678048.700 7  93255590.88944  22773975.195    22773966.0674
        43.100          29.0004
 107977594.876 7  84138341.83646  20547450.327    20547437.5064
        47.900          38.8004
 127414094.817 6  99283659.74443  24246096.014    24246080.0294
        38.400          19.9004
 105300189.389 8  82052064.34947  20037956.520    20037944.4024
        50.300          45.6004
 130345298.929 5                  24803886.470
        34.100
 113937483.334 7  88782418.33446  21681580.215    21681567.0434
        47.600          37.9004
 118999413.993 7  92726753.75544  22644832.396    22644819.5164
        43.700          29.5004
 121703904.464 6  94834179.24944  23159482.103    23159472.3304
        41.000          27.2004
 127600496.814 5  99428903.99342  24281567.386    24281556.4994
        35.400          15.6004
 128836554.340 5                  24516781.193
        34.900
 16  2  1 12  4 35.0000000  0 10G26G20G02G29G13G05G21G25G18G16
 119676252.948 7  93254191.59944  22773633.692    22773624.1544
        43.400          29.2004
 107976050.498 7  84137138.42846  20547156.665    20547143.4934
        47.900          38.9004
 127416982.020 6  99285909.53143  24246645.602    24246629.3234
        38.900          19.9004
 105300390.343 8  82052220.93447  20037995.184    20037982.7734
        50.500          45.6004
 130342396.081 5                  24803334.404
        33.900
 113939392.883 8  88783906.29246  21681943.931    21681930.5834
        48.000          37.7004
 118997365.578 7  92725157.59045  22644443.326    22644429.9784
        43.700          30.8004
 121707474.451 6  94836961.05844  23160161.313    23160151.5994
        41.100          27.6004
 127597063.167 5  99426228.42042  24280913.842    24280903.5424
        35.100          15.6004
 128833424.482 5                  24516186.048
        34.300
 16  2  1 12  4 36.0000000  0 10G26G20G02G29G13G05G21G25G18G16
 119674457.596 7  93252792.62544  22773292.563    22773282.3214
        43.100          29.2004
 107974506.575 7  84135935.37246  20546862.983    20546849.7524
        47.900          39.2004
 127419869.173 6  99288159.25343  24247194.933    24247178.7144
        38.600          20.4004
 105300591.619 8  82052377.77447  20038033.469    20038021.2354
        50.800          45.3004
 130339493.360 5                  24802781.801
        34.500
 113941302.827 7  88785394.55846  21682306.945    21682294.1834
        47.900          38.0004
 118995317.210 7  92723561.46545  22644052.812    22644040.2264
        43.400          30.5004
 121711044.520 6  94839742.93644  23160840.794    23160831.4904
        40.900          26.9004
 127593629.490 5  99423552.82542  24280261.526    24280250.1704
        35.200          15.6004
 128830294.785 5                  24515589.916
        34.500
 16  2  1 12  4 37.0000000  0 10G26G20G02G29G13G05G21G25G18G16
 119672663.160 7  93251394.36644  22772950.857    22772940.9674
        43.200          29.4004
 107972963.533 7  84134733.00646  20546569.031    20546556.0934
        47.600          39.3004
 127422756.668 6  99290409.23943  24247744.154    24247728.0514
        38.600          20.4004
 105300793.691 8  82052535.23447  20038071.820    20038059.6444
        50.400          45.4004
 130336591.044 5                  24802229.911
        34.600
 113943213.633 8  88786883.50346  21682670.706    21682657.5924
        48.100          38.1004
 118993269.345 7  92721965.72945  22643663.752    22643650.1694
        43.600          31.0004
 121714615.108 6  94842525.21044  23161520.488    23161510.5984
        40.500          26.2004
 127590196.152 5  99420877.52542  24279608.645    24279597.2314
        35.000          15.6004
 128827165.703 5                  24514994.911
        34.300
 16  2  1 12  4 38.0000000  0 10G26G20G02G29G13G05G21G25G18G16
 119670869.142 7  93249996.43444  22772609.043    22772599.5644
        43.200          29.1004
 107971421.011 7  84133531.03946  20546275.359    20546262.7144
        47.700          39.4004
 127425644.137 6  99292659.20743  24248293.253    24248277.4434
        38.400          20.4004
 105300996.126 8  82052692.97547  20038110.211    20038098.5634
        50.700          45.1004
 130333688.869 5                  24801677.641
        34.700
 113945124.877 7  88788372.78446  21683034.912    21683021.8574
        47.900          37.8004
 118991221.602 7  92720370.07645  22643273.451    22643260.5724
        43.000          30.7004
 121718185.802 6  94845307.58244  23162200.203    23162190.1374
        40.800          26.6004
 127586762.872 5  99418202.22942  24278954.706    24278943.7614
        35.100          14.8004
 128824036.857 5                  24514398.891
        34.600
 16  2  1 12  4 39.0000000  0 10G26G20G02G29G13G05G21G25G18G16
 119669075.707 7  93248598.94844  22772268.044    22772258.3304
        43.300          29.1004
 107969879.045 7  84132329.50646  20545981.999    20545969.2964
        47.800          39.5004
 127428531.606 6  99294909.17743  24248842.908    24248827.1574
        38.800          20.9004
 105301199.027 8  82052851.08347  20038148.892    20038136.7164
        50.400          45.1004
 130330786.858 5                  24801126.353
        34.500
 113947036.669 7  88789862.49146  21683398.443    21683385.0364
        47.900          38.0004
 118989174.027 7  92718774.57045  22642884.345    22642870.8794
        43.200          30.6004
 121721756.715 6  94848090.10644  23162878.916    23162869.5544
        40.400          27.2004
 127583329.671 5  99415526.99942  24278302.849    24278290.2634
        35.800          14.8004
 128820908.343 5                  24513803.650
        35.300
 16  2  1 12  4 40.0000000  0 10G26G20G02G29G13G05G21G25G18G16
 119667282.774 7  93247201.85044  22771926.821    22771917.3414
        43.400          29.7004
 107968337.579 7  84131128.36146  20545688.895    20545675.3714
        47.800          39.5004
 127431419.065 6  99297159.16243  24249392.643    24249376.3644
        39.000          20.9004
 105301402.312 8  82053009.48647  20038187.393    20038175.5104
        50.200          45.3004
 130327884.943 5                  24800573.168
        34.500
 113948948.911 7  88791352.55146  21683762.208    21683749.3874
        47.800          38.1004
 118987126.586 7  92717179.15745  22642494.290    22642481.5864
        43.500          30.2004
 121725327.766 6  94850872.74944  23163558.569    23163549.0304
        40.500          26.7004
 127579896.484 6  99412851.80342  24277649.825    24277636.8884
        36.000          15.6004
 128817780.072 5                  24513207.749
        34.900
 16  2  1 12  4 41.0000000  0 10G26G20G02G29G13G05G21G25G18G16
 119665490.455 7  93245805.23644  22771586.221    22771576.2144
        43.700          29.7004
 107966796.834 7  84129927.78946  20545395.668    20545382.4954
        47.500          39.1004
 127434306.654 6  99299409.23143  24249942.547    24249926.2104
        38.600          20.9004
 105301606.176 8  82053168.34447  20038226.338    20038214.2214
        50.200          45.6004
 130324983.279 5                  24800020.452
        34.100
 113950861.807 7  88792843.11846  21684126.320    21684112.9134
        47.700          38.0004
 118985079.424 7  92715583.96845  22642104.899    22642091.9614
        43.900          30.4004
 121728899.119 6  94853655.62644  23164238.240    23164228.9364
        39.900          27.4004
 127576463.520 5  99410176.77742  24276995.557    24276983.7334
        34.800          15.6004
 128814652.241 5                  24512613.014
        35.200
 16  2  1 12  4 42.0000000  0 10G26G20G02G29G13G05G21G25G18G16
 119663698.780 7  93244409.12244  22771245.012    22771235.0644
        43.200          29.8004
 107965256.690 7  84128727.67546  20545102.595    20545089.4824
        47.500          39.0004
 127437194.324 6  99301659.36743  24250491.817    24250475.3634
        38.800          20.9004
 105301810.539 8  82053327.58747  20038264.948    20038252.9484
        50.600          45.3004
 130322081.809 5                  24799468.658
        34.300
 113952775.272 7  88794334.13046  21684490.126    21684477.1304
        47.700          37.7004
 118983032.441 7  92713988.91445  22641715.530    22641702.4754
        44.100          30.2004
 121732470.729 6  94856438.69144  23164917.615    23164908.3704
        40.000          27.0004
 127573030.591 5  99407501.75242  24276342.280    24276330.2214
        34.700          15.6004
 128811524.721 5                  24512018.056
        35.000
 16  2  1 12  4 43.0000000  0 10G26G20G02G29G13G05G21G25G18G16
 119661907.707 7  93243013.47845  22770904.698    22770894.5154
        43.400          30.2004
 107963717.190 7  84127528.06646  20544809.930    20544796.8174
        47.400          39.0004
 127440082.092 6  99303909.57543  24251042.109    24251024.8924
        38.700          20.9004
 105302015.419 8  82053487.22947  20038304.621    20038291.8594
        50.200          45.4004
 130319180.613 5                  24798916.108
        34.000
 113954689.331 7  88795825.60646  21684854.418    21684841.4214
        47.800          37.9004
 118980985.767 7  92712394.10645  22641325.974    22641312.9194
        44.200          30.8004
 121736042.613 6  94859221.96844  23165597.358    23165587.8784
        40.200          27.5004
 127569597.861 5  99404826.90442  24275688.914    24275677.0904
        35.400          15.6004
 128808397.635 5                  24511424.308
        34.700
 16  2  1 12  4 44.0000000  0 10G26G20G02G29G13G05G21G25G18G16
 119660117.143 7  93241618.23745  22770563.622    22770553.7904
        43.600          30.4004
 107962178.223 7  84126328.86646  20544517.002    20544503.5954
        47.300          39.1004
 127442969.878 6  99306159.79443  24251591.509    24251574.6444
        38.900          20.6004
 105302220.757 8  82053647.23047  20038343.075    20038330.9004
        50.300          45.4004
 130316279.599 5                  24798364.828
        34.200
 113956603.881 8  88797317.45946  21685218.989    21685205.8764
        48.100          37.7004
 118978939.247 7  92710799.41245  22640936.684    22640923.5124
        43.800          30.4004
 121739614.666 6  94862005.38544  23166276.938    23166267.9864
        39.900          27.7004
 127566165.203 5  99402152.14942  24275035.858    24275023.9174
        35.400          15.6004
 128805270.836 5                  24510827.984
        35.100
 16  2  1 12  4 45.0000000  0 10G26G20G02G29G13G05G21G25G18G16
 119658326.991 7  93240223.31445  22770223.039    22770213.3834
        43.400          30.2004
 107960639.727 7  84125130.03746  20544224.635    20544210.8774
        47.400          38.9004
 127445857.560 6  99308409.94143  24252139.815    24252124.0054
        38.600          20.4004
 105302426.402 8  82053807.47147  20038382.490    20038370.0214
        50.300          45.3004
 130313378.571 5                  24797813.871
        35.100
 113958518.842 7  88798809.64346  21685582.768    21685570.1244
        47.600          37.7004
 118976892.767 7  92709204.75545  22640547.334    22640533.9864
        43.400          30.0004
 121743186.789 6  94864788.85544  23166956.443    23166947.5504
        39.900          27.6004
 127562732.453 5  99399477.26842  24274383.706    24274370.8274
        35.300          15.6004
 128802144.125 5                  24510232.592
        34.300
 16  2  1 12  4 46.0000000  0 10G26G20G02G29G13G05G21G25G18G16
 119656537.706 7  93238829.06645  22769882.639    22769872.2804
        43.600          30.2004
 107959102.114 7  84123931.89846  20543932.313    20543918.3204
        47.500          39.1004
 127448745.577 6  99310660.34643  24252689.416    24252673.6064
        38.100          20.4004
 105302632.808 8  82053968.31047  20038422.013    20038409.6614
        50.500          45.5004
 130310477.995 5                  24797261.842
        35.400
 113960434.631 7  88800302.46046  21685947.936    21685935.1154
        47.100          37.7004
 118974846.780 7  92707610.48544  22640158.157    22640144.5164
        43.600          29.9004
 121746759.410 6  94867572.72044  23167636.768    23167627.6984
        40.400          27.9004
 127559300.105 6  99396802.71942  24273730.035    24273717.7424
        36.200          15.6004
 128799018.100 5                  24509637.772
        34.500
 16  2  1 12  4 47.0000000  0 10G26G20G02G29G13G05G21G25G18G16
 119654748.762 7  93237435.08545  22769542.230    22769531.9294
        43.600          30.4004
 107957564.833 7  84122734.01546  20543639.378    20543626.0304
        47.600          39.3004
 127451633.393 6  99312910.60743  24253239.703    24253223.6004
        38.400          20.1004
 105302839.437 8  82054129.32247  20038461.357    20038448.6544
        50.200          45.4004
 130307577.381 5                  24796710.466
        35.500
 113962350.722 7  88801795.52046  21686311.996    21686299.2934
        47.200          37.7004
 118972800.735 7  92706016.16144  22639769.005    22639755.2474
        43.500          29.7004
 121750331.981 6  94870356.53944  23168316.294    23168306.8144
        40.400          27.6004
 127555867.579 6  99394128.01142  24273076.629    24273064.0434
        36.300          15.6004
 128795892.198 5                  24509042.946
        35.200
 16  2  1 12  4 48.0000000  0 10G26G20G02G29G13G05G21G25G18G16
 119652960.619 7  93236041.72045  22769201.771    22769191.8224
        43.200          30.2004
 107956028.404 7  84121536.79846  20543346.568    20543333.6304
        47.600          39.0004
 127454521.509 6  99315161.07843  24253788.120    24253772.6034
        38.100          19.9004
 105303046.809 8  82054290.91147  20038500.422    20038488.4804
        50.200          45.3004
 130304677.209 5                  24796158.829
        35.300
 113964267.614 7  88803289.20346  21686677.003    21686663.8894
        47.500          37.4004
 118970755.162 7  92704422.21044  22639379.704    22639365.9464
        43.200          29.9004
 121753905.042 6  94873140.74344  23168996.650    23168987.4634
        40.200          28.7004
 127552435.420 5  99391453.55542  24272423.705    24272411.2954
        35.700          15.6004
 128792766.831 5                  24508448.437
        35.400
 16  2  1 12  4 49.0000000  0 10G26G20G02G29G13G05G21G25G18G16
 119651172.880 7  93234648.67445  22768861.604    22768851.5384
        43.200          30.3004
 107954492.415 7  84120339.92746  20543054.675    20543041.7954
        47.900          39.2004
 127457409.565 6  99317411.51643  24254338.690    24254322.2364
        38.100          19.6004
 105303254.504 8  82054452.75247  20038540.179    20038527.8284
        50.100          45.5004
 130301777.071 5                  24795606.666
        35.000
 113966184.890 7  88804783.18646  21687041.875    21687028.8204
        47.700          37.5004
 118968709.635 7  92702828.29345  22638990.124    22638976.8354
        43.400          30.9004
 121757478.217 6  94875925.03144  23169676.935    23169666.9864
        40.100          28.8004
 127549003.208 5  99388779.08942  24271770.652    24271757.7734
        35.700          15.6004
 128789641.654 5                  24507853.719
        35.200
 16  2  1 12  4 50.0000000  0 10G26G20G02G29G13G05G21G25G18G16
 119649385.800 7  93233256.14745  22768521.085    22768511.6064
        42.900          30.2004
 107952957.081 7  84119143.56046  20542762.174    20542749.1194
        47.200          39.0004
 127460297.733 6  99319662.05243  24254886.855    24254871.6314
        37.600          19.6004
 105303462.729 8  82054615.00347  20038579.908    20038567.1464
        50.300          45.1004
 130298877.193 5                  24795053.086
        34.200
 113968102.803 7  88806277.66446  21687406.606    21687393.9024
        47.400          37.5004
 118966664.373 7  92701234.58345  22638600.969    22638587.9734
        43.600          30.4004
 121761051.618 6  94878709.50344  23170356.479    23170347.0584
        40.300          28.2004
 127545571.187 5  99386104.77642  24271117.383    24271104.7964
        35.900          15.6004
 128786516.917 5                  24507259.183
        35.800
 16  2  1 12  4 51.0000000  0 10G26G20G02G29G13G05G21G25G18G16
 119647599.098 7  93231863.90345  22768181.130    22768171.6504
        43.300          30.2004
 107951422.163 7  84117947.52246  20542470.325    20542457.1524
        47.100          38.9004
 127463185.708 6  99321912.41343  24255436.611    24255421.7394
        37.100          19.6004
 105303671.268 8  82054777.50147  20038619.640    20038607.2294
        50.600          45.1004
 130295977.286 5                  24794502.673
        34.200
 113970021.069 7  88807772.41846  21687772.063    21687758.7154
        47.400          37.2004
 118964619.151 7  92699640.90245  22638211.602    22638198.6654
        43.600          30.4004
 121764625.057 6  94881494.00444  23171037.051    23171027.3954
        40.400          27.0004
 127542139.031 5  99383430.36742  24270463.969    24270451.5584
        34.800          14.8004
 128783392.272 6                  24506665.008
        36.000
 16  2  1 12  4 52.0000000  0 10G26G20G02G29G13G05G21G25G18G16
 119645813.325 7  93230472.39145  22767841.033    22767831.3784
        43.000          30.0004
 107949888.225 7  84116752.24846  20542178.226    20542164.9954
        47.300          39.2004
 127466074.183 6  99324163.15943  24255986.247    24255970.5554
        37.400          19.3004
 105303880.643 8  82054940.65447  20038659.440    20038646.7954
        50.700          45.3004
 130293077.992 5                  24793950.330
        34.300
 113971940.257 7  88809267.89246  21688137.031    21688124.3284
        47.900          37.3004
 118962574.480 7  92698047.65245  22637822.554    22637809.8504
        43.800          30.0004
 121768199.135 6  94884278.99444  23171717.373    23171707.1904
        40.400          28.9004
 127538707.371 5  99380756.36142  24269809.711    24269799.0014
        34.400          13.9004
 128780268.330 6                  24506070.523
        36.500
 16  2  1 12  4 53.0000000  0 10G26G20G02G29G13G05G21G25G18G16
 119644027.832 7  93229081.09944  22767500.983    22767491.5034
        42.800          29.9004
 107948354.571 7  84115557.18946  20541886.044    20541873.1064
        47.400          38.9004
 127468962.351 6  99326413.67543  24256536.351    24256520.3074
        37.300          19.6004
 105304090.184 8  82055103.93347  20038699.359    20038686.9494
        50.300          45.4004
 130290178.528 5                  24793398.024
        34.000
 113973859.673 7  88810763.53946  21688502.108    21688489.4054
        47.400          37.7004
 118960529.679 7  92696454.30245  22637433.353    22637419.8874
        43.000          30.2004
 121771773.076 6  94887063.87744  23172397.256    23172387.1904
        40.800          28.2004
 127535275.510 5  99378082.20542  24269156.817    24269145.5794
        34.800          14.8004
 128777144.441 6                  24505476.035
        36.200
 16  2  1 12  4 54.0000000  0 10G26G20G02G29G13G05G21G25G18G16
 119642243.154 7  93227690.44244  22767161.621    22767152.1414
        42.300          29.8004
 107946821.760 7  84114362.79146  20541594.362    20541581.7764
        47.600          39.2004
 127471850.808 6  99328664.42943  24257086.600    24257070.2634
        37.300          19.6004
 105304300.471 8  82055267.78547  20038739.352    20038726.7084
        50.200          45.2004
 130287279.517 5                  24792846.076
        33.900
 113975779.917 7  88812259.83346  21688868.060    21688854.7124
        47.500          37.5004
 118958485.357 7  92694861.32944  22637044.792    22637031.5614
        43.500          29.7004
 121775347.531 6  94889849.17244  23173077.966    23173067.5494
        40.300          28.3004
 127531843.953 5  99375408.30942  24268503.798    24268492.9714
        34.200          14.8004
 128774021.153 6                  24504882.085
        36.400
 16  2  1 12  4 55.0000000  0 10G26G20G02G29G13G05G21G25G18G16
 119640459.140 7  93226300.30544  22766822.027    22766812.6644
        42.600          29.0004
 107945289.651 8  84113168.94246  20541303.069    20541290.1314
        48.000          39.6004
 127474739.428 6  99330915.29243  24257635.617    24257619.8664
        36.900          19.6004
 105304511.308 8  82055432.07847  20038779.297    20038767.0634
        49.800          45.5004
 130284380.798 5                  24792293.914
        34.100
 113977700.777 7  88813756.60446  21689233.508    21689220.2194
        47.500          37.6004
 118956441.332 7  92693268.57644  22636655.505    22636642.1574
        43.300          29.7004
 121778922.255 6  94892634.67544  23173757.456    23173747.8594
        40.800          28.0004
 127528412.575 5  99372734.44442  24267850.239    24267839.9394
        33.800          14.8004
 128770898.294 6                  24504287.705
        36.500
 16  2  1 12  4 56.0000000  0 10G26G20G02G29G13G05G21G25G18G16
 119638675.414 7  93224910.38444  22766482.513    22766473.1514
        42.500          29.7004
 107943757.812 7  84111975.30246  20541011.459    20540998.6384
        47.500          39.1004
 127477627.876 6  99333166.02743  24258184.875    24258169.2414
        37.400          19.6004
 105304722.320 8  82055596.50547  20038819.483    20038807.1324
        49.900          45.3004
 130281482.028 5                  24791743.060
        35.000
 113979621.899 7  88815253.58346  21689598.933    21689586.0544
        47.900          37.8004
 118954397.208 7  92691675.74945  22636267.003    22636253.4214
        43.100          30.1004
 121782496.928 6  94895420.13544  23174438.130    23174428.0064
        40.900          27.6004
 127524981.044 5  99370060.54642  24267197.142    24267186.8424
        33.600          14.8004
 128767775.462 6                  24503693.033
        36.400
 16  2  1 12  4 57.0000000  0 10G26G20G02G29G13G05G21G25G18G16
 119636892.341 7  93223520.98544  22766143.946    22766133.8214
        43.200          29.7004
 107942226.703 7  84110782.23446  20540720.048    20540706.9934
        47.900          39.0004
 127480516.414 6  99335416.84343  24258735.501    24258719.3404
        37.700          19.6004
 105304933.907 8  82055761.37247  20038859.732    20038847.3804
        50.300          45.1004
 130278583.485 5                  24791191.425
        35.000
 113981543.658 7  88816751.05646  21689964.916    21689951.3344
        47.700          37.2004
 118952353.402 7  92690083.17445  22635877.712    22635864.6574
        43.500          30.1004
 121786071.918 6  94898205.84444  23175119.013    23175108.6544
        40.500          27.1004
 127521549.667 5  99367386.76342  24266543.406    24266533.5744
        33.100          14.8004
 128764653.052 6                  24503099.334
        36.100
 16  2  1 12  4 58.0000000  0 10G26G20G02G29G13G05G21G25G18G16
 119635109.934 7  93222132.08844  22765804.055    22765794.7514
        43.100          29.4004
 107940696.253 7  84109589.66946  20540428.801    20540415.7464
        47.600          38.9004
 127483405.084 6  99337667.76343  24259285.470    24259268.7824
        38.100          19.3004
 105305146.062 8  82055926.69147  20038900.010    20038887.8344
        50.300          45.1004
 130275685.225 5                  24790639.535
        34.400
 113983466.056 7  88818249.02846  21690330.660    21690317.3704
        47.800          38.1004
 118950309.882 7  92688490.82145  22635489.159    22635475.4594
        43.700          30.2004
 121789647.230 6  94900991.80244  23175798.964    23175788.9574
        40.900          27.4004
 127518118.475 5  99364713.10342  24265891.206    24265881.3164
        34.000          15.6004
 128761531.113 5                  24502505.265
        35.800
 16  2  1 12  4 59.0000000  0 10G26G20G02G29G13G05G21G25G18G16
 119633328.098 7  93220743.64945  22765464.731    22765455.4274
        43.400          30.1004
 107939166.397 7  84108397.57746  20540137.860    20540124.9814
        47.500          38.9004
 127486293.800 6  99339918.70243  24259835.351    24259818.8384
        38.400          19.9004
 105305358.679 8  82056092.36547  20038940.458    20038928.2234
        50.700          45.5004
 130272787.110 5                  24790088.232
        34.300
 113985388.993 7  88819747.42646  21690696.399    21690683.3444
        47.500          37.5004
 118948266.531 7  92686898.60944  22635099.377    22635086.6154
        43.400          29.8004
 121793222.718 6  94903777.89344  23176479.181    23176469.0574
        40.800          27.5004
 127514687.392 5  99362039.53442  24265238.105    24265228.2734
        34.300          14.8004
 128758409.428 5                  24501911.185
        35.100
 16  2  1 12  5  0.0000000  0 10G26G20G02G29G13G05G21G25G18G16
 119631546.882 7  93219355.69644  22765126.090    22765116.5514
        43.200          28.9004
 107937637.235 7  84107206.02246  20539846.666    20539833.7864
        47.200          39.2004
 127489182.641 6  99342169.72143  24260385.192    24260368.2104
        38.600          19.9004
 105305571.846 8  82056258.46747  20038981.231    20038969.1144
        50.300          45.5004
 130269889.303 5                  24789536.974
        35.000
 113987312.551 7  88821246.29946  21691062.847    21691049.3824
        47.600          37.8004
 118946223.504 7  92685306.63645  22634711.140    22634697.9104
        43.800          30.1004
 121796798.522 6  94906564.23544  23177159.633    23177149.3324
        41.100          27.5004
 127511256.528 5  99359366.12642  24264585.269    24264574.9104
        33.500          16.3004
 128755288.200 5                  24501317.251
        35.000
 16  2  1 12  5  1.0000000  0 10G26G20G02G29G13G05G21G25G18G16
 119629765.982 7  93217967.97644  22764787.303    22764777.9994
        43.200          29.9004
 107936108.362 7  84106014.69746  20539556.569    20539542.9864
        47.000          39.3004
 127492071.269 6  99344420.60043  24260933.742    24260917.5804
        38.600          19.9004
 105305785.246 8  82056424.75647  20039021.724    20039009.3144
        50.400          45.5004
 130266991.444 5                  24788985.924
        34.500
 113989236.396 7  88822745.40146  21691428.578    21691415.4054
        47.800          37.5004
 118944180.389 7  92683714.60145  22634322.770    22634309.0704
        43.800          30.1004
 121800374.278 6  94909350.53844  23177840.197    23177829.6624
        41.300          27.2004
 127507825.424 5  99356692.55842  24263932.138    24263922.1904
        34.000          16.3004
 128752167.029 5                  24500722.497
        35.400
 16  2  1 12  5  2.0000000  0 10G26G20G02G29G13G05G21G25G18G16
 119627985.964 7  93216580.96144  22764449.361    22764439.1194
        42.800          29.8004
 107934580.417 7  84104824.08346  20539265.356    20539251.8914
        47.100          39.3004
 127494960.217 6  99346671.75643  24261484.546    24261467.4474
        38.400          20.4004
 105305999.383 8  82056591.62047  20039062.330    20039050.0374
        50.500          45.2004
 130264094.054 5                  24788434.324
        34.200
 113991161.053 7  88824245.13746  21691795.024    21691781.4414
        47.900          37.8004
 118942137.754 7  92682122.93844  22633934.035    22633920.6284
        43.700          29.6004
 121803950.530 6  94912137.22444  23178521.611    23178510.4904
        41.500          27.3004
 127504394.749 5  99354019.31542  24263280.359    24263269.3554
        35.200          16.3004
 128749046.428 5                  24500128.389
        35.100
 16  2  1 12  5  3.0000000  0 10G26G20G02G29G13G05G21G25G18G16
 119626206.456 7  93215194.32844  22764110.875    22764100.3404
        43.200          29.7004
 107933053.010 7  84103633.89946  20538974.549    20538961.3774
        47.400          39.3004
 127497849.208 6  99348922.94443  24262033.416    24262017.3724
        38.300          20.4004
 105306213.973 8  82056758.83247  20039103.190    20039091.1324
        50.800          45.3004
 130261196.779 5                  24787883.943
        34.100
 113993086.245 7  88825745.28046  21692161.623    21692147.7474
        47.900          37.4004
 118940095.290 7  92680531.39945  22633544.742    22633531.9214
        43.600          31.1004
 121807526.995 6  94914924.08344  23179202.097    23179190.7424
        41.600          27.7004
 127500964.190 5  99351346.16242  24262628.944    24262616.3584
        35.500          15.6004
 128745926.181 5                  24499535.311
        35.500
 16  2  1 12  5  4.0000000  0 10G26G20G02G29G13G05G21G25G18G16
 119624427.287 7  93213807.95744  22763771.287    22763761.6324
        42.600          29.9004
 107931525.981 7  84102444.00846  20538684.083    20538671.2044
        47.500          39.0004
 127500738.044 6  99351173.98743  24262583.287    24262566.8334
        38.200          20.4004
 105306428.819 8  82056926.24247  20039144.067    20039131.8914
        50.500          45.1004
 130258299.456 5                  24787331.498
        34.100
 113995011.751 7  88827245.67646  21692527.525    21692514.7054
        47.800          37.7004
 118938052.813 7  92678939.86145  22633155.763    22633143.0014
        43.500          30.2004
 121811103.412 6  94917710.89444  23179881.795    23179871.5534
        41.700          27.5004
 127497533.435 5  99348672.84142  24261976.057    24261963.9404
        35.700          14.8004
 128742806.089 5                  24498941.334
        35.200
 16  2  1 12  5  5.0000000  0 10G26G20G02G29G13G05G21G25G18G16
 119622648.957 7  93212422.24644  22763433.516    22763423.3334
        43.100          29.6004
 107929999.772 7  84101254.75046  20538393.452    20538380.3974
        47.200          39.0004
 127503627.119 6  99353425.19843  24263133.666    24263116.6844
        37.600          20.4004
 105306644.372 8  82057094.20447  20039185.111    20039172.8184
        50.700          45.2004
 130255402.637 5                  24786779.290
        34.300
 113996938.031 8  88828746.67446  21692894.247    21692881.1344
        48.100          37.6004
 118936010.777 7  92677348.66645  22632767.621    22632754.3324
        43.200          30.0004
 121814680.275 6  94920498.07244  23180563.309    23180552.3054
        41.600          26.7004
 127494103.008 5  99345999.74242  24261322.116    24261311.2894
        34.600          15.6004
 128739686.477 5                  24498347.825
        35.300
 16  2  1 12  5  6.0000000  0 10G26G20G02G29G13G05G21G25G18G16
 119620871.080 7  93211036.88845  22763095.240    22763085.4094
        42.700          30.0004
 107928474.066 7  84100065.88846  20538103.428    20538089.6704
        47.100          39.2004
 127506516.180 6  99355676.40643  24263682.548    24263666.4454
        37.700          20.4004
 105306860.310 8  82057262.46847  20039226.317    20039214.2004
        51.000          45.3004
 130252505.879 5                  24786228.461
        33.500
 113998864.778 7  88830248.04046  21693260.897    21693247.7844
        47.900          37.9004
 118933968.830 7  92675757.53545  22632378.730    22632365.6164
        43.100          30.0004
 121818257.310 6  94923285.37044  23181243.532    23181233.2914
        41.400          27.0004
 127490672.622 5  99343326.73142  24260668.943    24260658.4674
        34.600          14.8004
 128736567.161 5                  24497753.893
        35.700
 16  2  1 12  5  7.0000000  0 10G26G20G02G29G13G05G21G25G18G16
 119619093.718 7  93209651.93544  22762756.642    22762747.2214
        43.000          29.3004
 107926948.927 7  84098877.47346  20537813.210    20537800.2144
        47.300          39.4004
 127509405.278 6  99357927.66443  24264232.479    24264216.0834
        37.400          20.4004
 105307076.691 8  82057431.07447  20039267.542    20039255.0734
        51.400          45.3004
 130249609.231 5                  24785676.575
        34.200
 114000792.030 8  88831749.79246  21693627.928    21693614.3464
        48.000          37.4004
 118931927.082 7  92674166.57145  22631990.305    22631977.0744
        43.400          30.0004
 121821834.489 7  94926072.77944  23181923.609    23181914.0714
        42.100          28.3004
 127487242.280 5  99340653.73742  24260016.733    24260005.4954
        34.600          15.6004
 128733448.123 5                  24497160.190
        35.600
 16  2  1 12  5  8.0000000  0 10G26G20G02G29G13G05G21G25G18G16
 119617317.149 7  93208267.59544  22762419.007    22762409.0584
        43.200          29.0004
 107925424.557 7  84097689.64946  20537523.327    20537509.8624
        47.300          39.0004
 127512294.550 6  99360179.03943  24264782.339    24264766.0614
        37.200          20.4004
 105307293.735 8  82057600.19547  20039309.193    20039296.6074
        50.900          45.4004
 130246713.016 5                  24785125.792
        34.800
 114002720.004 7  88833252.11046  21693994.401    21693981.4634
        47.600          37.8004
 118929885.694 7  92672575.87644  22631602.035    22631588.6874
        43.100          29.8004
 121825412.092 6  94928860.52844  23182604.859    23182594.6174
        41.700          27.3004
 127483812.203 5  99337980.99042  24259363.383    24259352.7314
        34.500          16.3004
 128730329.588 5                  24496566.664
        35.700
 16  2  1 12  5  9.0000000  0 10G26G20G02G29G13G05G21G25G18G16
 119615541.145 7  93206883.69844  22762080.720    22762071.1234
        43.000          29.7004
 107923900.793 7  84096502.30246  20537232.850    20537219.8544
        47.600          38.9004
 127515183.949 6  99362430.52543  24265332.963    24265315.9814
        36.800          20.4004
 105307511.261 8  82057769.69747  20039350.363    20039337.7774
        50.900          45.5004
 130243816.971 5                  24784574.793
        34.600
 114004648.538 7  88834754.86346  21694361.397    21694348.0494
        47.200          38.1004
 118927844.557 7  92670985.37845  22631213.814    22631200.4664
        43.700          30.4004
 121828989.923 7  94931648.45044  23183286.060    23183275.5844
        42.000          27.6004
 127480382.237 5  99335308.25242  24258710.584    24258700.1084
        34.200          15.6004
 128727211.434 5                  24495972.656
        35.200
 16  2  1 12  5 10.0000000  0 10G26G20G02G29G13G05G21G25G18G16
 119613765.648 7  93205500.19345  22761743.307    22761733.5934
        43.300          30.0004
 107922377.555 8  84095315.36746  20536943.232    20536930.0604
        48.000          39.1004
 127518073.271 6  99364681.93443  24265882.115    24265865.3674
        36.700          20.1004
 105307729.190 8  82057939.50947  20039391.517    20039379.0484
        51.000          45.5004
 130240921.047 5                  24784023.987
        35.000
 114006577.569 7  88836258.00446  21694728.814    21694715.4664
        47.600          37.5004
 118925803.503 7  92669394.94845  22630824.637    22630811.7584
        43.700          30.2004
 121832567.872 7  94934436.45944  23183967.277    23183956.3914
        42.600          28.5004
 127476952.311 5  99332635.55142  24258058.637    24258047.5174
        34.300          15.6004
 128724093.507 5                  24495380.049
        34.900
 16  2  1 12  5 11.0000000  0 10G26G20G02G29G13G05G21G25G18G16
 119611990.784 7  93204117.18145  22761405.268    22761395.0854
        43.100          30.0004
 107920855.006 8  84094128.96346  20536653.913    20536640.0964
        48.200          39.4004
 127520962.745 6  99366933.46843  24266431.162    24266415.5284
        36.900          20.6004
 105307947.649 8  82058109.74347  20039433.746    20039421.1014
        51.200          45.4004
 130238025.369 5                  24783473.290
        35.000
 114008507.184 7  88837761.59446  21695095.676    21695082.6214
        47.700          37.9004
 118923762.767 7  92667804.76445  22630436.840    22630423.4924
        44.100          30.7004
 121836146.137 7  94937224.71544  23184647.510    23184637.2104
        42.100          27.3004
 127473522.551 5  99329962.97142  24257405.070    24257394.5364
        34.800          14.8004
 128720976.001 5                  24494787.002
        34.800
 16  2  1 12  5 12.0000000  0 10G26G20G02G29G13G05G21G25G18G16
 119610216.332 7  93202734.48844  22761067.260    22761058.0154
        42.700          29.8004
 107919332.854 7  84092942.87246  20536364.289    20536350.7654
        47.900          39.4004
 127523852.110 6  99369184.92843  24266982.045    24266965.5324
        37.400          20.4004
 105308166.427 8  82058280.22347  20039475.139    20039462.5534
        50.900          45.5004
 130235129.728 5                  24782923.465
        35.600
 114010437.212 7  88839265.51346  21695463.195    21695450.0814
        47.300          37.9004
 118921722.058 7  92666214.60345  22630048.832    22630035.4834
        44.100          30.0004
 121839724.443 7  94940013.01444  23185329.118    23185317.9974
        42.100          27.4004
 127470092.747 5  99327290.44542  24256750.964    24256742.0114
        34.100          14.8004
 128717858.700 5                  24494193.788
        35.000
 16  2  1 12  5 13.0000000  0 10G26G20G02G29G13G05G21G25G18G16
 119608442.591 7  93201352.35544  22760729.981    22760720.3264
        42.900          29.7004
 107917811.460 8  84091757.37446  20536074.721    20536061.1974
        48.000          39.4004
 127526741.692 6  99371436.54543  24267531.739    24267515.1094
        36.900          20.1004
 105308385.861 8  82058451.20447  20039516.797    20039504.3874
        50.900          45.4004
 130232234.458 5                  24782371.894
        35.800
 114012367.928 7  88840769.97446  21695830.571    21695817.0474
        46.800          37.4004
 118919681.720 7  92664624.73145  22629660.459    22629646.8184
        44.300          30.7004
 121843303.139 7  94942801.61344  23186010.415    23185999.2364
        42.400          26.8004
 127466663.155 5  99324618.05742  24256099.843    24256089.3094
        34.200          14.8004
 128714741.829 5                  24493600.921
        35.000
 16  2  1 12  5 14.0000000  0 10G26G20G02G29G13G05G21G25G18G16
 119606669.398 7  93199970.64045  22760392.205    22760383.0774
        43.300          30.2004
 107916290.641 7  84090572.32046  20535785.555    20535771.5044
        47.500          39.3004
 127529631.262 6  99373688.15943  24268082.095    24268065.4064
        36.900          19.9004
 105308605.715 8  82058622.52547  20039558.419    20039546.3614
        50.800          45.5004
 130229339.260 5                  24781820.382
        34.800
 114014299.134 7  88842274.80846  21696197.732    21696184.6774
        46.900          37.5004
 118917641.516 7  92663034.95945  22629272.344    22629258.6454
        43.800          30.1004
 121846881.982 7  94945590.31244  23186691.412    23186680.3494
        42.400          27.6004
 127463233.684 5  99321945.75142  24255446.850    24255436.4914
        34.600          13.9004
 128711625.296 5                  24493007.717
        35.000
 16  2  1 12  5 15.0000000  0 10G26G20G02G29G13G05G21G25G18G16
 119604896.791 7  93198589.39045  22760054.529    22760045.4014
        43.400          30.5004
 107914770.393 7  84089387.70946  20535495.997    20535482.4734
        47.500          39.1004
 127532520.875 6  99375939.80243  24268632.586    24268614.9014
        36.800          19.9004
 105308826.041 8  82058794.20547  20039600.607    20039588.1384
        50.900          45.6004
 130226444.323 5                  24781270.881
        35.500
 114016230.894 7  88843780.06746  21696565.281    21696552.4604
        47.000          37.7004
 118915601.539 7  92661445.36145  22628883.511    22628870.6324
        43.500          30.0004
 121850461.055 7  94948379.19744  23187372.577    23187361.2814
        42.500          27.3004
 127459804.268 5  99319273.46542  24254794.608    24254784.1324
        34.800          13.9004
 128708509.078 5                  24492414.090
        34.800
 16  2  1 12  5 16.0000000  0 10G26G20G02G29G13G05G21G25G18G16
 119603124.845 7  93197208.65444  22759717.681    22759708.2014
        43.100          29.7004
 107913250.857 7  84088203.64946  20535206.742    20535193.3354
        47.700          38.9004
 127535410.646 6  99378191.55943  24269182.358    24269165.0834
        36.800          19.6004
 105309046.938 8  82058966.33347  20039642.415    20039630.2394
        50.800          45.7004
 130223549.696 5                  24780719.503
        35.900
 114018163.299 7  88845285.83746  21696933.174    21696920.0614
        47.300          37.6004
 118913561.855 7  92659856.00545  22628495.333    22628482.6304
        43.700          30.6004
 121854040.425 7  94951168.32344  23188052.908    23188042.4314
        42.000          27.3004
 127456375.017 5  99316601.30242  24254141.861    24254131.3264
        34.100          14.8004
 128705393.338 5                  24491821.155
        35.300
 16  2  1 12  5 17.0000000  0 10G26G20G02G29G13G05G21G25G18G16
 119601353.405 7  93195828.30644  22759381.018    22759371.3634
        43.200          29.4004
 107911731.850 7  84087020.01646  20534917.269    20534904.0384
        47.500          39.0004
 127538300.465 6  99380443.36043  24269731.477    24269715.0234
        36.500          19.3004
 105309268.283 8  82059138.81447  20039684.558    20039672.0904
        50.800          45.7004
 130220655.137 5                  24780168.973
        35.700
 114020096.199 7  88846791.99946  21697301.056    21697287.7084
        47.300          37.2004
 118911522.330 7  92658266.76345  22628107.400    22628094.4034
        43.800          30.3004
 121857619.985 7  94953957.58844  23188735.127    23188723.7134
        42.000          27.2004
 127452945.901 5  99313929.27042  24253489.562    24253478.9694
        34.400          13.9004
 128702277.870 5                  24491229.180
        35.200
 16  2  1 12  5 18.0000000  0 10G26G20G02G29G13G05G21G25G18G16
 119599582.484 7  93194448.37344  22759043.941    22759034.2274
        43.200          29.1004
 107910213.405 7  84085836.81646  20534628.591    20534615.3604
        47.700          39.1004
 127541190.171 6  99382695.07943  24270281.532    24270264.6674
        36.300          19.3004
 105309490.038 8  82059311.60847  20039726.829    20039714.3604
        50.800          45.6004
 130217760.770 6                  24779618.464
        36.300
 114022029.582 7  88848298.53246  21697669.180    21697655.7154
        47.200          37.2004
 118909482.983 7  92656677.65945  22627719.739    22627706.3324
        43.500          30.8004
 121861199.725 7  94956746.99744  23189415.066    23189405.2934
        42.000          27.1004
 127449516.765 5  99311257.23042  24252836.533    24252826.4674
        35.100          14.8004
 128699162.678 5                  24490636.601
        35.500
 16  2  1 12  5 19.0000000  0 10G26G20G02G29G13G05G21G25G18G16
 119597812.134 7  93193068.87744  22758706.594    22758696.9974
        43.500          29.6004
 107908695.547 7  84084654.06246  20534339.912    20534326.2714
        47.800          38.9004
 127544080.011 6  99384946.91143  24270830.810    24270814.8834
        36.500          19.6004
 105309712.281 8  82059484.78447  20039769.107    20039756.4624
        50.800          45.6004
 130214866.567 6                  24779067.561
        36.000
 114023963.521 7  88849805.49946  21698037.105    21698023.8164
        47.500          37.4004
 118907443.767 7  92655088.66345  22627331.617    22627317.8594
        43.700          30.8004
 121864779.645 6  94959536.54744  23190096.011    23190086.1804
        41.700          27.1004
 127446087.755 5  99308585.29242  24252184.817    24252174.1654
        34.600          15.6004
 128696047.793 5                  24490042.831
        34.900
 16  2  1 12  5 20.0000000  0 10G26G20G02G29G13G05G21G25G18G16
 119596042.423 7  93191689.88745  22758370.740    22758360.4984
        43.400          30.1004
 107907178.363 7  84083471.84646  20534051.120    20534037.4204
        47.500          39.0004
 127546969.970 6  99387198.82043  24271380.650    24271364.4894
        36.400          19.3004
 105309935.051 8  82059658.37347  20039811.280    20039799.0454
        50.900          45.8004
 130211972.613 6                  24778516.129
        36.200
 114025898.064 7  88851312.93246  21698405.045    21698391.8734
        47.600          37.3004
 118905404.882 7  92653499.92045  22626943.184    22626930.5404
        43.000          30.4004
 121868359.849 6  94962326.31044  23190777.464    23190767.2224
        41.900          27.7004
 127442658.892 5  99305913.46142  24251533.178    24251521.5884
        34.700          15.6004
 128692933.308 5                  24489450.301
        34.700
 16  2  1 12  5 21.0000000  0 10G26G20G02G29G13G05G21G25G18G16
 119594273.268 7  93190311.32544  22758033.813    22758023.8054
        43.400          29.8004
 107905661.707 7  84082290.03646  20533762.287    20533749.2324
        47.800          39.0004
 127549859.910 6  99389450.72243  24271929.992    24271914.5344
        36.600          19.0004
 105310158.262 8  82059832.29647  20039853.719    20039841.4264
        50.800          45.6004
 130209078.819 6                  24777965.493
        36.100
 114027833.120 7  88852820.77046  21698773.396    21698760.1074
        47.800          37.4004
 118903366.110 7  92651911.26044  22626555.678    22626542.4474
        43.000          29.9004
 121871940.248 6  94965116.23144  23191459.225    23191449.1004
        41.800          27.7004
 127439230.111 5  99303241.67942  24250880.195    24250869.2504
        34.700          16.3004
 128689819.183 5                  24488857.732
        33.800
 16  2  1 12  5 22.0000000  0 10G26G20G02G29G13G05G21G25G18G16
 119592504.687 7  93188933.21044  22757697.222    22757687.1564
        42.800          29.8004
 107904145.751 7  84081108.76846  20533473.951    20533460.7794
        47.700          39.0004
 127552749.988 6  99391702.75243  24272480.104    24272464.0024
        36.300          19.3004
 105310382.009 8  82060006.64647  20039896.241    20039884.1244
        50.900          45.8004
 130206185.261 5                  24777414.528
        35.700
 114029768.750 7  88854329.05446  21699141.462    21699128.6414
        47.800          37.2004
 118901327.643 7  92650322.84545  22626167.728    22626154.1464
        42.600          30.5004
 121875520.926 6  94967906.36844  23192140.804    23192130.0934
        41.800          27.5004
 127435801.464 5  99300569.97642  24250226.779    24250216.1864
        35.200          16.3004
 128686705.406 5                  24488264.475
        35.200
 16  2  1 12  5 23.0000000  0 10G26G20G02G29G13G05G21G25G18G16
 119590736.833 7  93187555.66045  22757360.795    22757350.5534
        43.200          30.2004
 107902630.454 7  84079928.01946  20533185.405    20533172.5844
        47.800          38.9004
 127555640.201 6  99393954.88243  24273030.347    24273014.7714
        37.100          19.0004
 105310606.342 8  82060181.45247  20039939.014    20039926.7214
        50.800          45.6004
 130203291.983 5                  24776864.276
        35.600
 114031705.047 7  88855837.85446  21699510.036    21699496.8644
        47.800          37.3004
 118899289.461 7  92648734.65544  22625779.700    22625766.5874
        42.800          29.4004
 121879101.895 6  94970696.73544  23192821.946    23192812.0564
        41.600          27.6004
 127432373.027 5  99297898.44942  24249575.162    24249563.9244
        35.000          16.3004
 128683592.019 5                  24487672.018
        35.000
 16  2  1 12  5 24.0000000  0 10G26G20G02G29G13G05G21G25G18G16
 119588969.490 7  93186178.51645  22757024.447    22757014.7924
        43.000          30.7004
 107901115.756 7  84078747.73446  20532896.877    20532884.1154
        47.700          38.9004
 127558530.446 6  99396207.02343  24273580.473    24273564.2534
        37.100          19.0004
 105310831.132 8  82060356.61847  20039981.852    20039969.6764
        50.800          45.6004
 130200398.947 5                  24776313.931
        35.400
 114033641.873 8  88857347.07146  21699878.362    21699865.4834
        48.000          37.2004
 118897251.459 7  92647146.60244  22625391.924    22625378.5764
        43.200          29.9004
 121882683.096 6  94973487.28244  23193503.807    23193493.6244
        41.700          27.3004
 127428944.708 5  99295227.02742  24248923.104    24248911.6904
        34.800          16.3004
 128680479.031 5                  24487080.432
        35.700
