     2.11           OBSERVATION DATA    M (MIXED)           RINEX VERSION / TYPE
teqc  2015Nov6      NGS Web User        20160201 21:29:34UTCPGM / RUN BY / DATE
Solaris x86 5.10|AMD64|cc SC5.8 -xarch=amd64|=+|=+          COMMENT
teqc  2015Nov6      NOAA/NOS/NGS/CORS   20160102 03:06:01UTCCOMMENT
+47.682295489 (latitude)                                    COMMENT
-122.31514771 (longitude)                                   COMMENT
+74.4430      (elevation)                                   COMMENT
+.000000      (antenna height)                              COMMENT
BIT 2 OF LLI FLAGS DATA COLLECTED UNDER A/S CONDITION       COMMENT
 SNR is mapped to RINEX snr flag value [0-9]                COMMENT
  L1 & L2: min(max(int(snr_dBHz/6), 0), 9)                  COMMENT
teqc edited: all SBAS satellites excluded                   COMMENT
teqc edited: all Compass satellites excluded                COMMENT
teqc edited: all QZSS satellites excluded                   COMMENT
SSHO                                                        MARKER NAME
6                                                           MARKER NUMBER
Gavin Schrock       WSRN                                    OBSERVER / AGENCY
5137K78436          TRIMBLE NETR9       NAV 4.42 BOOT 4     REC # / TYPE / VERS
1441127238          TRM57971.00     NONE                    ANT # / TYPE
 -2299720.2890 -3635669.3300  4693221.8870                  APPROX POSITION XYZ
        0.0000        0.0000        0.0000                  ANTENNA: DELTA H/E/N
     1     1                                                WAVELENGTH FACT L1/2
    11    L1    L2    L5    C1    P1    C2    P2    C5    S1# / TYPES OF OBSERV
          S2    S5                                          # / TYPES OF OBSERV
     1.0000                                                 INTERVAL
teqc windowed: start @ 2016 Jan  1 00:00:00.000             COMMENT
teqc windowed:  end  @ 2016 Jan  1 01:00:00.000             COMMENT
teqc edited: all GLONASS satellites excluded                COMMENT
  2016     1     1     0     0    0.0000000     GPS         TIME OF FIRST OBS
    17                                                      LEAP SECONDS
                                                            END OF HEADER
 16  1  1  0  0  0.0000000  0  7G01G03G06G16G23G31G32
 130660665.437 6 101813534.52743                  24863931.906
                  24863951.176                          38.300          22.500

 107727918.106 8  83943906.94147                  20499937.406
                  20499946.434                          50.900          42.600

 124602281.374 6  97092754.30944                  23711034.914
                  23711045.949                          41.700          26.100

 119055943.980 7  92770932.05944                  22655577.461
                  22655585.301                          44.800          29.700

 110700738.750 8  86260416.13346                  21065639.023
                  21065643.871                          51.600          40.200

 121105130.488 7  94367738.78245                  23045528.977
                  23045536.363                          45.600          32.400

 117989691.301 7  91939991.81945                  22452674.602
                  22452683.383                          46.100          33.600

 16  1  1  0  0  1.0000000  0  7G01G03G06G16G23G31G32
 130664181.892 6 101816274.59943                  24864600.719
                  24864620.309                          38.300          22.300

 107729140.643 8  83944859.56047                  20500170.102
                  20500178.980                          51.000          42.900

 124601320.429 7  97092005.52844                  23710851.578
                  23710863.164                          42.100          26.900

 119052921.624 7  92768576.98944                  22655002.242
                  22655010.082                          44.800          29.800

 110699115.798 8  86259151.49546                  21065330.102
                  21065335.105                          51.200          40.400

 121108342.508 7  94370241.66445                  23046139.664
                  23046147.777                          44.500          32.200

 117992744.267 7  91942370.74845                  22453255.758
                  22453264.613                          46.000          34.100

 16  1  1  0  0  2.0000000  0  7G01G03G06G16G23G31G32
 130667698.227 6 101819014.59543                  24865270.195
                  24865289.375                          38.000          22.600

 107730363.756 8  83945812.64147                  20500402.844
                  20500411.652                          50.900          42.800

 124600360.064 6  97091257.19144                  23710668.297
                  23710680.668                          41.700          26.800

 119049899.589 7  92766222.15945                  22654427.453
                  22654435.414                          44.800          30.000

 110697493.088 8  86257887.04646                  21065021.586
                  21065026.320                          51.300          40.100

 121111554.671 7  94372744.65945                  23046750.734
                  23046758.715                          44.700          32.300

 117995797.491 7  91944749.88745                  22453836.594
                  22453845.293                          46.500          34.100

 16  1  1  0  0  3.0000000  0  7G01G03G06G16G23G31G32
 130671214.581 6 101821754.60143                  24865940.266
                  24865958.746                          38.500          22.300

 107731587.482 8  83946766.19147                  20500635.734
                  20500644.664                          51.200          42.300

 124599400.377 6  97090509.37144                  23710485.477
                  23710497.684                          41.300          25.800

 119046878.008 7  92763867.68745                  22653852.523
                  22653859.988                          45.000          30.200

 110695870.690 8  86256622.84146                  21064712.422
                  21064717.219                          51.100          40.100

 121114767.062 7  94375247.83845                  23047362.305
                  23047370.035                          44.700          32.300

 117998851.016 7  91947129.25445                  22454417.844
                  22454426.375                          46.300          34.200

 16  1  1  0  0  4.0000000  0  7G01G03G06G16G23G31G32
 130674730.901 6 101824494.58343                  24866608.750
                  24866628.094                          38.000          21.500

 107732811.758 8  83947720.17647                  20500868.828
                  20500878.160                          51.400          42.500

 124598441.246 6  97089761.99044                  23710302.742
                  23710315.203                          41.200          26.800

 119043856.790 7  92761513.49744                  22653277.438
                  22653285.527                          45.100          29.900

 110694248.524 8  86255358.82546                  21064403.414
                  21064408.879                          51.000          39.800

 121117979.633 7  94377751.15145                  23047973.375
                  23047980.988                          44.400          32.200

 118001904.801 7  91949508.83045                  22454998.758
                  22455007.703                          46.300          34.500

 16  1  1  0  0  5.0000000  0  7G01G03G06G16G23G31G32
 130678247.128 6 101827234.48843                  24867277.711
                  24867297.125                          38.200          21.700

 107734036.582 8  83948674.58547                  20501101.836
                  20501110.953                          51.600          42.400

 124597482.706 6  97089015.08144                  23710120.594
                  23710132.578                          41.400          26.800

 119040835.924 7  92759159.57644                  22652702.406
                  22652710.242                          44.800          29.300

 110692626.623 8  86254095.00246                  21064095.320
                  21064100.125                          50.800          39.600

 121121192.328 7  94380254.55545                  23048585.242
                  23048592.707                          44.100          31.800

 118004958.851 7  91951888.60445                  22455580.055
                  22455588.555                          46.100          33.800

 16  1  1  0  0  6.0000000  0  7G01G03G06G16G23G31G32
 130681763.391 6 101829974.43143                  24867947.641
                  24867966.078                          38.700          21.500

 107735262.043 8  83949629.48847                  20501334.586
                  20501344.008                          51.800          42.200

 124596524.843 6  97088268.69844                  23709937.711
                  23709950.770                          41.100          27.400

 119037815.488 7  92756805.99344                  22652127.969
                  22652135.465                          45.400          29.300

 110691005.024 8  86252831.42146                  21063786.711
                  21063791.695                          50.900          39.600

 121124405.271 7  94382758.15445                  23049196.242
                  23049203.758                          44.400          31.800

 118008013.201 7  91954268.61545                  22456161.406
                  22456170.391                          46.200          33.300

 16  1  1  0  0  7.0000000  0  7G01G03G06G16G23G31G32
 130685279.669 6 101832714.38743                  24868616.539
                  24868635.547                          37.700          21.500

 107736488.130 8  83950584.87747                  20501568.133
                  20501577.297                          51.900          42.500

 124595567.661 6  97087522.84244                  23709756.703
                  23709768.449                          41.400          27.900

 119034795.513 7  92754452.76544                  22651553.328
                  22651560.938                          45.400          29.800

 110689383.723 8  86251568.07246                  21063478.227
                  21063482.906                          50.700          40.100

 121127618.425 7  94385261.92645                  23049807.688
                  23049815.305                          44.500          31.800

 118011067.894 7  91956648.90045                  22456742.258
                  22456751.055                          46.300          33.600

 16  1  1  0  0  8.0000000  0  7G01G03G06G16G23G31G32
 130688795.912 6 101835454.31243                  24869285.641
                  24869304.164                          37.900          21.100

 107737714.840 8  83951540.75647                  20501801.344
                  20501810.512                          51.700          42.700

 124594611.119 6  97086777.49444                  23709574.859
                  23709586.102                          41.400          28.100

 119031775.949 7  92752099.86344                  22650978.797
                  22650986.223                          45.400          29.300

 110687762.761 8  86250304.98346                  21063169.625
                  21063174.305                          50.900          39.600

 121130831.816 7  94387765.87645                  23050419.422
                  23050426.445                          44.300          31.600

 118014122.931 7  91959029.44145                  22457324.094
                  22457332.957                          46.200          33.600

 16  1  1  0  0  9.0000000  0  7G01G03G06G16G23G31G32
 130692312.069 6 101838194.16543                  24869955.289
                  24869973.574                          38.100          20.600

 107738942.032 8  83952497.00847                  20502035.133
                  20502044.258                          51.600          43.000

 124593655.080 6  97086032.52844                  23709392.867
                  23709404.391                          41.100          26.500

 119028756.686 7  92749747.19445                  22650403.711
                  22650411.906                          45.300          30.000

 110686141.970 8  86249042.02746                  21062861.109
                  21062866.145                          50.900          39.900

 121134045.306 7  94390269.90645                  23051030.742
                  23051038.059                          44.700          30.900

 118017178.109 7  91961410.09645                  22457905.219
                  22457914.055                          46.400          34.000

 16  1  1  0  0 10.0000000  0  7G01G03G06G16G23G31G32
 130695828.320 6 101840934.08843                  24870622.898
                  24870642.617                          37.700          20.900

 107740169.949 8  83953453.82647                  20502268.914
                  20502278.129                          51.400          42.700

 124592699.818 6  97085288.17044                  23709211.320
                  23709222.813                          41.200          28.800

 119025737.941 7  92747394.93444                  22649829.070
                  22649836.961                          45.000          29.400

 110684521.588 8  86247779.39846                  21062553.086
                  21062557.867                          51.200          39.900

 121137259.089 7  94392774.16945                  23051642.406
                  23051649.727                          45.000          31.900

 118020233.741 7  91963791.10745                  22458486.805
                  22458495.527                          46.300          34.600

 16  1  1  0  0 11.0000000  0  7G01G03G06G16G23G31G32
 130699344.487 6 101843673.94843                  24871292.602
                  24871311.820                          37.300          20.900

 107741398.376 8  83954411.04447                  20502502.656
                  20502511.504                          51.800          42.600

 124591745.125 7  97084544.26044                  23709029.820
                  23709040.816                          42.000          27.500

 119022719.522 7  92745042.92544                  22649254.805
                  22649262.688                          44.900          29.600

 110682901.419 8  86246516.93146                  21062244.586
                  21062249.055                          51.000          39.600

 121140473.013 7  94395278.53945                  23052254.102
                  23052261.586                          44.700          31.500

 118023289.557 7  91966172.26545                  22459068.031
                  22459077.031                          46.600          33.900

 16  1  1  0  0 12.0000000  0  7G01G03G06G16G23G31G32
 130702860.616 6 101846413.78543                  24871961.125
                  24871981.379                          37.700          21.300

 107742627.446 8  83955368.75547                  20502736.438
                  20502745.258                          51.500          42.800

 124590791.078 7  97083800.84644                  23708848.406
                  23708859.734                          42.300          28.300

 119019701.538 7  92742691.26045                  22648680.531
                  22648688.375                          44.900          30.700

 110681281.559 8  86245254.70446                  21061936.180
                  21061940.820                          51.000          39.500

 121143687.141 7  94397783.05345                  23052865.852
                  23052873.020                          44.700          32.100

 118026345.716 7  91968553.68945                  22459650.344
                  22459658.840                          46.700          34.100

 16  1  1  0  0 13.0000000  0  7G01G03G06G16G23G31G32
 130706376.762 6 101849153.62843                  24872630.969
                  24872650.160                          37.600          21.500

 107743857.075 8  83956326.90947                  20502970.531
                  20502979.715                          51.200          42.600

 124589837.643 7  97083057.91144                  23708666.977
                  23708678.020                          42.300          27.900

 119016683.944 7  92740339.89144                  22648106.313
                  22648114.137                          45.100          29.800

 110679661.958 8  86243992.67546                  21061628.133
                  21061633.215                          51.000          39.800

 121146901.470 7  94400287.74445                  23053477.375
                  23053484.605                          44.300          31.200

 118029402.150 7  91970935.32145                  22460231.555
                  22460240.801                          47.100          34.300

 16  1  1  0  0 14.0000000  0  7G01G03G06G16G23G31G32
 130709892.862 6 101851893.44443                  24873300.250
                  24873319.055                          37.400          22.000

 107745087.288 8  83957285.52047                  20503204.555
                  20503213.516                          51.400          42.900

 124588884.832 7  97082315.46544                  23708486.016
                  23708496.988                          42.000          28.000

 119013666.733 7  92737988.82445                  22647532.117
                  22647539.848                          45.200          30.600

 110678042.651 8  86242730.87846                  21061319.789
                  21061325.047                          50.700          39.300

 121150115.974 7  94402792.56045                  23054088.789
                  23054096.113                          44.500          31.600

 118032458.840 7  91973317.16245                  22460812.977
                  22460822.043                          46.600          33.700

 16  1  1  0  0 15.0000000  0  7G01G03G06G16G23G31G32
 130713408.860 6 101854633.17143                  24873968.891
                  24873988.180                          37.600          22.000

 107746318.029 8  83958244.54147                  20503438.953
                  20503447.906                          51.200          42.900

 124587932.586 6  97081573.45544                  23708304.313
                  23708315.602                          41.500          27.500

 119010649.882 7  92735638.03644                  22646958.266
                  22646966.254                          45.300          29.700

 110676423.546 8  86241469.24046                  21061011.578
                  21061016.777                          50.900          39.300

 121153330.618 7  94405297.49045                  23054700.641
                  23054708.496                          44.500          32.300

 118035515.784 7  91975699.19145                  22461394.516
                  22461403.699                          46.600          34.200

 16  1  1  0  0 16.0000000  0  7G01G03G06G16G23G31G32
 130716924.933 6 101857372.97143                  24874637.461
                  24874657.195                          37.900          22.200

 107747549.467 8  83959204.09847                  20503673.211
                  20503682.410                          51.000          43.100

 124586981.101 6  97080832.04444                  23708123.234
                  23708134.770                          41.800          28.000

 119007633.496 7  92733287.61144                  22646383.758
                  22646392.016                          44.900          29.900

 110674804.832 8  86240207.90546                  21060703.656
                  21060708.586                          50.600          39.500

 121156545.553 7  94407802.64345                  23055312.273
                  23055319.852                          44.700          31.200

 118038573.109 7  91978081.52845                  22461976.789
                  22461985.578                          46.100          34.200

 16  1  1  0  0 17.0000000  0  7G01G03G06G16G23G31G32
 130720440.971 6 101860112.73143                  24875306.852
                  24875326.395                          37.700          22.200

 107748781.475 8  83960164.10547                  20503907.727
                  20503916.410                          51.000          43.100

 124586030.175 7  97080091.07044                  23707942.289
                  23707953.418                          42.000          27.700

 119004617.523 7  92730937.50044                  22645811.016
                  22645818.434                          45.400          29.800

 110673186.376 8  86238946.77646                  21060395.688
                  21060400.586                          50.800          40.100

 121159760.633 7  94410307.91245                  23055924.000
                  23055932.066                          44.800          32.000

 118041630.704 7  91980464.06745                  22462558.336
                  22462567.336                          46.300          34.800

 16  1  1  0  0 18.0000000  0  7G01G03G06G16G23G31G32
 130723956.975 6 101862852.48243                  24875976.016
                  24875995.547                          37.900          21.800

 107750014.061 8  83961124.56147                  20504142.289
                  20504151.328                          51.100          42.900

 124585079.902 7  97079350.60244                  23707761.266
                  23707772.648                          42.600          27.700

 119001601.929 7  92728587.69545                  22645236.922
                  22645244.309                          45.200          30.200

 110671568.197 8  86237685.85446                  21060087.469
                  21060093.000                          50.100          39.900

 121162975.958 7  94412813.36945                  23056536.188
                  23056543.813                          45.300          32.100

 118044688.609 7  91982846.85045                  22463140.391
                  22463149.270                          46.200          34.000

 16  1  1  0  0 19.0000000  0  7G01G03G06G16G23G31G32
 130727473.029 6 101865592.26743                  24876644.961
                  24876664.621                          37.700          22.300

 107751247.273 8  83962085.51047                  20504377.031
                  20504385.875                          51.300          43.400

 124584130.286 7  97078610.63644                  23707580.727
                  23707591.922                          42.500          28.500

 118998586.793 7  92726238.24244                  22644663.031
                  22644671.016                          45.500          29.800

 110669950.316 8  86236425.17446                  21059779.570
                  21059784.703                          49.900          40.300

 121166191.443 7  94415318.95345                  23057148.477
                  23057155.559                          45.100          32.000

 118047746.793 7  91985229.84445                  22463721.992
                  22463731.137                          45.600          34.200

 16  1  1  0  0 20.0000000  0  7G01G03G06G16G23G31G32
 130730989.007 6 101868331.97243                  24877314.539
                  24877334.195                          37.400          21.500

 107752481.095 8  83963046.92847                  20504611.523
                  20504621.078                          51.100          42.700

 124583181.308 7  97077871.17644                  23707399.797
                  23707411.223                          42.500          27.900

 118995572.054 7  92723889.09844                  22644089.531
                  22644097.016                          45.700          29.600

 110668332.757 8  86235164.74046                  21059472.164
                  21059477.301                          49.600          40.100

 121169407.165 7  94417824.71745                  23057759.867
                  23057767.734                          45.400          32.400

 118050805.291 7  91987613.08545                  22464304.039
                  22464312.730                          45.600          33.800

 16  1  1  0  0 21.0000000  0  7G01G03G06G16G23G31G32
 130734504.941 6 101871071.65443                  24877983.508
                  24878002.617                          37.100          21.100

 107753715.460 8  83964008.77347                  20504846.438
                  20504855.387                          50.800          42.500

 124582232.892 7  97077132.14344                  23707219.352
                  23707230.566                          42.300          28.100

 118992557.663 7  92721540.22544                  22643515.898
                  22643523.602                          44.700          29.900

 110666715.412 8  86233904.47046                  21059164.164
                  21059169.512                          50.100          40.100

 121172623.029 7  94420330.59245                  23058372.352
                  23058379.879                          45.100          32.000

 118053864.044 7  91989996.52945                  22464886.383
                  22464895.180                          46.100          33.900

 16  1  1  0  0 22.0000000  0  7G01G03G06G16G23G31G32
 130738020.874 6 101873811.32743                  24878652.523
                  24878671.934                          37.000          20.600

 107754950.435 8  83964971.08947                  20505081.641
                  20505090.223                          50.900          42.400

 124581285.145 7  97076393.63944                  23707039.070
                  23707050.188                          42.500          28.300

 118989543.709 7  92719191.69745                  22642941.578
                  22642949.688                          44.700          30.000

 110665098.379 8  86232644.44346                  21058856.609
                  21058861.746                          50.300          40.100

 121175839.097 7  94422836.63045                  23058984.242
                  23058991.332                          45.100          32.100

 118056923.086 7  91992380.19345                  22465468.594
                  22465477.340                          46.100          33.700

 16  1  1  0  0 23.0000000  0  7G01G03G06G16G23G31G32
 130741536.778 6 101876550.96843                  24879321.250
                  24879341.164                          37.300          20.400

 107756185.981 8  83965933.85347                  20505316.688
                  20505325.613                          50.700          42.700

 124580337.999 7  97075655.60144                  23706859.539
                  23706870.488                          42.600          28.500

 118986530.127 7  92716843.45745                  22642368.352
                  22642375.977                          44.900          30.200

 110663481.598 8  86231384.61746                  21058548.672
                  21058554.230                          50.500          39.900

 121179055.340 7  94425342.80245                  23059595.695
                  23059603.473                          45.300          32.300

 118059982.416 7  91994764.08145                  22466050.727
                  22466059.191                          46.000          34.500

 16  1  1  0  0 24.0000000  0  7G01G03G06G16G23G31G32
 130745052.656 6 101879290.61043                  24879989.570
                  24880010.051                          37.500          20.100

 107757422.122 8  83966897.07547                  20505552.078
                  20505560.641                          50.900          43.100

 124579391.511 7  97074918.07044                  23706678.984
                  23706690.504                          42.900          28.300

 118983516.961 7  92714495.54345                  22641795.203
                  22641802.465                          44.800          30.400

 110661865.119 8  86230125.02446                  21058241.148
                  21058246.219                          50.200          39.700

 121182271.804 7  94427849.14645                  23060208.359
                  23060215.504                          45.500          32.100

 118063042.038 7  91997148.19945                  22466632.602
                  22466640.941                          46.400          33.800

 16  1  1  0  0 25.0000000  0  7G01G03G06G16G23G31G32
 130748568.540 6 101882030.24743                  24880659.086
                  24880678.805                          37.200          19.900

 107758658.919 8  83967860.81547                  20505787.195
                  20505796.039                          51.000          42.600

 124578445.683 7  97074181.06344                  23706499.203
                  23706510.645                          42.800          27.900

 118980504.233 7  92712147.96844                  22641221.273
                  22641229.516                          44.500          29.800

 110660248.963 8  86228865.68246                  21057933.820
                  21057938.750                          50.500          39.900

 121185488.503 7  94430355.68545                  23060820.430
                  23060827.887                          45.800          31.900

 118066101.998 7  91999532.58445                  22467215.242
                  22467222.992                          45.900          33.600

 16  1  1  0  0 26.0000000  0  7G01G03G06G16G23G31G32
 130752084.446 6 101884769.91243                  24881328.547
                  24881348.020                          37.800          21.700

 107759896.322 8  83968825.02747                  20506022.641
                  20506031.688                          50.800          42.600

 124577500.516 7  97073444.56944                  23706319.211
                  23706330.961                          42.400          28.600

 118977491.962 7  92709800.74745                  22640648.578
                  22640656.238                          44.700          30.200

 110658633.128 8  86227606.58946                  21057626.461
                  21057631.648                          50.400          39.700

 121188705.419 7  94432862.38445                  23061432.727
                  23061439.777                          45.500          32.400

 118069162.276 7  92001917.21645                  22467797.516
                  22467806.016                          45.400          33.600

 16  1  1  0  0 27.0000000  0  7G01G03G06G16G23G31G32
 130755600.288 6 101887509.52143                  24881996.922
                  24882016.836                          37.500          21.500

 107761134.282 8  83969789.66947                  20506258.234
                  20506267.230                          50.700          42.300

 124576555.937 7  97072708.54044                  23706139.492
                  23706151.340                          42.200          28.200

 118974480.007 7  92707453.77845                  22640075.133
                  22640083.164                          45.200          30.300

 110657017.524 8  86226347.68046                  21057318.695
                  21057324.191                          50.800          39.900

 121191922.498 7  94435369.21145                  23062044.391
                  23062052.070                          45.700          31.600

 118072222.790 7  92004302.02845                  22468379.828
                  22468388.348                          45.700          33.300

 16  1  1  0  0 28.0000000  0  7G01G03G06G16G23G31G32
 130759116.057 6 101890249.05243                  24882666.031
                  24882685.980                          37.300          21.500

 107762372.775 8  83970754.72847                  20506494.094
                  20506503.098                          51.000          42.700

 124575611.935 7  97071972.95344                  23705960.047
                  23705970.969                          42.400          27.800

 118971468.441 7  92705107.10744                  22639502.203
                  22639510.555                          45.500          29.700

 110655402.153 8  86225088.95646                  21057011.641
                  21057017.051                          50.900          39.800

 121195139.716 7  94437876.14445                  23062657.180
                  23062664.016                          45.700          31.500

 118075283.549 7  92006687.03845                  22468962.258
                  22468970.598                          45.600          34.000

 16  1  1  0  0 29.0000000  0  7G01G03G06G16G23G31G32
 130762631.821 6 101892988.60343                  24883335.125
                  24883354.738                          37.100          21.500

 107763611.890 8  83971720.27447                  20506729.641
                  20506738.297                          51.000          42.400

 124574668.596 7  97071237.88244                  23705780.477
                  23705792.379                          42.500          29.000

 118968457.299 7  92702760.77445                  22638929.148
                  22638937.176                          45.300          31.000

 110653787.077 8  86223830.45946                  21056704.180
                  21056709.375                          50.900          40.100

 121198357.135 7  94440383.23745                  23063269.266
                  23063276.141                          45.500          31.300

 118078344.625 7  92009072.28845                  22469544.508
                  22469553.473                          45.900          34.100

 16  1  1  0  0 30.0000000  0  7G01G03G06G16G23G31G32
 130766147.564 6 101895728.13343                  24884004.547
                  24884023.707                          37.300          20.600

 107764851.614 8  83972686.29247                  20506965.648
                  20506974.508                          51.000          42.600

 124573725.902 7  97070503.32044                  23705601.172
                  23705612.855                          42.400          28.600

 118965446.568 7  92700414.74845                  22638356.359
                  22638364.250                          44.700          30.200

 110652172.333 8  86222572.21746                  21056396.938
                  21056402.094                          51.000          40.000

 121201574.792 7  94442890.51145                  23063881.438
                  23063888.313                          45.600          31.400

 118081406.003 7  92011457.77445                  22470126.984
                  22470136.035                          45.800          33.900

 16  1  1  0  0 31.0000000  0  7G01G03G06G16G23G31G32
 130769663.329 6 101898467.70243                  24884673.539
                  24884693.074                          37.200          20.600

 107766091.929 8  83973652.77047                  20507201.680
                  20507210.621                          50.900          42.500

 124572783.828 7  97069769.24144                  23705421.336
                  23705433.188                          42.200          28.300

 118962436.251 7  92698069.05445                  22637783.203
                  22637791.395                          44.900          30.500

 110650557.839 8  86221314.16946                  21056089.820
                  21056095.043                          50.600          40.000

 121204792.630 7  94445397.93045                  23064493.867
                  23064500.648                          45.800          31.300

 118084467.680 7  92013843.49645                  22470709.727
                  22470718.871                          46.200          34.100

 16  1  1  0  0 32.0000000  0  7G01G03G06G16G23G31G32
 130773178.963 6 101901207.15743                  24885342.508
                  24885361.984                          36.500          20.900

 107767332.772 8  83974619.66347                  20507437.719
                  20507446.762                          50.600          43.200

 124571842.374 7  97069035.64344                  23705242.609
                  23705254.223                          42.300          28.400

 118959426.270 7  92695723.62244                  22637210.820
                  22637218.922                          45.000          29.600

 110648943.598 8  86220056.32646                  21055782.516
                  21055787.461                          50.500          40.000

 121208010.606 7  94447905.45045                  23065106.047
                  23065112.848                          45.800          31.000

 118087529.582 7  92016229.39545                  22471292.297
                  22471301.469                          46.000          34.200

 16  1  1  0  0 33.0000000  0  7G01G03G06G16G23G31G32
 130776694.605 6 101903946.60943                  24886011.375
                  24886031.020                          36.800          21.500

 107768574.259 8  83975587.05547                  20507673.586
                  20507682.969                          50.500          43.000

 124570901.545 7  97068302.52544                  23705063.461
                  23705075.066                          42.100          29.300

 118956416.751 7  92693378.54245                  22636637.992
                  22636646.340                          45.200          30.400

 110647329.635 8  86218798.69246                  21055475.555
                  21055480.574                          50.500          40.300

 121211228.813 7  94450413.15945                  23065718.344
                  23065725.441                          45.500          31.300

 118090591.791 7  92018615.52745                  22471875.094
                  22471883.965                          45.900          34.100

 16  1  1  0  0 34.0000000  0  7G01G03G06G16G23G31G32
 130780210.218 6 101906686.03043                  24886681.414
                  24886700.098                          36.800          21.100

 107769816.319 8  83976554.89847                  20507910.195
                  20507919.629                          50.900          43.100

 124569961.352 7  97067569.91544                  23704884.906
                  23704895.918                          42.300          28.100

 118953407.607 7  92691033.76345                  22636065.188
                  22636073.637                          45.400          30.200

 110645715.984 8  86217541.30046                  21055168.227
                  21055173.336                          50.500          39.900

 121214447.199 7  94452921.00345                  23066331.203
                  23066337.672                          45.900          30.800

 118093654.295 7  92021001.89345                  22472457.969
                  22472466.730                          46.000          34.000

 16  1  1  0  0 35.0000000  0  7G01G03G06G16G23G31G32
 130783725.933 6 101909425.54743                  24887349.898
                  24887368.824                          36.600          20.900

 107771059.045 8  83977523.25347                  20508146.523
                  20508155.598                          50.500          43.200

 124569021.833 7  97066837.82144                  23704706.273
                  23704716.910                          42.300          28.300

 118950398.954 7  92688689.36245                  22635492.781
                  22635501.254                          45.600          30.600

 110644102.694 8  86216284.19646                  21054861.203
                  21054866.680                          50.500          39.800

 121217665.831 7  94455429.04045                  23066943.195
                  23066950.105                          45.800          31.200

 118096717.170 7  92023388.55145                  22473040.867
                  22473049.402                          46.000          34.000

 16  1  1  0  0 36.0000000  0  7G01G03G06G16G23G31G32
 130787241.532 6 101912164.96343                  24888018.977
                  24888037.941                          37.200          21.300

 107772302.316 8  83978492.04147                  20508383.406
                  20508392.406                          51.000          43.000

 124568082.929 6  97066106.21444                  23704527.188
                  23704538.086                          41.600          28.900

 118947390.674 7  92686345.24645                  22634920.789
                  22634928.227                          45.500          30.800

 110642489.629 8  86215027.26446                  21054554.523
                  21054559.785                          50.600          39.900

 121220884.648 7  94457937.22445                  23067555.523
                  23067562.676                          45.700          31.000

 118099780.279 7  92025775.38245                  22473623.945
                  22473632.086                          46.300          34.100

 16  1  1  0  0 37.0000000  0  7G01G03G06G16G23G31G32
 130790757.128 6 101914904.38543                  24888687.289
                  24888706.754                          37.500          21.700

 107773546.208 8  83979461.30247                  20508619.867
                  20508629.203                          50.600          43.000

 124567144.655 7  97065375.09244                  23704348.297
                  23704359.707                          42.400          29.300

 118944382.779 7  92684001.43945                  22634348.234
                  22634356.023                          45.500          30.400

 110640876.871 8  86213770.56646                  21054247.453
                  21054252.719                          50.300          39.800

 121224103.651 7  94460445.55045                  23068168.250
                  23068175.156                          45.700          31.000

 118102843.691 7  92028162.45645                  22474207.008
                  22474215.367                          46.200          34.100

 16  1  1  0  0 38.0000000  0  7G01G03G06G16G23G31G32
 130794272.692 6 101917643.76043                  24889357.117
                  24889375.918                          37.800          20.600

 107774790.647 8  83980430.99847                  20508857.016
                  20508866.359                          50.500          42.800

 124566206.997 6  97064644.45544                  23704170.234
                  23704181.531                          41.400          28.900

 118941375.262 7  92681657.93245                  22633775.914
                  22633783.836                          45.100          30.000

 110639264.356 8  86212514.06046                  21053940.383
                  21053945.859                          50.600          39.900

 121227322.815 7  94462954.00145                  23068780.984
                  23068787.648                          45.700          31.200

 118105907.381 7  92030549.74645                  22474790.195
                  22474798.855                          46.100          33.600

 16  1  1  0  0 39.0000000  0  7G01G03G06G16G23G31G32
 130797788.229 6 101920383.12643                  24890025.633
                  24890044.828                          36.800          20.900

 107776035.704 8  83981401.16647                  20509094.242
                  20509103.203                          50.400          42.900

 124565269.951 6  97063914.28244                  23703991.711
                  23704003.063                          41.700          28.200

 118938368.176 7  92679314.75145                  22633203.555
                  22633211.176                          44.900          30.300

 110637652.159 8  86211257.80946                  21053633.891
                  21053639.129                          50.300          39.900

 121230542.201 7  94465462.62545                  23069393.383
                  23069400.367                          45.400          31.600

 118108971.363 7  92032937.26045                  22475373.109
                  22475381.629                          45.900          34.400

 16  1  1  0  0 40.0000000  0  7G01G03G06G16G23G31G32
 130801303.723 6 101923122.46743                  24890694.508
                  24890713.645                          37.100          20.400

 107777281.359 8  83982371.81147                  20509331.031
                  20509340.285                          50.300          43.100

 124564333.602 7  97063184.65544                  23703813.391
                  23703824.836                          42.000          28.600

 118935361.520 7  92676971.91445                  22632631.242
                  22632639.020                          44.500          30.800

 110636040.247 8  86210001.77246                  21053327.000
                  21053332.230                          50.200          40.100

 121233761.781 7  94467971.39645                  23070006.313
                  23070013.082                          45.300          31.300

 118112035.654 7  92035325.02345                  22475956.297
                  22475964.711                          45.700          33.900

 16  1  1  0  0 41.0000000  0  7G01G03G06G16G23G31G32
 130804819.205 6 101925861.80943                  24891363.875
                  24891382.719                          37.100          21.300

 107778527.590 8  83983342.90047                  20509567.852
                  20509577.195                          50.500          42.600

 124563397.835 7  97062455.48144                  23703635.219
                  23703646.715                          42.300          26.700

 118932355.210 7  92674629.33845                  22632059.047
                  22632067.281                          44.700          30.400

 110634428.585 8  86208745.93546                  21053020.508
                  21053025.598                          50.500          40.100

 121236981.531 7  94470480.30245                  23070618.742
                  23070625.285                          45.300          31.600

 118115100.199 7  92037712.98045                  22476539.313
                  22476547.957                          45.900          34.100

 16  1  1  0  0 42.0000000  0  7G01G03G06G16G23G31G32
 130808334.669 6 101928601.12943                  24892033.117
                  24892052.082                          36.900          21.100

 107779774.417 8  83984314.45447                  20509805.398
                  20509814.504                          50.500          42.700

 124562462.744 7  97061726.83544                  23703458.219
                  23703468.727                          42.300          27.000

 118929349.348 7  92672287.11045                  22631487.359
                  22631495.336                          44.000          30.400

 110632817.250 8  86207490.34646                  21052713.930
                  21052719.004                          50.900          39.800

 121240201.515 7  94472989.39145                  23071231.133
                  23071238.480                          44.000          31.200

 118118165.062 7  92040101.18545                  22477121.953
                  22477131.027                          46.000          34.000

 16  1  1  0  0 43.0000000  0  7G01G03G06G16G23G31G32
 130811850.156 6 101931340.46943                  24892701.750
                  24892720.555                          36.400          20.900

 107781021.862 8  83985286.48447                  20510042.906
                  20510051.840                          50.500          42.600

 124561528.228 7  97060998.64244                  23703280.078
                  23703290.559                          42.100          27.900

 118926343.896 7  92669945.20144                  22630915.430
                  22630923.047                          44.000          29.900

 110631206.192 8  86206234.98146                  21052407.172
                  21052412.379                          51.100          39.900

 121243421.676 7  94475498.62245                  23071844.242
                  23071850.938                          44.300          31.900

 118121230.222 7  92042489.61945                  22477705.633
                  22477714.457                          45.800          34.800

 16  1  1  0  0 44.0000000  0  7G01G03G06G16G23G31G32
 130815365.602 6 101934079.76943                  24893370.570
                  24893390.176                          36.100          20.900

 107782269.906 8  83986258.98947                  20510280.336
                  20510289.141                          49.800          42.800

 124560594.402 7  97060270.98444                  23703101.633
                  23703112.766                          42.400          28.000

 118923338.861 7  92667603.61944                  22630343.484
                  22630351.195                          43.400          28.900

 110629595.447 8  86204979.85146                  21052100.570
                  21052105.844                          50.800          40.400

 121246642.046 7  94478008.01145                  23072457.719
                  23072463.758                          44.400          31.100

 118124295.695 7  92044878.29845                  22478288.648
                  22478297.887                          45.700          34.400

 16  1  1  0  0 45.0000000  0  7G01G03G06G16G23G31G32
 130818880.993 5 101936819.02143                  24894039.227
                  24894058.820                          35.800          20.600

 107783518.503 8  83987231.92247                  20510517.930
                  20510527.145                          50.100          42.500

 124559661.182 7  97059543.80744                  23702924.523
                  23702935.258                          42.400          27.100

 118920334.213 7  92665262.34244                  22629771.336
                  22629779.641                          43.700          29.700

 110627984.951 8  86203724.92046                  21051794.242
                  21051799.367                          51.100          40.600

 121249862.569 7  94480517.52645                  23073070.125
                  23073076.113                          44.300          31.200

 118127361.414 7  92047267.16945                  22478871.914
                  22478881.145                          45.300          34.200

 16  1  1  0  0 46.0000000  0  7G01G03G06G16G23G31G32
 130822396.332 6 101939558.25143                  24894708.555
                  24894727.891                          36.300          20.900

 107784767.731 8  83988205.34447                  20510755.391
                  20510764.590                          50.000          43.000

 124558728.599 7  97058817.12544                  23702746.445
                  23702757.887                          42.300          28.100

 118917329.999 7  92662921.39945                  22629200.180
                  22629208.078                          43.600          30.500

 110626374.759 8  86202470.23046                  21051487.891
                  21051493.098                          50.900          40.400

 121253083.337 7  94483027.22345                  23073683.008
                  23073689.426                          45.000          31.000

 118130427.454 7  92049656.29245                  22479455.688
                  22479464.504                          45.300          34.400

 16  1  1  0  0 47.0000000  0  7G01G03G06G16G23G31G32
 130825911.679 5 101942297.46243                  24895377.945
                  24895396.438                          35.700          21.100

 107786017.519 8  83989179.20247                  20510993.297
                  20511002.430                          49.800          42.600

 124557796.640 7  97058090.92144                  23702569.820
                  23702580.242                          42.400          28.400

 118914326.182 7  92660580.77145                  22628628.250
                  22628636.824                          43.800          30.800

 110624764.833 8  86201215.74646                  21051181.602
                  21051186.777                          50.800          40.800

 121256304.248 7  94485537.03545                  23074295.625
                  23074302.402                          45.100          31.300

 118133493.754 7  92052045.61245                  22480039.195
                  22480048.137                          45.200          34.000

 16  1  1  0  0 48.0000000  0  7G01G03G06G16G23G31G32
 130829426.978 5 101945036.63743                  24896046.070
                  24896065.531                          35.200          21.100

 107787267.879 8  83990153.50547                  20511231.516
                  20511240.207                          49.500          42.600

 124556865.302 7  97057365.20044                  23702392.578
                  23702403.254                          42.800          27.000

 118911322.737 7  92658240.42845                  22628056.672
                  22628064.832                          44.100          31.500

 110623155.178 8  86199961.46246                  21050875.039
                  21050880.598                          50.700          40.600

 121259525.353 7  94488046.99345                  23074908.563
                  23074915.242                          45.200          31.300

 118136560.317 7  92054435.13845                  22480622.703
                  22480631.406                          45.900          34.200

 16  1  1  0  0 49.0000000  0  7G01G03G06G16G23G31G32
 130832942.335 6 101947775.86443                  24896715.555
                  24896734.531                          36.000          20.600

 107788518.920 8  83991128.34647                  20511469.289
                  20511478.492                          49.800          42.500

 124555934.638 7  97056640.00844                  23702215.250
                  23702225.984                          42.400          28.200

 118908319.773 7  92655900.45745                  22627485.695
                  22627493.555                          44.600          30.900

 110621545.887 8  86198707.47646                  21050568.813
                  21050573.898                          50.900          40.600

 121262746.693 7  94490557.12345                  23075521.641
                  23075528.328                          45.100          30.800

 118139627.262 7  92056824.96045                  22481206.703
                  22481214.949                          45.300          34.000

 16  1  1  0  0 50.0000000  0  7G01G03G06G16G23G31G32
 130836457.644 6 101950515.05343                  24897384.148
                  24897403.355                          36.400          20.600

 107789770.514 8  83992103.61647                  20511707.547
                  20511716.707                          50.000          42.800

 124555004.625 7  97055915.32444                  23702038.352
                  23702049.359                          42.300          26.800

 118905317.192 7  92653560.79245                  22626914.289
                  22626921.996                          44.900          30.500

 110619936.839 8  86197453.67346                  21050262.555
                  21050267.805                          51.100          40.700

 121265968.210 7  94493067.40245                  23076135.188
                  23076141.109                          45.200          31.400

 118142694.459 7  92059214.98245                  22481789.914
                  22481799.086                          45.700          34.000

 16  1  1  0  0 51.0000000  0  7G01G03G06G16G23G31G32
 130839972.889 6 101953254.20543                  24898053.742
                  24898072.484                          36.300          20.100

 107791022.680 8  83993079.33147                  20511945.867
                  20511954.973                          50.200          42.700

 124554075.211 7  97055191.09544                  23701861.648
                  23701872.371                          42.600          28.400

 118902314.986 7  92651221.41645                  22626342.547
                  22626351.234                          45.000          30.100

 110618328.056 8  86196200.07846                  21049956.586
                  21049961.820                          51.100          40.800

 121269189.906 7  94495577.82445                  23076747.969
                  23076754.715                          45.100          30.800

 118145761.920 7  92061605.20745                  22482373.969
                  22482382.645                          45.900          33.800

 16  1  1  0  0 52.0000000  0  7G01G03G06G16G23G31G32
 130843488.169 6 101955993.37343                  24898722.188
                  24898741.531                          36.900          20.400

 107792275.478 8  83994055.54047                  20512184.203
                  20512192.965                          50.500          42.600

 124553146.391 7  97054467.34344                  23701684.953
                  23701695.391                          43.000          27.900

 118899313.230 7  92648882.38945                  22625771.523
                  22625779.574                          45.000          30.500

 110616719.593 8  86194946.73146                  21049650.508
                  21049655.793                          51.100          40.000

 121272411.820 7  94498088.41445                  23077360.906
                  23077368.000                          45.100          30.900

 118148829.699 7  92063995.68845                  22482957.711
                  22482966.223                          45.000          34.000

 16  1  1  0  0 53.0000000  0  7G01G03G06G16G23G31G32
 130847003.349 6 101958732.46343                  24899391.633
                  24899410.473                          36.400          20.100

 107793528.847 8  83995032.18947                  20512422.805
                  20512431.645                          50.000          42.800

 124552218.274 7  97053744.13944                  23701508.023
                  23701518.375                          42.700          28.100

 118896311.851 7  92646543.66245                  22625200.336
                  22625208.684                          44.900          30.500

 110615111.401 8  86193693.59946                  21049344.313
                  21049349.543                          50.400          39.600

 121275633.909 7  94500599.14845                  23077974.242
                  23077980.691                          45.000          30.200

 118151897.763 7  92066386.38745                  22483541.719
                  22483550.531                          45.200          34.000

 16  1  1  0  0 54.0000000  0  7G01G03G06G16G23G31G32
 130850518.510 6 101961471.52943                  24900060.898
                  24900079.082                          36.400          20.100

 107794782.795 8  83996009.29847                  20512661.375
                  20512670.090                          50.200          42.600

 124551290.699 7  97053021.35644                  23701331.617
                  23701342.426                          42.200          28.500

 118893310.881 7  92644205.24745                  22624629.500
                  22624637.473                          44.700          30.500

 110613503.485 8  86192440.67546                  21049038.586
                  21049043.820                          50.700          39.700

 121278856.180 7  94503110.01845                  23078587.383
                  23078594.168                          45.300          30.600

 118154966.093 7  92068777.29745                  22484125.172
                  22484134.043                          45.700          33.500

 16  1  1  0  0 55.0000000  0  7G01G03G06G16G23G31G32
 130854033.706 5 101964210.63743                  24900729.430
                  24900748.234                          35.900          20.400

 107796037.379 8  83996986.89247                  20512900.078
                  20512909.121                          50.300          42.500

 124550363.876 7  97052299.16144                  23701155.531
                  23701166.016                          42.300          28.300

 118890310.333 7  92641867.15845                  22624058.547
                  22624066.234                          44.300          30.200

 110611895.876 8  86191187.99146                  21048732.617
                  21048737.566                          50.900          39.900

 121282078.685 7  94505621.06845                  23079200.695
                  23079207.313                          45.200          30.700

 118158034.746 7  92071168.45645                  22484709.539
                  22484718.117                          45.800          34.400

 16  1  1  0  0 56.0000000  0  7G01G03G06G16G23G31G32
 130857548.829 6 101966949.69543                  24901397.898
                  24901417.207                          36.400          20.600

 107797292.531 8  83997964.92947                  20513139.227
                  20513147.703                          50.200          42.600

 124549437.633 7  97051577.41044                  23700978.695
                  23700989.645                          42.300          27.900

 118887310.178 7  92639529.38445                  22623487.055
                  22623495.000                          44.200          30.600

 110610288.544 8  86189935.52546                  21048426.500
                  21048431.977                          51.200          40.000

 121285301.339 7  94508132.23745                  23079813.609
                  23079820.344                          44.900          30.700

 118161103.687 7  92073559.84245                  22485293.023
                  22485301.930                          45.600          33.900

 16  1  1  0  0 57.0000000  0  7G01G03G06G16G23G31G32
 130861063.990 6 101969688.79743                  24902067.188
                  24902086.164                          36.700          20.900

 107798548.316 8  83998943.46447                  20513378.156
                  20513386.785                          50.200          42.800

 124548512.041 7  97050856.16744                  23700802.070
                  23700813.648                          42.200          27.700

 118884310.492 7  92637191.96745                  22622916.406
                  22622924.148                          44.500          30.800

 110608681.541 8  86188683.31846                  21048121.203
                  21048125.676                          51.000          39.800

 121288524.251 7  94510643.60245                  23080426.516
                  23080433.625                          44.700          31.400

 118164172.965 7  92075951.48445                  22485877.273
                  22485886.180                          45.700          34.500

 16  1  1  0  0 58.0000000  0  7G01G03G06G16G23G31G32
 130864579.065 6 101972427.80643                  24902736.391
                  24902754.867                          37.000          19.900

 107799804.607 8  83999922.39447                  20513617.461
                  20513625.953                          50.000          43.000

 124547587.010 7  97050135.36644                  23700626.625
                  23700637.832                          42.100          27.700

 118881311.126 7  92634854.81044                  22622345.883
                  22622353.438                          44.300          29.800

 110607074.737 8  86187431.26146                  21047815.000
                  21047820.141                          50.600          39.800

 121291747.275 7  94513155.05345                  23081040.055
                  23081047.289                          43.700          30.800

 118167242.407 7  92078343.25545                  22486461.172
                  22486470.324                          45.400          34.100

 16  1  1  0  0 59.0000000  0  7G01G03G06G16G23G31G32
 130868094.066 6 101975166.75243                  24903405.352
                  24903424.047                          36.900          19.300

 107801061.504 8  84000901.78847                  20513856.461
                  20513864.973                          50.000          43.100

 124546662.623 6  97049415.06344                  23700450.375
                  23700461.723                          41.800          27.100

 118878312.165 7  92632517.96145                  22621775.063
                  22621782.500                          44.700          30.500

 110605468.198 8  86186179.41546                  21047509.164
                  21047514.227                          50.300          39.700

 121294970.473 7  94515666.63945                  23081653.813
                  23081660.496                          43.700          30.700

 118170312.173 7  92080735.27345                  22487044.969
                  22487054.285                          45.600          33.600

 16  1  1  0  1  0.0000000  0  7G01G03G06G16G23G31G32
 130871609.087 6 101977905.70943                  24904074.195
                  24904092.391                          37.500          19.600

 107802319.004 8  84001881.66447                  20514095.484
                  20514104.324                          50.000          42.900

 124545738.880 6  97048695.27244                  23700274.711
                  23700285.434                          41.900          27.600

 118875313.629 7  92630181.44544                  22621204.609
                  22621212.367                          44.900          29.600

 110603861.986 8  86184927.82046                  21047203.633
                  21047208.695                          50.500          39.800

 121298193.902 7  94518178.41045                  23082266.711
                  23082273.797                          43.800          31.400

 118173382.217 7  92083127.52145                  22487629.898
                  22487638.730                          45.500          34.400

 16  1  1  0  1  1.0000000  0  7G01G03G06G16G23G31G32
 130875124.142 6 101980644.70143                  24904742.828
                  24904761.613                          37.500          19.900

 107803577.188 8  84002862.06947                  20514335.102
                  20514343.996                          49.700          43.000

 124544815.863 6  97047976.04744                  23700098.750
                  23700110.410                          41.900          26.700

 118872315.607 7  92627845.32945                  22620634.477
                  22620641.891                          45.100          30.000

 110602256.144 8  86183676.51646                  21046898.094
                  21046902.820                          50.100          39.700

 121301417.608 7  94520690.39445                  23082880.352
                  23082887.434                          43.800          30.700

 118176452.685 7  92085520.09445                  22488214.063
                  22488223.035                          45.800          34.500

 16  1  1  0  1  2.0000000  0  7G01G03G06G16G23G31G32
 130878639.174 6 101983383.68843                  24905411.148
                  24905430.051                          37.300          20.100

 107804835.904 8  84003842.88947                  20514574.484
                  20514583.320                          49.900          43.000

 124543893.384 7  97047257.22644                  23699923.484
                  23699934.523                          42.100          27.300

 118869317.924 7  92625509.47745                  22620064.047
                  22620071.102                          45.400          30.400

 110600650.530 8  86182425.38846                  21046592.625
                  21046597.148                          50.500          40.200

 121304641.419 7  94523202.46145                  23083493.711
                  23083500.605                          44.100          31.400

 118179523.360 7  92087912.82345                  22488798.344
                  22488807.121                          45.700          34.600

 16  1  1  0  1  3.0000000  0  7G01G03G06G16G23G31G32
 130882154.123 6 101986122.62843                  24906080.656
                  24906099.113                          37.600          20.100

 107806095.225 8  84004824.17447                  20514814.156
                  20514822.941                          50.000          42.900

 124542971.601 7  97046538.95444                  23699747.961
                  23699759.492                          42.100          27.200

 118866320.657 7  92623173.95145                  22619493.570
                  22619501.012                          45.000          31.200

 110599045.199 8  86181174.48546                  21046287.539
                  21046291.719                          50.700          40.200

 121307865.427 7  94525714.67545                  23084107.727
                  23084114.660                          44.300          31.300

 118182594.325 7  92090305.78145                  22489382.813
                  22489392.137                          45.900          34.000

 16  1  1  0  1  4.0000000  0  7G01G03G06G16G23G31G32
 130885669.087 6 101988861.55543                  24906749.672
                  24906768.113                          38.100          19.900

 107807355.133 8  84005805.92147                  20515053.922
                  20515062.895                          50.100          42.600

 124542050.395 6  97045821.13844                  23699573.305
                  23699584.230                          41.900          27.400

 118863323.800 7  92620838.73845                  22618923.406
                  22618930.617                          45.000          31.100

 110597440.165 8  86179923.80846                  21045981.727
                  21045986.363                          50.700          40.100

 121311089.644 7  94528227.05645                  23084720.891
                  23084727.852                          44.500          30.500

 118185665.564 7  92092698.95645                  22489967.797
                  22489976.277                          45.900          33.900

 16  1  1  0  1  5.0000000  0  7G01G03G06G16G23G31G32
 130889184.002 6 101991600.43443                  24907418.805
                  24907436.879                          38.400          20.600

 107808615.634 8  84006788.12947                  20515293.469
                  20515302.500                          50.300          42.700

 124541129.835 6  97045103.83244                  23699397.664
                  23699408.949                          41.800          27.100

 118860327.345 7  92618503.84445                  22618352.594
                  22618360.734                          44.800          31.200

 110595835.425 8  86178673.36746                  21045676.125
                  21045680.922                          50.700          39.800

 121314314.037 7  94530739.56645                  23085334.477
                  23085341.223                          44.300          30.200

 118188737.111 7  92095092.37045                  22490551.922
                  22490561.160                          46.100          34.400

 16  1  1  0  1  6.0000000  0  7G01G03G06G16G23G31G32
 130892698.895 6 101994339.28943                  24908087.070
                  24908105.863                          37.700          20.600

 107809876.728 8  84007770.79747                  20515533.891
                  20515542.816                          50.300          43.000

 124540209.958 6  97044387.05944                  23699222.930
                  23699233.691                          41.600          27.700

 118857331.328 7  92616169.28945                  22617782.250
                  22617790.691                          45.000          30.800

 110594230.959 8  86177423.13246                  21045370.813
                  21045375.906                          50.900          39.900

 121317538.627 7  94533252.22845                  23085948.258
                  23085954.547                          43.900          30.100

 118191808.955 7  92097486.01145                  22491136.219
                  22491145.641                          45.800          34.000

 16  1  1  0  1  7.0000000  0  7G01G03G06G16G23G31G32
 130896213.740 6 101997078.12743                  24908755.875
                  24908774.629                          37.600          20.100

 107811138.394 8  84008753.91447                  20515773.828
                  20515782.645                          50.500          43.200

 124539290.657 6  97043670.71844                  23699047.758
                  23699059.207                          41.500          27.100

 118854335.680 7  92613835.02245                  22617212.750
                  22617220.684                          45.100          31.000

 110592626.767 8  86176173.11046                  21045065.875
                  21045070.457                          50.700          40.200

 121320763.414 7  94535765.04645                  23086561.695
                  23086568.652                          43.800          30.200

 118194881.082 7  92099879.86545                  22491721.352
                  22491730.211                          45.900          34.700

 16  1  1  0  1  8.0000000  0  7G01G03G06G16G23G31G32
 130899728.602 6 101999816.97643                  24909425.242
                  24909443.871                          38.300          19.900

 107812400.697 8  84009737.53147                  20516014.203
                  20516023.074                          50.700          43.000

 124538372.027 6  97042954.90344                  23698872.945
                  23698884.176                          41.700          27.000

 118851340.452 7  92611501.08245                  22616642.531
                  22616650.563                          45.300          30.700

 110591022.884 8  86174923.33446                  21044760.719
                  21044765.461                          50.500          40.200

 121323988.370 7  94538277.99945                  23087175.117
                  23087182.355                          43.800          30.100

 118197953.491 7  92102273.94745                  22492305.773
                  22492314.645                          46.400          34.000

 16  1  1  0  1  9.0000000  0  7G01G03G06G16G23G31G32
 130903243.395 6 102002555.76943                  24910094.414
                  24910112.215                          38.000          19.600

 107813663.547 8  84010721.56647                  20516254.375
                  20516263.223                          50.400          42.800

 124537454.017 7  97042239.57644                  23698698.141
                  23698709.629                          42.000          26.900

 118848345.640 7  92609167.47345                  22616073.000
                  22616080.781                          45.000          30.400

 110589419.241 8  86173673.74346                  21044455.414
                  21044460.035                          50.200          40.100

 121327213.530 7  94540791.10845                  23087789.367
                  23087795.762                          43.700          30.500

 118201026.173 7  92104668.24245                  22492890.422
                  22492899.309                          46.400          34.300

 16  1  1  0  1 10.0000000  0  7G01G03G06G16G23G31G32
 130906758.137 6 102005294.52743                  24910763.164
                  24910781.199                          37.700          20.100

 107814926.954 8  84011706.04047                  20516494.484
                  20516503.434                          50.000          42.400

 124536536.572 6  97041524.67744                  23698523.938
                  23698534.816                          41.700          26.800

 118845351.169 7  92606834.12345                  22615502.766
                  22615510.602                          44.900          30.800

 110587815.845 8  86172424.34846                  21044150.539
                  21044154.879                          50.000          39.900

 121330438.811 7  94543304.31045                  23088402.531
                  23088409.258                          43.700          30.500

 118204099.125 7  92107062.74545                  22493475.555
                  22493484.090                          46.600          34.000

 16  1  1  0  1 11.0000000  0  7G01G03G06G16G23G31G32
 130910272.903 6 102008033.29943                  24911432.398
                  24911449.977                          37.500          19.600

 107816191.044 8  84012691.04347                  20516735.313
                  20516744.336                          50.400          42.500

 124535619.825 6  97040810.32244                  23698349.547
                  23698360.473                          41.300          26.100

 118842357.210 7  92604501.16945                  22614933.117
                  22614941.023                          44.600          31.600

 110586212.809 8  86171175.22846                  21043845.281
                  21043849.926                          50.500          40.300

 121333664.366 7  94545817.73645                  23089016.867
                  23089022.824                          43.800          30.500

 118207172.413 7  92109457.51545                  22494060.500
                  22494069.266                          46.200          33.600

 16  1  1  0  1 12.0000000  0  7G01G03G06G16G23G31G32
 130913787.640 6 102010772.05943                  24912100.508
                  24912119.004                          36.900          19.000

 107817455.692 8  84013676.47647                  20516975.742
                  20516984.973                          50.800          42.300

 124534703.711 6  97040096.47544                  23698174.789
                  23698185.680                          41.200          26.700

 118839363.614 7  92602168.50945                  22614363.719
                  22614371.340                          44.600          31.300

 110584610.050 8  86169926.32846                  21043540.477
                  21043544.961                          50.700          39.900

 121336890.104 7  94548331.29745                  23089630.102
                  23089636.395                          44.100          30.400

 118210245.965 7  92111852.48645                  22494645.133
                  22494653.957                          46.200          33.900

 16  1  1  0  1 13.0000000  0  7G01G03G06G16G23G31G32
 130917302.291 6 102013510.73843                  24912768.914
                  24912787.527                          37.100          20.400

 107818720.893 8  84014662.35347                  20517216.773
                  20517225.676                          50.300          42.300

 124533788.212 6  97039383.10044                  23698000.469
                  23698011.445                          40.800          27.100

 118836370.395 7  92599836.13345                  22613794.227
                  22613801.582                          44.800          31.600

 110583007.529 8  86168677.61146                  21043235.195
                  21043239.953                          50.300          40.100

 121340115.995 7  94550844.98144                  23090244.211
                  23090250.910                          43.300          29.600

 118213319.788 7  92114247.67145                  22495229.750
                  22495238.559                          46.400          33.300

 16  1  1  0  1 14.0000000  0  7G01G03G06G16G23G31G32
 130920816.991 6 102016249.44443                  24913438.195
                  24913456.934                          36.900          19.900

 107819986.720 8  84015648.71247                  20517457.516
                  20517466.336                          50.100          42.500

 124532873.359 6  97038670.22244                  23697826.695
                  23697837.758                          40.700          27.100

 118833377.633 7  92597504.12245                  22613224.719
                  22613232.063                          44.600          31.000

 110581405.345 8  86167429.15546                  21042930.367
                  21042935.008                          50.000          40.100

 121343342.110 7  94553358.83644                  23090858.055
                  23090864.406                          43.500          29.600

 118216393.923 7  92116643.09445                  22495815.469
                  22495824.477                          45.800          33.100

 16  1  1  0  1 15.0000000  0  7G01G03G06G16G23G31G32
 130924331.675 6 102018988.14243                  24914106.805
                  24914125.758                          37.600          20.900

 107821253.201 8  84016635.57947                  20517698.414
                  20517707.617                          50.200          42.700

 124531959.167 6  97037957.87644                  23697652.461
                  23697663.750                          40.600          27.200

 118830385.314 7  92595172.45445                  22612655.641
                  22612662.840                          44.900          30.400

 110579803.486 8  86166180.95946                  21042625.898
                  21042630.223                          50.500          39.800

 121346568.447 7  94555872.86345                  23091471.734
                  23091478.492                          43.400          30.500

 118219468.396 7  92119038.78145                  22496400.398
                  22496408.906                          46.000          34.400

 16  1  1  0  1 16.0000000  0  7G01G03G06G16G23G31G32
 130927846.263 6 102021726.76843                  24914775.773
                  24914794.648                          37.000          20.600

 107822520.154 8  84017622.80947                  20517939.828
                  20517948.645                          50.500          43.100

 124531045.521 6  97037245.94244                  23697478.172
                  23697489.559                          41.000          27.500

 118827393.321 7  92592841.03145                  22612085.805
                  22612093.730                          44.700          31.400

 110578201.824 8  86164932.91046                  21042320.641
                  21042325.543                          50.500          40.100

 121349794.896 7  94558386.97845                  23092086.445
                  23092092.559                          42.900          30.200

 118222543.059 7  92121434.62245                  22496985.367
                  22496993.859                          46.400          33.300

 16  1  1  0  1 17.0000000  0  7G01G03G06G16G23G31G32
 130931360.894 6 102024465.44343                  24915444.156
                  24915463.324                          37.200          20.600

 107823787.811 8  84018610.59447                  20518180.914
                  20518189.746                          50.000          43.000

 124530132.605 6  97036534.58044                  23697304.844
                  23697316.410                          41.100          26.300

 118824401.834 7  92590510.00545                  22611516.859
                  22611524.262                          44.500          30.900

 110576600.553 8  86163685.16346                  21042016.141
                  21042020.906                          50.100          40.200

 121353021.625 7  94560901.31444                  23092700.500
                  23092706.484                          43.400          29.900

 118225618.114 7  92123830.75945                  22497569.977
                  22497579.152                          46.400          33.700

 16  1  1  0  1 18.0000000  0  7G01G03G06G16G23G31G32
 130934875.494 6 102027204.08943                  24916113.563
                  24916131.824                          36.800          20.400

 107825056.037 8  84019598.82447                  20518422.531
                  20518431.215                          50.500          42.600

 124529220.355 6  97035823.74444                  23697130.930
                  23697142.570                          40.500          26.600

 118821410.738 7  92588179.28145                  22610947.781
                  22610954.520                          44.900          31.200

 110574999.544 8  86162437.62446                  21041711.539
                  21041716.375                          50.300          40.600

 121356248.531 7  94563415.78345                  23093314.336
                  23093320.711                          43.700          30.300

 118228693.450 7  92126227.12345                  22498155.633
                  22498164.258                          45.800          33.800

 16  1  1  0  1 19.0000000  0  7G01G03G06G16G23G31G32
 130938389.991 6 102029942.65043                  24916782.719
                  24916800.789                          37.100          20.900

 107826324.783 8  84020587.45647                  20518663.781
                  20518672.434                          50.700          42.700

 124528308.629 6  97035113.30844                  23696957.563
                  23696969.043                          40.800          26.000

 118818419.995 7  92585848.83645                  22610378.594
                  22610385.855                          45.100          30.900

 110573398.752 8  86161190.25346                  21041406.992
                  21041411.543                          50.700          40.400

 121359475.539 7  94565930.33045                  23093928.641
                  23093935.078                          43.500          30.500

 118231768.974 7  92128623.63645                  22498740.797
                  22498749.676                          45.600          33.600

 16  1  1  0  1 20.0000000  0  7G01G03G06G16G23G31G32
 130941904.506 6 102032681.22043                  24917451.406
                  24917469.793                          36.400          20.100

 107827594.174 8  84021576.59847                  20518905.125
                  20518914.488                          50.500          42.200

 124527397.558 6  97034403.38244                  23696783.766
                  23696795.824                          41.300          26.700

 118815429.710 7  92583518.74545                  22609809.383
                  22609816.980                          44.300          31.400

 110571798.292 8  86159943.14246                  21041102.234
                  21041107.094                          51.100          40.400

 121362702.809 7  94568445.08344                  23094542.086
                  23094548.848                          43.800          29.600

 118234844.855 7  92131020.43145                  22499325.992
                  22499335.133                          45.300          33.800

 16  1  1  0  1 21.0000000  0  7G01G03G06G16G23G31G32
 130945418.929 6 102035419.71143                  24918120.125
                  24918138.379                          37.200          19.600

 107828864.093 8  84022566.14547                  20519146.828
                  20519156.250                          50.800          42.500

 124526487.101 6  97033693.93344                  23696610.477
                  23696622.484                          41.400          26.400

 118812439.780 7  92581188.93045                  22609239.648
                  22609247.973                          44.300          31.100

 110570198.069 8  86158696.21946                  21040797.711
                  21040802.070                          51.500          40.400

 121365930.200 7  94570959.93545                  23095156.969
                  23095163.004                          43.800          30.000

 118237920.965 7  92133417.40045                  22499911.180
                  22499919.926                          45.300          33.800

 16  1  1  0  1 22.0000000  0  7G01G03G06G16G23G31G32
 130948933.391 6 102038158.25943                  24918789.242
                  24918807.441                          37.200          19.600

 107830134.655 8  84023556.19347                  20519388.375
                  20519397.574                          50.500          42.000

 124525577.315 6  97032985.01644                  23696437.352
                  23696449.410                          40.900          27.200

 118809450.275 7  92578859.44945                  22608671.086
                  22608678.773                          44.500          30.900

 110568598.174 8  86157449.54846                  21040493.469
                  21040498.176                          51.600          40.500

 121369157.818 7  94573474.96244                  23095771.039
                  23095777.352                          43.700          29.900

 118240997.409 7  92135814.62045                  22500496.531
                  22500505.477                          45.600          33.900

 16  1  1  0  1 23.0000000  0  7G01G03G06G16G23G31G32
 130952447.820 6 102040896.75643                  24919457.180
                  24919476.016                          36.700          20.100

 107831405.809 8  84024546.70447                  20519630.188
                  20519639.449                          50.800          42.400

 124524668.142 6  97032276.57644                  23696264.586
                  23696276.664                          40.700          26.300

 118806461.215 7  92576530.31445                  22608102.078
                  22608109.914                          44.500          30.600

 110566998.546 8  86156203.08346                  21040188.930
                  21040193.707                          51.700          40.800

 121372385.623 7  94575990.13145                  23096384.781
                  23096391.125                          43.700          30.800

 118244074.121 7  92138212.05445                  22501081.961
                  22501091.207                          45.400          34.200

 16  1  1  0  1 24.0000000  0  7G01G03G06G16G23G31G32
 130955962.165 6 102043635.19843                  24920127.070
                  24920145.004                          36.500          21.100

 107832677.510 8  84025537.63947                  20519872.750
                  20519881.750                          50.400          42.400

 124523759.590 6  97031568.61044                  23696091.656
                  23696103.867                          40.400          25.700

 118803472.510 7  92574201.46445                  22607532.773
                  22607541.379                          44.400          30.600

 110565399.180 8  86154956.82446                  21039884.664
                  21039889.445                          51.100          40.700

 121375613.571 7  94578505.40645                  23096999.398
                  23097005.531                          44.100          30.800

 118247151.109 7  92140609.69945                  22501667.813
                  22501676.930                          45.600          34.100

 16  1  1  0  1 25.0000000  0  7G01G03G06G16G23G31G32
 130959476.545 6 102046373.65643                  24920794.891
                  24920813.859                          37.000          21.100

 107833949.880 8  84026529.09246                  20520114.523
                  20520123.598                          49.100          41.800

 124522851.697 6  97030861.16044                  23695919.430
                  23695931.055                          39.800          27.800

 118800484.278 7  92571872.98244                  22606964.656
                  22606972.742                          44.000          29.900

 110563800.170 8  86153710.84646                  21039580.633
                  21039585.023                          49.500          40.200

 121378841.755 7  94581020.86745                  23097613.633
                  23097619.512                          43.900          31.000

 118250228.431 7  92143007.60645                  22502253.352
                  22502262.352                          45.200          33.900

 16  1  1  0  1 26.0000000  0  7G01G03G06G16G23G31G32
 130962990.975 6 102049112.17043                  24921463.977
                  24921482.539                          37.300          20.600

 107835222.883 8  84027521.04747                  20520356.727
                  20520365.938                          49.600          42.100

 124521944.541 6  97030154.28544                  23695746.547
                  23695758.418                          39.400          26.700

 118797496.531 7  92569544.87745                  22606396.234
                  22606404.027                          44.500          30.400

 110562201.481 8  86152465.11646                  21039276.180
                  21039281.004                          50.100          40.000

 121382070.190 7  94583536.51245                  23098228.367
                  23098234.793                          43.600          30.400

 118253306.100 7  92145405.79045                  22502838.625
                  22502847.414                          45.100          33.500

 16  1  1  0  1 27.0000000  0  7G01G03G06G16G23G31G32
 130966505.242 6 102051850.56743                  24922132.547
                  24922150.840                          37.600          21.100

 107836496.436 8  84028513.42847                  20520599.469
                  20520608.418                          49.900          42.600

 124521037.902 6  97029447.81244                  23695574.063
                  23695585.988                          39.700          26.700

 118794509.110 7  92567217.02445                  22605827.758
                  22605835.527                          44.500          30.700

 110560603.022 8  86151219.56646                  21038972.281
                  21038976.457                          50.400          40.400

 121385298.732 7  94586052.22945                  23098842.406
                  23098848.793                          44.100          30.600

 118256383.994 7  92147804.14645                  22503424.305
                  22503433.188                          45.800          34.000

 16  1  1  0  1 28.0000000  0  7G01G03G06G16G23G31G32
 130970019.535 6 102054588.99343                  24922800.992
                  24922819.605                          36.900          20.400

 107837770.506 8  84029506.20847                  20520841.820
                  20520850.492                          50.500          42.200

 124520131.883 6  97028741.82344                  23695401.703
                  23695413.375                          39.600          26.700

 118791522.065 7  92564889.46645                  22605259.773
                  22605266.770                          44.600          30.400

 110559004.804 8  86149974.19946                  21038667.742
                  21038672.512                          50.700          39.900

 121388527.387 7  94588568.03444                  23099456.656
                  23099463.375                          44.300          29.600

 118259462.107 7  92150202.67645                  22504010.617
                  22504019.215                          45.700          33.800

 16  1  1  0  1 29.0000000  0  7G01G03G06G16G23G31G32
 130973533.838 6 102057327.41943                  24923469.734
                  24923488.324                          36.900          20.100

 107839045.257 8  84030499.52447                  20521084.164
                  20521093.160                          50.200          42.900

 124519226.557 6  97028036.37744                  23695229.711
                  23695241.352                          40.000          26.700

 118788535.522 7  92562562.29045                  22604691.203
                  22604699.328                          44.500          30.600

 110557406.954 8  86148729.12346                  21038363.922
                  21038368.395                          50.300          39.900

 121391756.321 7  94591084.04045                  23100071.578
                  23100077.676                          44.500          30.800

 118262540.592 7  92152601.49945                  22504596.047
                  22504605.066                          45.300          34.000

 16  1  1  0  1 30.0000000  0  7G01G03G06G16G23G31G32
 130977048.076 6 102060065.75943                  24924138.258
                  24924157.258                          37.300          20.900

 107840320.622 8  84031493.30747                  20521327.297
                  20521336.066                          50.400          42.600

 124518321.894 6  97027331.44944                  23695056.859
                  23695069.262                          40.100          25.100

 118785549.396 7  92560235.44145                  22604122.383
                  22604130.891                          44.900          30.800

 110555809.397 8  86147484.27446                  21038059.531
                  21038064.285                          50.600          39.800

 121394985.443 7  94593600.20045                  23100686.031
                  23100692.188                          44.500          30.900

 118265619.402 7  92155000.57045                  22505182.000
                  22505191.090                          45.000          34.000

 16  1  1  0  1 31.0000000  0  7G01G03G06G16G23G31G32
 130980562.220 6 102062804.04943                  24924807.172
                  24924826.035                          37.600          20.900

 107841596.458 8  84032487.46647                  20521570.039
                  20521578.727                          50.500          42.800

 124517417.750 6  97026626.92544                  23694885.078
                  23694896.883                          40.600          27.100

 118782563.575 7  92557908.83145                  22603554.578
                  22603562.277                          45.200          30.400

 110554212.043 8  86146239.58646                  21037755.883
                  21037760.910                          50.600          40.000

 121398214.656 7  94596116.42945                  23101300.359
                  23101306.715                          44.300          30.800

 118268698.377 7  92157399.76945                  22505767.727
                  22505776.824                          45.200          33.600

 16  1  1  0  1 32.0000000  0  7G01G03G06G16G23G31G32
 130984076.497 6 102065542.43743                  24925476.219
                  24925494.820                          36.400          20.600

 107842873.051 8  84033482.21647                  20521812.727
                  20521821.520                          50.200          42.900

 124516514.418 6  97025923.03444                  23694713.383
                  23694725.359                          39.600          26.000

 118779578.318 7  92555582.66045                  22602986.539
                  22602994.336                          45.400          30.400

 110552615.104 8  86144995.22046                  21037451.875
                  21037456.879                          51.000          40.000

 121401444.198 7  94598632.91945                  23101915.047
                  23101921.711                          44.300          30.200

 118271777.795 7  92159799.31345                  22506353.641
                  22506362.961                          45.000          33.600

 16  1  1  0  1 33.0000000  0  7G01G03G06G16G23G31G32
 130987590.627 6 102068280.71443                  24926144.648
                  24926163.770                          36.800          19.900

 107844150.149 8  84034477.35747                  20522055.953
                  20522064.699                          49.900          43.100

 124515611.592 6  97025219.54444                  23694541.789
                  23694553.672                          39.700          27.200

 118776593.394 7  92553256.75045                  22602418.547
                  22602426.234                          45.800          30.800

 110551018.371 8  86143751.01446                  21037147.844
                  21037152.793                          50.000          39.800

 121404673.829 7  94601149.46545                  23102530.063
                  23102536.176                          44.100          30.700

 118274857.401 7  92162199.00545                  22506939.797
                  22506948.891                          45.600          34.700

 16  1  1  0  1 34.0000000  0  7G01G03G06G16G23G31G32
 130991104.784 6 102071018.99943                  24926812.930
                  24926832.027                          37.100          19.900

 107845427.847 8  84035472.96547                  20522299.172
                  20522307.637                          49.500          42.800

 124514709.415 6  97024516.54344                  23694370.102
                  23694381.813                          40.200          26.000

 118773608.889 7  92550931.16145                  22601850.367
                  22601858.359                          45.700          30.400

 110549421.941 8  86142507.03746                  21036844.195
                  21036849.258                          49.800          40.300

 121407903.680 7  94603666.18845                  23103144.227
                  23103150.883                          44.100          31.000

 118277937.312 7  92164598.93545                  22507526.203
                  22507534.984                          45.500          33.900

 16  1  1  0  1 35.0000000  0  7G01G03G06G16G23G31G32
 130994618.874 6 102073757.23943                  24927481.281
                  24927500.605                          37.000          19.900

 107846706.138 8  84036469.03647                  20522542.039
                  20522550.930                          50.000          42.900

 124513807.885 6  97023814.05044                  23694198.555
                  23694209.949                          40.500          26.100

 118770624.810 7  92548605.90344                  22601282.539
                  22601290.797                          45.700          29.900

 110547825.805 8  86141263.30146                  21036540.352
                  21036545.703                          50.100          40.200

 121411133.677 7  94606183.01945                  23103758.695
                  23103765.594                          44.300          30.700

 118281017.512 7  92166999.09045                  22508112.234
                  22508121.410                          45.600          33.300

 16  1  1  0  1 36.0000000  0  7G01G03G06G16G23G31G32
 130998132.975 6 102076495.49643                  24928151.102
                  24928169.078                          37.100          19.900

 107847985.070 8  84037465.60747                  20522785.461
                  20522794.465                          50.300          43.000

 124512907.042 6  97023112.08944                  23694027.500
                  23694038.512                          39.900          27.800

 118767641.179 7  92546281.00245                  22600714.555
                  22600723.020                          45.500          30.000

 110546229.997 8  86140019.80846                  21036236.602
                  21036241.945                          50.300          40.300

 121414363.909 7  94608700.01745                  23104373.492
                  23104380.313                          43.900          31.000

 118284098.034 7  92169399.49645                  22508698.625
                  22508707.559                          45.200          32.800

 16  1  1  0  1 37.0000000  0  7G01G03G06G16G23G31G32
 131001647.099 6 102079233.75843                  24928819.430
                  24928838.242                          36.700          19.900

 107849264.623 8  84038462.66147                  20523029.063
                  20523038.191                          50.100          42.900

 124512006.864 6  97022410.65044                  23693856.070
                  23693866.938                          40.400          26.900

 118764657.990 7  92543956.44345                  22600147.156
                  22600155.258                          45.300          30.200

 110544634.498 8  86138776.57046                  21035933.398
                  21035938.074                          50.500          40.400

 121417594.369 7  94611217.19945                  23104988.203
                  23104994.785                          43.400          30.700

 118287178.896 7  92171800.15545                  22509284.813
                  22509294.098                          45.200          32.700

 16  1  1  0  1 38.0000000  0  7G01G03G06G16G23G31G32
 131005161.087 6 102081971.93343                  24929487.773
                  24929506.348                          37.200          20.900

 107850544.646 8  84039460.07647                  20523272.180
                  20523281.414                          50.400          42.600

 124511107.167 6  97021709.58944                  23693685.313
                  23693695.746                          40.500          26.400

 118761675.106 7  92541632.12345                  22599579.250
                  22599587.238                          44.900          30.200

 110543039.170 8  86137533.45446                  21035629.938
                  21035635.051                          50.700          40.500

 121420824.905 7  94613734.43945                  23105602.922
                  23105609.836                          43.700          30.500

 118290259.930 7  92174200.95945                  22509871.227
                  22509880.500                          44.900          33.400

 16  1  1  0  1 39.0000000  0  7G01G03G06G16G23G31G32
 131008675.058 6 102084710.08643                  24930157.273
                  24930175.555                          36.600          21.500

 107851825.274 8  84040457.97247                  20523516.078
                  20523525.137                          50.900          42.600

 124510208.158 6  97021009.05944                  23693513.914
                  23693524.609                          41.700          26.400

 118758692.647 7  92539308.14145                  22599011.820
                  22599019.914                          44.400          30.900

 110541444.143 8  86136290.58146                  21035326.281
                  21035331.105                          50.300          40.200

 121424055.690 7  94616251.87845                  23106217.688
                  23106224.457                          43.700          30.500

 118293341.276 7  92176602.00245                  22510457.602
                  22510466.492                          44.700          33.300

 16  1  1  0  1 40.0000000  0  7G01G03G06G16G23G31G32
 131012189.053 6 102087448.25643                  24930825.750
                  24930844.195                          36.400          20.100

 107853106.519 8  84041456.34447                  20523759.570
                  20523768.652                          50.400          42.900

 124509309.832 6  97020309.07844                  23693343.422
                  23693354.063                          41.700          27.100

 118755710.620 7  92536984.48745                  22598444.461
                  22598452.781                          44.100          31.400

 110539849.432 8  86135047.95146                  21035022.367
                  21035028.012                          50.200          40.900

 121427286.634 7  94618769.43745                  23106832.875
                  23106839.441                          44.100          30.200

 118296422.902 7  92179003.26245                  22511044.086
                  22511052.918                          44.800          33.400

 16  1  1  0  1 41.0000000  0  7G01G03G06G16G23G31G32
 131015702.955 6 102090186.36643                  24931494.648
                  24931512.832                          36.300          19.900

 107854388.408 8  84042455.21847                  20524003.711
                  20524013.168                          50.100          42.800

 124508412.145 6  97019609.57344                  23693171.430
                  23693183.184                          41.700          27.100

 118752729.037 7  92534661.18345                  22597877.008
                  22597885.258                          44.500          30.200

 110538255.033 8  86133805.56446                  21034719.063
                  21034724.691                          50.500          40.300

 121430517.830 7  94621287.19345                  23107447.391
                  23107454.527                          44.300          30.200

 118299504.848 7  92181404.77745                  22511630.375
                  22511639.223                          45.000          33.000

 16  1  1  0  1 42.0000000  0  7G01G03G06G16G23G31G32
 131019216.841 6 102092924.43443                  24932163.594
                  24932181.660                          36.900          19.300

 107855670.792 8  84043454.47947                  20524247.961
                  20524257.313                          49.700          42.700

 124507514.996 7  97018910.49444                  23693001.359
                  23693012.684                          42.000          28.100

 118749747.800 7  92532338.15044                  22597309.445
                  22597317.906                          44.400          29.600

 110536660.852 8  86132563.34246                  21034415.563
                  21034420.375                          50.700          40.200

 121433749.131 7  94623805.02744                  23108062.836
                  23108069.258                          43.900          29.900

 118302587.016 7  92183806.46245                  22512216.578
                  22512226.016                          45.000          33.900

 16  1  1  0  1 43.0000000  0  7G01G03G06G16G23G31G32
 131022730.721 6 102095662.50943                  24932831.680
                  24932850.633                          37.100          19.600

 107856953.782 8  84044454.20947                  20524492.094
                  20524501.324                          50.000          43.200

 124506618.519 7  97018211.94244                  23692830.914
                  23692841.754                          42.600          27.700

 118746767.011 7  92530015.47745                  22596742.609
                  22596750.070                          44.200          30.800

 110535066.979 8  86131321.36346                  21034112.500
                  21034117.449                          51.100          40.400

 121436980.637 7  94626323.02045                  23108677.750
                  23108684.449                          44.300          30.500

 118305669.517 7  92186208.41045                  22512803.867
                  22512812.582                          45.100          33.400

 16  1  1  0  1 44.0000000  0  7G01G03G06G16G23G31G32
 131026244.469 6 102098400.48643                  24933500.805
                  24933519.238                          37.000          19.600

 107858237.368 8  84045454.41047                  20524736.328
                  20524745.246                          50.300          42.600

 124505722.647 7  97017513.86144                  23692660.109
                  23692671.324                          42.100          28.700

 118743786.592 7  92527693.07545                  22596175.570
                  22596183.270                          44.700          30.500

 110533473.360 8  86130079.58746                  21033809.086
                  21033814.332                          51.000          40.400

 121440212.343 7  94628841.18144                  23109292.742
                  23109299.508                          44.300          29.900

 118308752.254 7  92188610.54145                  22513390.664
                  22513399.055                          45.000          33.600

 16  1  1  0  1 45.0000000  0  7G01G03G06G16G23G31G32
 131029758.354 6 102101138.58743                  24934168.711
                  24934187.852                          36.300          19.300

 107859521.619 8  84046455.12047                  20524980.641
                  20524989.668                          50.300          42.900

 124504827.506 7  97016816.34344                  23692489.313
                  23692501.277                          42.000          28.000

 118740806.697 7  92525371.08045                  22595608.039
                  22595616.375                          44.600          31.200

 110531880.130 8  86128838.11246                  21033505.703
                  21033511.219                          51.200          40.300

 121443444.331 7  94631359.56745                  23109907.984
                  23109914.316                          44.100          30.300

 118311835.364 7  92191012.95945                  22513976.688
                  22513985.844                          45.400          33.800

 16  1  1  0  1 46.0000000  0  7G01G03G06G16G23G31G32
 131033272.177 6 102103876.63443                  24934837.664
                  24934856.863                          36.600          19.000

 107860806.471 8  84047456.30247                  20525225.414
                  20525234.141                          50.300          42.900

 124503932.977 7  97016119.31344                  23692319.539
                  23692331.094                          42.200          27.300

 118737827.212 7  92523049.40545                  22595041.281
                  22595049.734                          44.500          30.800

 110530287.171 8  86127596.84046                  21033203.180
                  21033208.184                          51.300          39.900

 121446676.484 7  94633878.08445                  23110523.344
                  23110529.328                          44.300          31.600

 118314918.754 7  92193415.59845                  22514563.539
                  22514572.645                          45.300          33.800

 16  1  1  0  1 47.0000000  0  7G01G03G06G16G23G31G32
 131036785.830 6 102106614.54743                  24935506.352
                  24935525.090                          37.400          19.300

 107862091.765 8  84048457.83247                  20525470.141
                  20525478.938                          50.700          42.800

 124503038.974 7  97015422.68944                  23692149.133
                  23692160.945                          42.200          28.500

 118734847.993 7  92520727.93845                  22594474.336
                  22594482.422                          44.600          30.700

 110528694.367 8  86126355.70046                  21032899.625
                  21032904.727                          51.200          40.500

 121449908.720 7  94636396.67245                  23111138.188
                  23111144.145                          44.500          31.300

 118318002.312 7  92195818.36645                  22515150.352
                  22515159.426                          45.400          33.800

 16  1  1  0  1 48.0000000  0  7G01G03G06G16G23G31G32
 131040299.553 6 102109352.49343                  24936174.492
                  24936193.656                          37.100          19.600

 107863377.765 8  84049459.91047                  20525714.656
                  20525723.543                          50.100          43.100

 124502145.697 6  97014726.64244                  23691979.352
                  23691990.949                          41.900          28.900

 118731869.302 7  92518406.89145                  22593907.648
                  22593915.734                          45.100          30.700

 110527101.977 8  86125114.87946                  21032596.805
                  21032601.723                          51.100          40.500

 121453141.251 7  94638915.50245                  23111753.945
                  23111759.441                          44.300          30.800

 118321086.253 7  92198221.44345                  22515737.508
                  22515746.477                          46.200          33.800

 16  1  1  0  1 49.0000000  0  7G01G03G06G16G23G31G32
 131043813.192 6 102112090.39443                  24936843.328
                  24936862.531                          37.100          19.900

 107864664.311 8  84050462.41947                  20525959.164
                  20525968.355                          50.200          42.900

 124501253.019 6  97014031.05744                  23691809.016
                  23691820.887                          41.700          28.400

 118728891.005 7  92516086.13945                  22593340.516
                  22593348.988                          45.200          31.300

 110525509.805 8  86123874.22846                  21032293.547
                  21032299.328                          50.500          40.900

 121456373.944 7  94641434.45445                  23112368.469
                  23112374.910                          44.300          31.100

 118324170.457 7  92200624.71745                  22516324.359
                  22516333.473                          45.600          33.900

 16  1  1  0  1 50.0000000  0  7G01G03G06G16G23G31G32
 131047326.882 6 102114828.31743                  24937511.961
                  24937531.195                          37.600          19.900

 107865951.498 8  84051465.42347                  20526204.320
                  20526213.359                          49.700          42.900

 124500361.027 7  97013336.00544                  23691639.672
                  23691651.156                          42.100          28.500

 118725913.136 7  92513765.72245                  22592774.375
                  22592782.016                          45.300          30.400

 110523917.999 8  86122633.86046                  21031990.734
                  21031996.059                          50.200          40.500

 121459606.850 7  94643953.58245                  23112984.023
                  23112990.004                          43.900          30.700

 118327254.967 7  92203028.22845                  22516911.203
                  22516920.473                          45.400          33.700

 16  1  1  0  1 51.0000000  0  7G01G03G06G16G23G31G32
 131050840.491 6 102117566.18443                  24938181.172
                  24938199.734                          36.800          19.300

 107867239.242 8  84052468.86347                  20526449.039
                  20526458.613                          49.500          42.700

 124499469.614 7  97012641.39544                  23691469.977
                  23691481.379                          42.100          27.500

 118722935.664 7  92511445.61845                  22592207.586
                  22592215.430                          44.600          30.400

 110522326.428 8  86121393.67846                  21031688.148
                  21031693.336                          50.100          40.500

 121462839.918 7  94646472.82444                  23113599.938
                  23113604.965                          44.100          29.800

 118330339.737 7  92205431.94245                  22517498.016
                  22517507.328                          45.700          34.000

 16  1  1  0  1 52.0000000  0  7G01G03G06G16G23G31G32
 131054354.102 6 102120304.04743                  24938849.859
                  24938868.371                          37.300          20.600

 107868527.584 8  84053472.76447                  20526694.609
                  20526703.535                          49.500          42.900

 124498578.882 7  97011947.31644                  23691300.516
                  23691311.820                          42.000          28.600

 118719958.624 7  92509125.85244                  22591641.203
                  22591648.469                          44.900          29.900

 110520735.159 8  86120153.73146                  21031385.070
                  21031390.398                          50.000          40.400

 121466073.196 7  94648992.23645                  23114214.711
                  23114220.422                          43.700          30.400

 118333424.806 7  92207835.89145                  22518084.961
                  22518094.266                          45.700          34.000

 16  1  1  0  1 53.0000000  0  7G01G03G06G16G23G31G32
 131057867.666 6 102123041.88543                  24939517.836
                  24939536.902                          37.200          19.900

 107869816.549 8  84054477.14747                  20526939.594
                  20526948.844                          49.400          42.800

 124497688.776 6  97011253.72244                  23691130.688
                  23691142.168                          41.400          27.700

 118716981.996 7  92506806.41045                  22591074.617
                  22591081.953                          44.500          30.100

 110519144.191 8  86118914.01546                  21031082.172
                  21031087.102                          50.300          40.300

 121469306.701 7  94651511.82945                  23114830.336
                  23114835.777                          43.900          30.400

 118336510.179 7  92210240.07645                  22518672.289
                  22518681.500                          45.800          33.800

 16  1  1  0  1 54.0000000  0  7G01G03G06G16G23G31G32
 131061381.160 6 102125779.67443                  24940185.781
                  24940205.207                          37.100          19.900

 107871106.039 8  84055481.93947                  20527185.352
                  20527194.289                          49.400          43.300

 124496799.250 6  97010560.58044                  23690962.141
                  23690973.242                          41.400          26.900

 118714005.736 7  92504487.25045                  22590508.102
                  22590515.742                          44.400          30.400

 110517553.457 8  86117674.48346                  21030779.313
                  21030784.406                          49.900          41.000

 121472540.316 7  94654031.51345                  23115445.391
                  23115450.984                          43.800          30.500

 118339595.784 7  92212644.44345                  22519259.133
                  22519268.664                          45.300          34.100

 16  1  1  0  1 55.0000000  0  7G01G03G06G16G23G31G32
 131064894.684 6 102128517.47843                  24940855.625
                  24940873.738                          37.100          19.300

 107872396.188 8  84056487.25447                  20527430.648
                  20527439.418                          49.500          43.200

 124495910.398 6  97009867.97544                  23690792.609
                  23690804.367                          41.100          27.400

 118711029.933 7  92502168.44545                  22589942.031
                  22589949.648                          44.500          30.100

 110515963.063 8  86116435.22246                  21030477.195
                  21030482.168                          49.600          40.800

 121475774.192 7  94656551.39445                  23116061.047
                  23116066.426                          44.500          30.400

 118342681.746 7  92215049.08145                  22519846.023
                  22519855.648                          45.100          33.900

 16  1  1  0  1 56.0000000  0  7G01G03G06G16G23G31G32
 131068408.114 6 102131255.22743                  24941523.586
                  24941542.621                          37.400          19.300

 107873686.900 8  84057493.00247                  20527676.234
                  20527685.219                          49.600          42.900

 124495022.181 6  97009175.86244                  23690623.602
                  23690634.730                          41.100          28.100

 118708054.540 7  92499849.96745                  22589375.359
                  22589383.168                          44.300          30.100

 110514372.926 8  86115196.16246                  21030174.609
                  21030179.949                          50.000          40.600

 121479008.201 7  94659071.38345                  23116676.188
                  23116681.773                          44.600          31.400

 118345767.934 7  92217453.90345                  22520433.531
                  22520443.566                          45.200          34.400

 16  1  1  0  1 57.0000000  0  7G01G03G06G16G23G31G32
 131071921.566 6 102133992.95843                  24942192.984
                  24942210.957                          37.600          19.000

 107874978.199 8  84058499.21047                  20527921.984
                  20527931.367                          49.600          42.600

 124494134.577 6  97008484.23244                  23690455.000
                  23690465.984                          41.300          26.700

 118705079.571 7  92497531.81645                  22588809.773
                  22588817.480                          43.600          31.000

 110512783.093 8  86113957.33146                  21029871.688
                  21029876.891                          50.200          40.300

 121482242.432 7  94661591.54745                  23117291.664
                  23117297.461                          44.500          31.400

 118348854.433 7  92219858.96245                  22521021.367
                  22521030.535                          44.900          33.600

 16  1  1  0  1 58.0000000  0  7G01G03G06G16G23G31G32
 131075434.995 6 102136730.67243                  24942860.820
                  24942880.094                          37.100          19.900

 107876270.080 8  84059505.87147                  20528167.523
                  20528176.645                          49.600          42.400

 124493247.614 7  97007793.08944                  23690286.336
                  23690297.195                          42.000          27.300

 118702104.990 7  92495213.96945                  22588243.633
                  22588251.316                          44.100          30.000

 110511193.522 8  86112718.70746                  21029569.219
                  21029574.363                          50.500          40.500

 121485476.842 7  94664111.84545                  23117907.367
                  23117912.508                          44.200          31.200

 118351941.217 7  92222264.24045                  22521608.133
                  22521617.602                          45.100          33.900

 16  1  1  0  1 59.0000000  0  7G01G03G06G16G23G31G32
 131078948.345 6 102139468.30943                  24943528.961
                  24943548.422                          37.200          19.000

 107877562.571 8  84060513.00147                  20528413.484
                  20528422.715                          50.000          42.600

 124492361.291 6  97007102.45244                  23690117.555
                  23690128.738                          41.800          28.000

 118699130.867 7  92492896.48045                  22587677.477
                  22587685.387                          44.100          30.400

 110509604.262 8  86111480.32346                  21029266.969
                  21029271.992                          50.800          40.500

 121488711.436 7  94666632.29045                  23118522.867
                  23118528.379                          44.300          31.100

 118355028.317 7  92224669.77345                  22522195.727
                  22522205.102                          45.400          34.000

 16  1  1  0  2  0.0000000  0  7G01G03G06G16G23G31G32
 131082461.593 6 102142205.90243                  24944197.406
                  24944216.816                          36.900          19.900

 107878855.578 8  84061520.54247                  20528659.781
                  20528668.992                          49.600          42.600

 124491475.529 7  97006412.24644                  23689949.047
                  23689960.180                          42.000          27.200

 118696157.059 7  92490579.23344                  22587111.938
                  22587119.473                          44.100          29.900

 110508015.199 8  86110242.09346                  21028964.656
                  21028969.480                          50.500          40.200

 121491946.172 7  94669152.85345                  23119137.633
                  23119144.055                          44.600          30.000

 118358115.573 7  92227075.42145                  22522783.383
                  22522792.566                          45.600          33.800

 16  1  1  0  2  1.0000000  0  7G01G03G06G16G23G31G32
 131085974.943 6 102144943.60043                  24944866.328
                  24944885.566                          36.600          19.600

 107880149.218 8  84062528.57547                  20528905.969
                  20528915.328                          49.400          43.200

 124490590.478 6  97005722.59844                  23689780.000
                  23689791.734                          41.800          27.500

 118693183.732 7  92488262.36045                  22586545.602
                  22586553.684                          44.300          30.000

 110506426.507 8  86109004.15746                  21028662.477
                  21028667.449                          50.100          40.500

 121495181.138 7  94671673.59245                  23119753.453
                  23119759.289                          44.600          30.700

 118361203.217 7  92229481.37445                  22523371.219
                  22523380.129                          45.100          34.600

 16  1  1  0  2  2.0000000  0  7G01G03G06G16G23G31G32
 131089488.204 6 102147681.20043                  24945535.117
                  24945553.750                          36.900          20.100

 107881443.506 8  84063537.11547                  20529152.250
                  20529161.430                          49.500          43.600

 124489706.104 6  97005033.48544                  23689612.469
                  23689623.453                          41.900          27.300

 118690210.877 7  92485945.84745                  22585980.336
                  22585988.176                          44.100          30.800

 110504838.127 8  86107766.45746                  21028360.141
                  21028364.773                          50.700          40.300

 121498416.346 7  94674194.52445                  23120369.258
                  23120375.121                          44.400          30.600

 118364291.155 7  92231887.55645                  22523958.844
                  22523967.910                          44.900          34.000

 16  1  1  0  2  3.0000000  0  7G01G03G06G16G23G31G32
 131093001.427 6 102150418.76243                  24946203.836
                  24946222.164                          37.000          20.100

 107882738.322 8  84064546.06347                  20529398.344
                  20529407.621                          49.700          43.000

 124488822.306 7  97004344.80844                  23689444.102
                  23689455.566                          42.000          28.200

 118687238.391 7  92483629.62645                  22585414.297
                  22585422.207                          43.700          30.300

 110503249.993 8  86106528.95246                  21028058.117
                  21028062.633                          51.000          40.600

 121501651.685 7  94676715.55745                  23120984.883
                  23120990.941                          44.600          30.600

 118367379.347 7  92234293.92945                  22524546.703
                  22524555.563                          44.700          34.100

 16  1  1  0  2  4.0000000  0  7G01G03G06G16G23G31G32
 131096514.654 6 102153156.34743                  24946873.133
                  24946890.730                          36.600          19.600

 107884033.795 8  84065555.52447                  20529645.141
                  20529654.414                          49.800          42.700

 124487939.145 7  97003656.62944                  23689276.250
                  23689287.434                          42.100          27.800

 118684266.318 7  92481313.72944                  22584848.313
                  22584856.590                          43.700          29.600

 110501662.174 8  86105291.69246                  21027755.531
                  21027760.430                          51.400          40.300

 121504887.247 7  94679236.76345                  23121600.688
                  23121606.477                          44.300          30.700

 118370467.846 7  92236700.55445                  22525134.094
                  22525143.285                          45.000          34.100

 16  1  1  0  2  5.0000000  0  7G01G03G06G16G23G31G32
 131100027.799 6 102155893.84443                  24947541.305
                  24947559.320                          36.700          19.600

 107885329.805 8  84066565.40447                  20529891.711
                  20529901.141                          50.100          43.300

 124487056.646 7  97002968.96944                  23689107.922
                  23689119.563                          42.000          26.900

 118681294.649 7  92478998.14545                  22584283.750
                  22584291.488                          42.700          30.200

 110500074.615 8  86104054.64046                  21027454.016
                  21027458.246                          51.500          40.200

 121508122.974 7  94681758.10445                  23122216.602
                  23122222.336                          44.100          31.200

 118373556.605 7  92239107.38245                  22525721.422
                  22525730.848                          45.100          33.600

 16  1  1  0  2  6.0000000  0  7G01G03G06G16G23G31G32
 131103540.930 6 102158631.33743                  24948210.672
                  24948227.973                          36.800          19.900

 107886626.443 8  84067575.76847                  20530138.672
                  20530147.738                          50.200          42.600

 124486174.761 7  97002281.78144                  23688940.320
                  23688951.609                          42.100          28.100

 118678323.452 7  92476682.93944                  22583717.844
                  22583725.773                          43.000          29.700

 110498487.380 8  86102817.83446                  21027151.898
                  21027156.652                          51.400          40.400

 121511358.920 7  94684279.61445                  23122832.344
                  23122838.523                          44.500          31.100

 118376645.671 7  92241514.44645                  22526309.969
                  22526318.922                          45.500          34.100

 16  1  1  0  2  7.0000000  0  7G01G03G06G16G23G31G32
 131107054.011 6 102161368.80343                  24948877.914
                  24948896.656                          36.700          19.300

 107887923.599 8  84068586.54247                  20530385.406
                  20530394.340                          50.200          42.700

 124485293.474 7  97001595.06344                  23688772.563
                  23688783.855                          42.000          27.500

 118675352.585 7  92474367.98044                  22583152.680
                  22583160.508                          43.100          29.500

 110496900.386 8  86101581.21546                  21026849.656
                  21026854.605                          51.300          40.300

 121514595.014 7  94686801.24645                  23123447.883
                  23123454.352                          43.900          30.900

 118379734.986 7  92243921.70245                  22526897.938
                  22526906.930                          45.700          34.000

 16  1  1  0  2  8.0000000  0  7G01G03G06G16G23G31G32
 131110567.077 6 102164106.25143                  24949547.070
                  24949565.070                          36.900          20.100

 107889221.400 8  84069597.81147                  20530632.531
                  20530641.383                          50.300          43.000

 124484412.867 7  97000908.87744                  23688604.461
                  23688616.426                          42.200          28.000

 118672382.185 7  92472053.39244                  22582587.250
                  22582595.172                          43.600          29.300

 110495313.702 8  86100344.83646                  21026548.094
                  21026552.152                          51.300          40.800

 121517831.318 7  94689323.04145                  23124064.055
                  23124070.016                          44.400          30.900

 118382824.628 7  92246329.21545                  22527485.445
                  22527494.934                          46.000          34.300

 16  1  1  0  2  9.0000000  0  7G01G03G06G16G23G31G32
 131114080.122 5 102166843.67243                  24950214.977
                  24950233.324                          35.900          20.100

 107890519.807 8  84070609.55947                  20530879.828
                  20530888.793                          49.500          42.500

 124483532.885 7  97000223.17844                  23688437.500
                  23688448.672                          42.100          27.900

 118669412.212 7  92469739.13544                  22582021.539
                  22582029.824                          43.400          29.300

 110493727.333 8  86099108.70746                  21026245.906
                  21026250.488                          50.800          40.900

 121521067.823 7  94691844.99645                  23124679.273
                  23124686.008                          43.900          31.100

 118385914.544 7  92248736.93745                  22528073.344
                  22528082.797                          46.200          34.200

 16  1  1  0  2 10.0000000  0  7G01G03G06G16G23G31G32
 131117593.083 6 102169581.03743                  24950884.328
                  24950901.895                          36.300          19.600

 107891818.737 8  84071621.71047                  20531126.617
                  20531136.023                          49.400          42.600

 124482653.518 7  96999537.96144                  23688269.453
                  23688281.438                          42.600          28.500

 118666442.620 7  92467425.17144                  22581457.133
                  22581464.605                          43.800          29.800

 110492141.182 8  86097872.75046                  21025944.227
                  21025948.461                          51.000          40.900

 121524304.488 7  94694367.06645                  23125295.563
                  23125301.820                          44.100          30.700

 118389004.710 7  92251144.84945                  22528661.977
                  22528670.715                          45.700          34.200

 16  1  1  0  2 11.0000000  0  7G01G03G06G16G23G31G32
 131121106.089 6 102172318.44543                  24951552.125
                  24951570.508                          36.400          19.300

 107893118.358 8  84072634.40247                  20531373.734
                  20531383.035                          49.300          42.700

 124481774.840 7  96998853.27644                  23688102.844
                  23688114.313                          42.400          27.400

 118663473.520 7  92465111.58944                  22580892.117
                  22580899.953                          43.800          29.400

 110490555.410 8  86096637.07946                  21025642.195
                  21025646.934                          50.700          40.700

 121527541.427 7  94696889.36145                  23125911.234
                  23125917.914                          44.000          30.800

 118392095.240 7  92253553.05345                  22529249.938
                  22529258.973                          45.500          34.700

 16  1  1  0  2 12.0000000  0  7G01G03G06G16G23G31G32
 131124618.969 6 102175055.75243                  24952221.508
                  24952239.109                          36.700          20.100

 107894418.483 8  84073647.48147                  20531621.281
                  20531630.078                          49.100          42.700

 124480896.725 6  96998169.02144                  23687935.398
                  23687947.191                          41.700          27.800

 118660504.736 7  92462798.25645                  22580326.805
                  22580334.680                          43.600          30.900

 110488969.835 8  86095401.56746                  21025340.742
                  21025345.141                          50.800          40.700

 121530778.427 7  94699411.69945                  23126527.313
                  23126533.992                          44.000          30.700

 118395185.962 7  92255961.40345                  22529838.023
                  22529847.293                          45.600          34.000

 16  1  1  0  2 13.0000000  0  7G01G03G06G16G23G31G32
 131128131.966 6 102177793.15043                  24952889.313
                  24952908.078                          36.100          20.100

 107895719.289 8  84074661.09847                  20531868.930
                  20531877.902                          49.800          43.000

 124480019.330 6  96997485.34044                  23687768.656
                  23687779.801                          41.600          27.900

 118657536.475 7  92460485.32145                  22579762.258
                  22579770.430                          43.100          30.200

 110487384.637 8  86094166.34546                  21025038.906
                  21025043.773                          50.700          40.700

 121534015.734 7  94701934.27945                  23127143.313
                  23127150.074                          44.400          30.900

 118398277.050 7  92258370.04245                  22530426.383
                  22530435.281                          45.800          34.700

 16  1  1  0  2 14.0000000  0  7G01G03G06G16G23G31G32
 131131644.735 6 102180530.38143                  24953557.266
                  24953576.246                          36.100          20.600

 107897020.577 8  84075675.09047                  20532116.711
                  20532125.172                          50.200          43.200

 124479142.457 6  96996802.06344                  23687601.461
                  23687613.238                          41.400          27.400

 118654568.522 7  92458172.63645                  22579197.563
                  22579205.109                          43.200          30.400

 110485799.630 8  86092931.28246                  21024737.305
                  21024741.723                          50.800          40.400

 121537253.112 7  94704456.91645                  23127759.469
                  23127766.105                          44.500          31.200

 118401368.325 7  92260778.82645                  22531014.703
                  22531024.180                          45.800          34.400

 16  1  1  0  2 15.0000000  0  7G01G03G06G16G23G31G32
 131135157.624 6 102183267.67843                  24954226.313
                  24954244.516                          36.900          19.300

 107898322.560 8  84076689.61947                  20532364.141
                  20532373.465                          49.900          43.200

 124478266.326 6  96996119.36644                  23687434.320
                  23687446.379                          41.400          27.700

 118651601.073 7  92455860.34844                  22578632.680
                  22578640.637                          43.200          29.800

 110484215.003 8  86091696.50346                  21024435.820
                  21024440.598                          51.000          40.200

 121540490.781 7  94706979.77645                  23128375.859
                  23128382.879                          44.600          31.000

 118404459.998 7  92263187.91645                  22531602.508
                  22531611.902                          46.100          34.300

 16  1  1  0  2 16.0000000  0  7G01G03G06G16G23G31G32
 131138670.361 6 102186004.84643                  24954895.188
                  24954912.930                          37.300          19.600

 107899625.002 8  84077704.50547                  20532612.430
                  20532621.309                          50.000          42.900

 124477390.688 6  96995437.05444                  23687268.539
                  23687279.484                          41.900          27.900

 118648633.917 7  92453548.28945                  22578067.992
                  22578075.906                          43.500          30.400

 110482630.549 8  86090461.86646                  21024134.570
                  21024138.980                          51.400          40.900

 121543728.505 7  94709502.68145                  23128991.945
                  23128998.703                          44.600          30.700

 118407551.819 7  92265597.12645                  22532191.047
                  22532200.180                          46.400          33.600

 16  1  1  0  2 17.0000000  0  7G01G03G06G16G23G31G32
 131142183.180 6 102188742.09543                  24955564.063
                  24955581.355                          36.800          20.600

 107900928.184 8  84078719.97447                  20532859.977
                  20532868.918                          49.300          42.800

 124476515.856 7  96994755.36344                  23687101.758
                  23687113.156                          42.100          27.700

 118645667.338 7  92451236.67544                  22577503.531
                  22577511.207                          43.300          29.800

 110481046.540 8  86089227.57246                  21023832.992
                  21023837.301                          50.600          40.600

 121546966.572 7  94712025.84945                  23129608.227
                  23129615.164                          44.600          30.900

 118410644.061 7  92268006.66545                  22532779.164
                  22532788.863                          46.400          34.500

 16  1  1  0  2 18.0000000  0  7G01G03G06G16G23G31G32
 131145695.876 6 102191479.26343                  24956231.813
                  24956249.629                          37.500          19.600

 107902231.840 8  84079735.81147                  20533107.805
                  20533117.293                          49.300          42.600

 124475641.534 6  96994074.06244                  23686935.844
                  23686946.746                          41.400          27.700

 118642701.035 7  92448925.28245                  22576939.445
                  22576946.633                          43.400          30.600

 110479462.695 8  86087993.40946                  21023531.445
                  21023536.316                          50.800          40.400

 121550204.703 7  94714549.07145                  23130224.500
                  23130231.191                          44.800          31.100

 118413736.479 7  92270416.33845                  22533367.930
                  22533377.203                          46.100          34.200

 16  1  1  0  2 19.0000000  0  7G01G03G06G16G23G31G32
 131149208.570 6 102194216.42443                  24956900.344
                  24956918.191                          37.200          19.900

 107903536.145 8  84080752.14747                  20533356.336
                  20533365.660                          50.000          42.600

 124474767.893 6  96993393.31044                  23686768.625
                  23686780.566                          41.700          27.900

 118639735.252 7  92446614.28945                  22576375.000
                  22576382.109                          43.600          30.000

 110477879.199 8  86086759.52146                  21023230.242
                  21023234.398                          51.000          40.800

 121553443.091 7  94717072.49745                  23130840.359
                  23130847.016                          45.100          30.800

 118416829.239 7  92272826.27945                  22533956.438
                  22533966.203                          45.700          34.400

 16  1  1  0  2 20.0000000  0  7G01G03G06G16G23G31G32
 131152721.290 6 102196953.61443                  24957569.172
                  24957586.965                          37.100          19.300

 107904841.098 8  84081768.99447                  20533604.656
                  20533613.594                          49.400          42.500

 124473894.960 6  96992713.10844                  23686603.039
                  23686614.094                          41.900          27.000

 118636769.908 7  92444303.63845                  22575810.523
                  22575818.004                          43.300          30.500

 110476296.039 8  86085525.89046                  21022929.148
                  21022933.547                          50.800          40.700

 121556681.689 7  94719596.09045                  23131456.609
                  23131463.582                          45.400          30.700

 118419922.343 7  92275236.48845                  22534544.750
                  22534554.820                          44.500          33.900

 16  1  1  0  2 21.0000000  0  7G01G03G06G16G23G31G32
 131156233.931 6 102199690.75543                  24958237.172
                  24958255.293                          37.100          18.300

 107906146.548 8  84082786.22747                  20533852.836
                  20533862.367                          49.600          42.600

 124473022.570 7  96992033.32644                  23686437.031
                  23686448.191                          42.500          27.200

 118633804.930 7  92441993.26444                  22575246.430
                  22575253.887                          42.700          29.900

 110474713.091 8  86084292.42246                  21022627.703
                  21022631.918                          50.800          40.800

 121559920.429 7  94722119.79745                  23132073.039
                  23132079.801                          45.700          31.400

 118423015.635 7  92277646.84445                  22535133.695
                  22535143.461                          44.600          33.900

 16  1  1  0  2 22.0000000  0  7G01G03G06G16G23G31G32
 131159746.489 6 102202427.79043                  24958905.266
                  24958923.883                          37.200          18.600

 107907452.615 8  84083803.94247                  20534101.273
                  20534111.109                          49.300          42.400

 124472150.832 6  96991354.04844                  23686271.586
                  23686282.348                          41.800          26.200

 118630840.380 7  92439683.23244                  22574682.289
                  22574689.852                          42.300          29.400

 110473130.449 8  86083059.19646                  21022326.617
                  21022330.770                          50.300          40.800

 121563159.364 7  94724643.65745                  23132689.805
                  23132696.313                          45.700          31.200

 118426109.239 7  92280057.44245                  22535721.922
                  22535731.746                          44.600          34.100

 16  1  1  0  2 23.0000000  0  7G01G03G06G16G23G31G32
 131163259.078 6 102205164.85243                  24959573.867
                  24959592.199                          36.600          19.600

 107908759.268 8  84084822.11347                  20534350.070
                  20534359.219                          49.000          42.700

 124471279.737 7  96990675.27544                  23686105.859
                  23686116.598                          42.200          26.800

 118627876.233 7  92437373.51244                  22574118.094
                  22574125.633                          42.500          29.900

 110471548.095 8  86081826.19046                  21022025.422
                  21022030.238                          50.500          41.100

 121566398.476 7  94727167.65245                  23133306.039
                  23133312.238                          44.600          30.900

 118429203.124 7  92282468.25345                  22536311.117
                  22536320.863                          45.000          33.900

 16  1  1  0  2 24.0000000  0  7G01G03G06G16G23G31G32
 131166771.590 6 102207901.88743                  24960242.398
                  24960260.969                          36.200          19.900

 107910066.477 8  84085840.71747                  20534598.719
                  20534608.203                          49.000          42.800

 124470409.227 7  96989996.96144                  23685940.281
                  23685951.480                          42.400          27.600

 118624912.482 7  92435064.09744                  22573554.664
                  22573561.914                          42.500          29.600

 110469965.961 8  86080593.36346                  21021724.375
                  21021728.703                          51.000          40.500

 121569637.731 7  94729691.75845                  23133922.406
                  23133928.645                          44.700          30.900

 118432297.254 7  92284879.26445                  22536900.016
                  22536909.477                          45.600          34.600

 16  1  1  0  2 25.0000000  0  7G01G03G06G16G23G31G32
 131170284.021 6 102210638.84343                  24960911.453
                  24960929.152                          36.100          19.000

 107911374.285 8  84086859.79547                  20534847.563
                  20534856.930                          49.100          42.500

 124469539.360 7  96989319.14344                  23685774.633
                  23685785.223                          42.500          27.700

 118621949.163 7  92432755.02145                  22572989.695
                  22572998.043                          42.400          30.100

 110468384.166 8  86079360.79346                  21021423.578
                  21021427.984                          51.100          40.800

 121572877.218 7  94732216.04645                  23134538.578
                  23134545.008                          45.100          31.400

 118435391.708 7  92287290.51945                  22537488.703
                  22537498.180                          45.800          34.500

 16  1  1  0  2 26.0000000  0  7G01G03G06G16G23G31G32
 131173796.434 6 102213375.75843                  24961579.977
                  24961597.820                          36.800          18.600

 107912682.666 8  84087879.30847                  20535096.727
                  20535105.855                          49.200          42.400

 124468670.094 7  96988641.78544                  23685608.750
                  23685620.211                          42.400          28.100

 118618986.226 7  92430446.24245                  22572426.414
                  22572434.215                          42.400          30.400

 110466802.601 8  86078128.40546                  21021122.523
                  21021126.926                          51.200          40.700

 121576116.816 7  94734740.42045                  23135154.813
                  23135161.094                          45.300          30.800

 118438486.378 7  92289701.94645                  22538077.930
                  22538087.711                          46.300          34.900

 16  1  1  0  2 27.0000000  0  7G01G03G06G16G23G31G32
 131177308.778 6 102216112.64443                  24962247.633
                  24962265.824                          37.000          19.000

 107913991.623 8  84088899.27547                  20535346.039
                  20535354.914                          49.600          42.300

 124467801.480 7  96987964.94244                  23685444.063
                  23685454.813                          42.000          28.600

 118616023.709 7  92428137.79345                  22571862.352
                  22571869.797                          42.400          30.400

 110465221.336 8  86076896.24846                  21020821.273
                  21020826.242                          51.300          40.500

 121579356.607 7  94737264.94545                  23135772.492
                  23135777.742                          45.400          30.900

 118441581.327 7  92292113.59145                  22538666.984
                  22538676.250                          46.400          34.800

 16  1  1  0  2 28.0000000  0  7G01G03G06G16G23G31G32
 131180821.236 6 102218849.62443                  24962915.797
                  24962934.410                          36.900          18.600

 107915301.298 8  84089919.80447                  20535594.977
                  20535604.168                          49.600          42.600

 124466933.605 6  96987288.67644                  23685278.672
                  23685289.527                          41.800          28.300

 118613061.755 7  92425829.78845                  22571298.664
                  22571306.578                          42.300          30.800

 110463640.469 8  86075664.40646                  21020520.875
                  21020524.961                          51.100          41.200

 121582596.717 7  94739789.71645                  23136388.242
                  23136394.234                          45.600          30.900

 118444676.692 7  92294525.56445                  22539255.773
                  22539265.117                          46.100          34.500

 16  1  1  0  2 29.0000000  0  7G01G03G06G16G23G31G32
 131184333.569 6 102221586.52143                  24963584.438
                  24963602.855                          36.500          18.600

 107916611.442 8  84090940.69947                  20535844.656
                  20535853.422                          49.800          42.600

 124466066.266 6  96986612.83644                  23685113.477
                  23685124.625                          41.600          27.700

 118610100.103 7  92423522.00445                  22570735.742
                  22570743.148                          42.100          30.200

 110462059.781 8  86074432.70146                  21020219.773
                  21020224.148                          51.400          40.800

 121585836.911 7  94742314.55845                  23137005.031
                  23137010.949                          45.200          30.500

 118447772.252 7  92296937.69245                  22539845.148
                  22539854.297                          46.600          34.100

 16  1  1  0  2 30.0000000  0  7G01G03G06G16G23G31G32
 131187845.877 6 102224323.38343                  24964252.391
                  24964271.148                          36.200          19.900

 107917922.249 8  84091962.10347                  20536094.078
                  20536103.258                          50.100          42.600

 124465199.584 7  96985937.49844                  23684948.734
                  23684959.660                          42.100          28.300

 118607138.914 7  92421214.59145                  22570171.195
                  22570179.379                          42.100          30.900

 110460479.442 8  86073201.26646                  21019919.188
                  21019923.574                          51.300          40.500

 121589077.337 7  94744839.57745                  23137621.648
                  23137627.313                          45.400          30.800

 118450868.123 7  92299350.05645                  22540433.813
                  22540443.723                          46.600          34.400

 16  1  1  0  2 31.0000000  0  7G01G03G06G16G23G31G32
 131191358.144 6 102227060.21043                  24964921.211
                  24964939.891                          36.100          19.300

 107919233.617 8  84092983.95247                  20536343.531
                  20536352.480                          50.700          42.500

 124464333.576 7  96985262.68944                  23684784.133
                  23684795.230                          42.100          28.700

 118604178.137 7  92418907.50044                  22569608.555
                  22569616.121                          42.700          29.800

 110458899.389 8  86071970.05946                  21019618.766
                  21019623.301                          51.000          40.100

 121592317.923 7  94747364.72945                  23138238.164
                  23138243.813                          45.200          31.600

 118453964.269 7  92301762.63845                  22541023.609
                  22541032.309                          46.700          34.700

 16  1  1  0  2 32.0000000  0  7G01G03G06G16G23G31G32
 131194870.399 5 102229797.01743                  24965589.453
                  24965607.930                          35.600          18.600

 107920545.592 8  84094006.26447                  20536593.297
                  20536602.477                          50.000          42.100

 124463468.212 7  96984588.38144                  23684619.258
                  23684630.445                          42.300          28.700

 118601217.784 7  92416600.72945                  22569045.383
                  22569052.699                          43.100          30.200

 110457319.629 8  86070739.08446                  21019317.734
                  21019322.426                          50.800          40.200

 121595558.713 7  94749890.03545                  23138854.531
                  23138860.609                          45.600          31.300

 118457060.707 7  92304175.45045                  22541612.719
                  22541621.887                          46.700          34.900

 16  1  1  0  2 33.0000000  0  7G01G03G06G16G23G31G32
 131198382.621 5 102232533.79143                  24966257.391
                  24966275.914                          35.900          18.300

 107921858.207 8  84095029.08347                  20536843.273
                  20536851.855                          50.000          42.800

 124462603.451 6  96983914.54444                  23684454.508
                  23684465.605                          41.900          27.900

 118598257.882 7  92414294.31245                  22568481.773
                  22568489.398                          42.700          30.500

 110455740.182 8  86069508.34946                  21019017.008
                  21019021.684                          50.700          40.000

 121598799.717 7  94752415.50945                  23139471.195
                  23139477.328                          45.600          31.700

 118460157.470 7  92306588.50645                  22542201.891
                  22542211.090                          46.700          35.000

 16  1  1  0  2 34.0000000  0  7G01G03G06G16G23G31G32
 131201894.887 5 102235270.61243                  24966925.875
                  24966944.324                          35.600          18.600

 107923171.388 8  84096052.34247                  20537092.961
                  20537101.902                          50.100          42.500

 124461739.390 7  96983241.25444                  23684290.672
                  23684301.293                          42.200          29.300

 118595298.401 7  92411988.23045                  22567919.148
                  22567926.457                          42.300          30.200

 110454161.041 8  86068277.85246                  21018716.242
                  21018721.449                          51.100          39.900

 121602040.895 7  94754941.11845                  23140088.250
                  23140093.988                          44.900          31.500

 118463254.520 7  92309001.78945                  22542791.180
                  22542800.219                          46.500          34.400

 16  1  1  0  2 35.0000000  0  7G01G03G06G16G23G31G32
 131205406.979 5 102238007.29243                  24967594.203
                  24967612.723                          35.400          19.000

 107924485.120 8  84097076.03047                  20537343.125
                  20537351.789                          50.500          42.300

 124460875.877 7  96982568.38844                  23684126.016
                  23684137.105                          42.200          27.600

 118592339.294 7  92409682.44045                  22567355.344
                  22567363.250                          42.800          30.300

 110452582.115 8  86067047.51646                  21018416.445
                  21018420.723                          51.400          39.900

 121605282.207 7  94757466.82745                  23140704.750
                  23140710.813                          45.000          31.500

 118466351.802 7  92311415.25545                  22543381.063
                  22543389.824                          46.300          34.800

 16  1  1  0  2 36.0000000  0  7G01G03G06G16G23G31G32
 131208919.005 5 102240743.93643                  24968262.234
                  24968281.195                          35.500          19.300

 107925799.403 8  84098100.14247                  20537592.750
                  20537602.223                          50.200          42.500

 124460012.995 7  96981896.01044                  23683961.289
                  23683972.973                          42.100          28.000

 118589380.581 7  92407376.95545                  22566791.984
                  22566800.273                          42.800          30.200

 110451003.441 8  86065817.37946                  21018115.453
                  21018120.387                          50.700          39.900

 121608523.687 7  94759992.67145                  23141321.516
                  23141327.906                          44.900          30.900

 118469449.335 7  92313828.91245                  22543970.336
                  22543979.086                          45.900          34.000

 16  1  1  0  2 37.0000000  0  7G01G03G06G16G23G31G32
 131212431.117 6 102243480.63243                  24968930.352
                  24968949.441                          36.200          19.300

 107927114.352 8  84099124.77947                  20537843.227
                  20537852.113                          50.000          42.800

 124459150.796 7  96981224.16244                  23683797.219
                  23683808.992                          42.300          28.500

 118586422.341 7  92405071.84245                  22566229.367
                  22566237.137                          43.200          30.700

 110449425.151 8  86064587.54646                  21017815.555
                  21017820.387                          50.500          40.000

 121611765.412 7  94762518.70445                  23141939.016
                  23141944.457                          44.700          31.300

 118472547.212 7  92316242.83545                  22544559.242
                  22544568.324                          45.700          34.600

 16  1  1  0  2 38.0000000  0  7G01G03G06G16G23G31G32
 131215943.160 6 102246217.29043                  24969599.555
                  24969617.855                          36.000          18.600

 107928429.881 8  84100149.86147                  20538093.672
                  20538102.438                          49.900          43.100

 124458289.239 7  96980552.82544                  23683633.617
                  23683644.977                          42.500          28.400

 118583464.504 7  92402767.04144                  22565666.539
                  22565674.277                          43.000          29.800

 110447847.112 8  86063357.90346                  21017514.656
                  21017519.676                          50.300          40.300

 121615007.298 7  94765044.87245                  23142555.836
                  23142561.242                          44.300          30.900

 118475645.361 7  92318656.97745                  22545148.992
                  22545158.148                          46.000          34.500

 16  1  1  0  2 39.0000000  0  7G01G03G06G16G23G31G32
 131219455.109 6 102248953.86943                  24970266.789
                  24970285.688                          36.500          19.300

 107929745.916 8  84101175.34947                  20538343.891
                  20538352.898                          49.800          42.900

 124457428.237 7  96979881.91744                  23683469.891
                  23683481.605                          42.600          28.900

 118580507.045 7  92400462.53145                  22565103.570
                  22565111.543                          43.100          30.200

 110446269.328 8  86062128.46746                  21017214.617
                  21017219.566                          49.800          40.300

 121618249.335 7  94767571.15445                  23143172.609
                  23143178.398                          44.400          31.000

 118478743.732 7  92321071.29045                  22545738.539
                  22545747.875                          46.100          34.700

 16  1  1  0  2 40.0000000  0  7G01G03G06G16G23G31G32
 131222967.128 6 102251690.49143                  24970935.641
                  24970953.988                          36.200          18.300

 107931062.638 8  84102201.36547                  20538594.398
                  20538603.676                          50.000          42.800

 124456567.934 7  96979211.55444                  23683305.805
                  23683317.453                          42.100          28.200

 118577550.081 7  92398158.40945                  22564540.883
                  22564549.207                          43.000          31.100

 110444691.858 8  86060899.27346                  21016914.531
                  21016919.594                          50.200          40.100

 121621491.589 7  94770097.60445                  23143789.688
                  23143795.266                          44.600          31.200

 118481842.459 7  92323485.87745                  22546328.289
                  22546337.473                          46.400          34.700

 16  1  1  0  2 41.0000000  0  7G01G03G06G16G23G31G32
 131226479.013 6 102254427.01042                  24971603.820
                  24971622.637                          36.000          17.800

 107932379.911 8  84103227.80747                  20538845.258
                  20538854.301                          49.500          42.500

 124455708.265 7  96978541.68144                  23683142.125
                  23683153.727                          42.500          29.100

 118574593.490 7  92395854.57545                  22563978.469
                  22563986.488                          43.300          31.400

 110443114.698 8  86059670.31946                  21016614.070
                  21016619.438                          50.600          40.000

 121624734.046 7  94772624.20445                  23144405.969
                  23144412.602                          43.800          30.800

 118484941.456 7  92325900.68045                  22546917.969
                  22546927.297                          46.000          34.300

 16  1  1  0  2 42.0000000  0  7G01G03G06G16G23G31G32
 131229990.918 6 102257163.54843                  24972271.547
                  24972290.750                          36.400          18.600

 107933697.783 8  84104254.72547                  20539095.891
                  20539104.957                          49.300          42.000

 124454849.213 7  96977872.28944                  23682979.031
                  23682990.227                          43.200          28.900

 118571637.327 7  92393551.08245                  22563416.102
                  22563423.445                          43.700          31.300

 110441537.797 8  86058441.56746                  21016314.078
                  21016319.199                          50.400          40.200

 121627976.642 7  94775150.91045                  23145023.188
                  23145029.715                          44.300          31.100

 118488040.700 7  92328315.66345                  22547507.836
                  22547516.914                          45.800          34.300

 16  1  1  0  2 43.0000000  0  7G01G03G06G16G23G31G32
 131233502.749 6 102259900.02543                  24972939.867
                  24972958.867                          36.200          18.600

 107935016.219 8  84105282.07147                  20539346.891
                  20539355.848                          49.300          42.600

 124453990.798 7  96977203.39544                  23682815.555
                  23682827.113                          43.000          29.100

 118568681.580 7  92391247.91345                  22562853.672
                  22562861.121                          44.100          31.100

 110439961.183 8  86057213.03446                  21016014.563
                  21016018.914                          50.700          40.500

 121631219.444 7  94777677.79245                  23145640.359
                  23145647.246                          42.400          31.400

 118491140.238 7  92330730.88645                  22548096.867
                  22548107.031                          45.800          34.400

 16  1  1  0  2 44.0000000  0  7G01G03G06G16G23G31G32
 131237014.553 6 102262636.49343                  24973607.898
                  24973627.238                          36.000          19.300

 107936335.269 8  84106309.90247                  20539597.555
                  20539607.117                          49.600          42.700

 124453133.015 7  96976534.99344                  23682652.602
                  23682664.297                          42.600          28.800

 118565726.257 7  92388945.06345                  22562291.617
                  22562298.668                          43.800          31.000

 110438384.862 8  86055984.73246                  21015714.086
                  21015719.246                          49.900          40.500

 121634462.413 7  94780204.80245                  23146257.563
                  23146264.242                          42.900          30.500

 118494240.053 7  92333146.33045                  22548687.586
                  22548697.113                          46.100          35.100

 16  1  1  0  2 45.0000000  0  7G01G03G06G16G23G31G32
 131240526.424 6 102265373.00543                  24974276.922
                  24974295.594                          36.700          19.000

 107937654.978 8  84107338.24847                  20539848.906
                  20539858.137                          49.800          42.900

 124452275.940 7  96975867.14844                  23682489.203
                  23682500.859                          42.100          28.900

 118562771.439 7  92386642.61745                  22561729.109
                  22561736.863                          44.300          30.100

 110436808.903 8  86054756.71546                  21015414.727
                  21015419.293                          50.000          39.800

 121637705.650 7  94782732.02045                  23146875.008
                  23146881.199                          43.400          31.700

 118497340.226 7  92335562.04845                  22549277.305
                  22549286.777                          46.300          34.400

 16  1  1  0  2 46.0000000  0  7G01G03G06G16G23G31G32
 131244038.106 6 102268109.38743                  24974945.008
                  24974963.879                          36.900          19.000

 107938975.192 8  84108366.98447                  20540100.156
                  20540109.129                          49.600          42.700

 124451419.434 7  96975199.73744                  23682326.461
                  23682337.844                          42.200          28.500

 118559816.963 7  92384340.43144                  22561166.922
                  22561174.227                          43.800          29.600

 110435233.159 8  86053528.87146                  21015114.609
                  21015119.527                          50.100          40.100

 121640949.013 7  94785259.33545                  23147492.359
                  23147498.660                          43.400          31.500

 118500440.610 7  92337977.92545                  22549867.406
                  22549876.691                          46.400          34.000

 16  1  1  0  2 47.0000000  0  7G01G03G06G16G23G31G32
 131247549.844 6 102270845.82242                  24975612.992
                  24975632.121                          37.100          17.800

 107940296.043 8  84109396.22147                  20540351.680
                  20540360.438                          49.600          42.400

 124450563.591 6  96974532.84344                  23682163.461
                  23682174.609                          41.400          28.600

 118556862.960 7  92382038.60945                  22560605.000
                  22560612.406                          44.200          30.400

 110433657.753 8  86052301.28346                  21014815.258
                  21014819.883                          50.100          39.900

 121644192.574 7  94787786.79445                  23148109.672
                  23148115.980                          43.200          31.900

 118503541.340 7  92340394.07845                  22550457.516
                  22550466.707                          46.900          34.200

 16  1  1  0  2 48.0000000  0  7G01G03G06G16G23G31G32
 131251061.472 6 102273582.15243                  24976281.313
                  24976300.242                          37.500          18.300

 107941617.422 8  84110425.86847                  20540602.805
                  20540612.023                          49.300          42.500

 124449708.331 6  96973866.40244                  23682000.383
                  23682012.230                          41.500          28.900

 118553909.306 7  92379737.06145                  22560042.383
                  22560050.105                          43.700          31.000

 110432082.562 8  86051073.86546                  21014515.195
                  21014520.148                          50.000          40.200

 121647436.254 7  94790314.35045                  23148726.539
                  23148733.031                          43.300          32.300

 118506642.271 7  92342810.38145                  22551047.813
                  22551056.992                          46.600          34.700

 16  1  1  0  2 49.0000000  0  7G01G03G06G16G23G31G32
 131254573.064 6 102276318.44642                  24976950.297
                  24976968.043                          37.300          17.800

 107942939.383 8  84111455.96247                  20540854.250
                  20540863.473                          49.500          42.100

 124448853.706 6  96973200.45644                  23681838.000
                  23681849.691                          40.500          28.300

 118550956.048 7  92377435.82045                  22559480.500
                  22559487.902                          43.900          30.400

 110430507.664 8  86049846.67146                  21014215.258
                  21014220.164                          50.800          40.300

 121650680.115 7  94792842.04745                  23149343.820
                  23149350.238                          44.100          32.100

 118509743.459 7  92345226.89145                  22551637.969
                  22551646.934                          46.400          34.400

 16  1  1  0  2 50.0000000  0  7G01G03G06G16G23G31G32
 131258084.690 6 102279054.75343                  24977618.375
                  24977636.578                          36.900          19.300

 107944262.015 8  84112486.58647                  20541106.031
                  20541115.184                          49.700          42.800

 124447999.751 6  96972535.03844                  23681675.359
                  23681687.230                          41.400          29.300

 118548003.319 7  92375134.98945                  22558918.375
                  22558926.406                          43.900          30.500

 110428933.114 8  86048619.74746                  21013916.055
                  21013920.711                          50.400          40.400

 121653924.232 7  94795369.95945                  23149961.063
                  23149967.594                          44.500          32.000

 118512845.012 7  92347643.68045                  22552227.844
                  22552237.016                          46.600          33.900

 16  1  1  0  2 51.0000000  0  7G01G03G06G16G23G31G32
 131261596.217 6 102281790.98643                  24978286.992
                  24978304.809                          37.300          19.300

 107945585.168 8  84113517.62047                  20541358.391
                  20541366.887                          50.000          42.600

 124447146.393 6  96971870.07844                  23681513.023
                  23681524.520                          41.400          28.300

 118545050.900 7  92372834.41245                  22558356.531
                  22558364.398                          43.400          30.200

 110427358.796 8  86047393.01046                  21013616.383
                  21013621.102                          50.400          40.000

 121657168.464 7  94797897.95245                  23150578.508
                  23150585.484                          45.300          32.200

 118515946.800 7  92350060.65445                  22552817.977
                  22552827.496                          46.600          34.200

 16  1  1  0  2 52.0000000  0  7G01G03G06G16G23G31G32
 131265107.764 6 102284527.23943                  24978954.789
                  24978973.191                          37.500          19.300

 107946908.957 8  84114549.14547                  20541610.000
                  20541619.023                          49.600          42.800

 124446293.755 6  96971205.69444                  23681351.297
                  23681362.332                          41.600          28.900

 118542099.010 7  92370534.24745                  22557795.539
                  22557802.605                          43.400          30.700

 110425784.822 8  86046166.53946                  21013316.906
                  21013321.551                          50.100          40.000

 121660412.947 7  94800426.14945                  23151195.977
                  23151202.926                          44.900          31.800

 118519048.905 7  92352477.87245                  22553408.195
                  22553417.863                          46.900          34.000

 16  1  1  0  2 53.0000000  0  7G01G03G06G16G23G31G32
 131268619.220 6 102287263.43943                  24979623.414
                  24979641.344                          37.300          19.000

 107948233.313 8  84115581.11147                  20541861.727
                  20541870.719                          49.000          42.900

 124445441.671 6  96970541.73844                  23681188.766
                  23681200.711                          41.800          29.200

 118539147.459 7  92368234.34745                  22557233.180
                  22557240.793                          43.700          30.400

 110424211.098 8  86044940.25746                  21013017.352
                  21013022.371                          49.800          39.800

 121663657.588 7  94802954.46845                  23151813.445
                  23151820.031                          45.100          32.200

 118522151.273 7  92354895.30145                  22553998.828
                  22554008.340                          46.800          34.600

 16  1  1  0  2 54.0000000  0  7G01G03G06G16G23G31G32
 131272130.640 6 102289999.60243                  24980290.492
                  24980309.508                          37.400          19.600

 107949558.249 8  84116613.52547                  20542114.406
                  20542123.008                          48.800          43.400

 124444590.269 6  96969878.31044                  23681026.891
                  23681038.340                          41.700          28.600

 118536196.358 7  92365934.79444                  22556671.734
                  22556679.375                          43.400          29.900

 110422637.646 8  86043714.19246                  21012718.008
                  21012722.766                          50.000          40.000

 121666902.373 7  94805482.89045                  23152431.086
                  23152437.398                          45.600          32.200

 118525253.910 7  92357312.94345                  22554589.094
                  22554598.398                          46.100          34.300

 16  1  1  0  2 55.0000000  0  7G01G03G06G16G23G31G32
 131275642.077 6 102292735.79043                  24980959.391
                  24980977.438                          36.800          19.600

 107950883.785 8  84117646.41647                  20542366.180
                  20542375.391                          49.300          43.300

 124443739.469 7  96969215.34944                  23680864.750
                  23680876.297                          42.300          29.600

 118533245.674 7  92363635.56245                  22556110.297
                  22556118.031                          43.100          30.400

 110421064.519 8  86042488.38046                  21012418.398
                  21012423.590                          50.300          40.200

 121670147.403 7  94808011.50445                  23153048.453
                  23153055.133                          45.500          32.100

 118528356.853 7  92359730.81845                  22555179.578
                  22555188.809                          45.700          34.400

 16  1  1  0  2 56.0000000  0  7G01G03G06G16G23G31G32
 131279153.396 6 102295471.87643                  24981626.633
                  24981645.918                          37.100          19.900

 107952209.871 8  84118679.73047                  20542618.578
                  20542627.727                          49.100          43.000

 124442889.291 7  96968552.88144                  23680703.219
                  23680714.859                          42.100          29.200

 118530295.403 7  92361336.65444                  22555548.805
                  22555556.457                          43.200          29.800

 110419491.628 8  86041262.75246                  21012119.297
                  21012124.105                          50.400          39.900

 121673392.567 7  94810540.23245                  23153665.680
                  23153671.980                          44.800          33.000

 118531460.051 7  92362148.89245                  22555770.023
                  22555779.117                          45.600          34.500

 16  1  1  0  2 57.0000000  0  7G01G03G06G16G23G31G32
 131282664.730 6 102298207.97743                  24982295.813
                  24982314.043                          36.900          19.900

 107953536.613 8  84119713.55347                  20542871.508
                  20542880.484                          49.000          43.200

 124442039.798 7  96967890.93744                  23680541.344
                  23680552.680                          42.400          28.500

 118527345.575 7  92359038.09145                  22554988.141
                  22554994.914                          43.500          30.000

 110417919.066 8  86040037.38046                  21011820.188
                  21011824.898                          50.600          40.400

 121676637.939 7  94813069.11445                  23154283.242
                  23154290.039                          44.700          31.900

 118534563.551 7  92364567.20145                  22556360.977
                  22556369.707                          45.800          34.400

 16  1  1  0  2 58.0000000  0  7G01G03G06G16G23G31G32
 131286176.022 6 102300944.04143                  24982964.617
                  24982981.816                          37.000          19.600

 107954863.924 8  84120747.81547                  20543123.773
                  20543132.648                          49.500          43.400

 124441190.904 7  96967229.45844                  23680380.141
                  23680391.309                          42.500          29.600

 118524396.194 7  92356739.87245                  22554426.625
                  22554433.844                          43.900          30.400

 110416346.828 8  86038812.26146                  21011520.727
                  21011525.672                          50.700          40.200

 121679883.522 7  94815598.16845                  23154901.094
                  23154907.941                          45.000          31.900

 118537667.344 7  92366985.73845                  22556951.164
                  22556960.434                          46.000          34.200

 16  1  1  0  2 59.0000000  0  7G01G03G06G16G23G31G32
 131289687.326 6 102303680.11443                  24983632.711
                  24983650.227                          36.000          19.300

 107956191.866 8  84121782.57147                  20543376.641
                  20543385.551                          49.800          43.300

 124440342.710 7  96966568.52644                  23680219.391
                  23680229.922                          42.300          29.300

 118521447.265 7  92354442.00945                  22553865.367
                  22553873.020                          43.800          30.700

 110414774.885 8  86037587.37546                  21011221.797
                  21011226.555                          50.900          40.500

 121683129.309 7  94818127.37845                  23155518.195
                  23155525.703                          44.700          32.100

 118540771.459 7  92369404.52145                  22557542.133
                  22557551.363                          45.700          34.400

 16  1  1  0  3  0.0000000  0  7G01G03G06G16G23G31G32
 131293198.526 6 102306416.08843                  24984301.070
                  24984318.465                          36.400          19.900

 107957520.353 8  84122817.75847                  20543629.484
                  20543638.145                          49.800          43.200

 124439495.128 7  96965908.07144                  23680057.539
                  23680068.215                          42.000          28.700

 118518498.677 7  92352144.41545                  22553304.125
                  22553311.605                          43.900          30.300

 110413203.180 8  86036362.66646                  21010922.250
                  21010927.277                          50.500          40.300

 121686375.236 7  94820656.69345                  23156136.203
                  23156143.098                          44.800          32.600

 118543875.776 7  92371823.47345                  22558132.641
                  22558142.023                          45.900          34.600

 16  1  1  0  3  1.0000000  0  7G01G03G06G16G23G31G32
 131296709.715 6 102309152.08443                  24984968.117
                  24984986.527                          36.800          19.300

 107958849.430 8  84123853.39947                  20543882.320
                  20543891.063                          49.400          43.400

 124438648.122 6  96965248.07044                  23679896.492
                  23679907.219                          41.800          28.900

 118515550.554 7  92349847.18645                  22552743.461
                  22552751.191                          44.300          30.400

 110411631.769 8  86035138.19046                  21010623.469
                  21010628.398                          50.000          40.600

 121689621.332 7  94823186.13845                  23156753.797
                  23156760.488                          44.900          31.800

 118546980.421 7  92374242.67045                  22558723.586
                  22558732.988                          46.400          34.200

 16  1  1  0  3  2.0000000  0  7G01G03G06G16G23G31G32
 131300220.864 6 102311888.03943                  24985635.938
                  24985654.871                          36.900          19.300

 107960179.120 8  84124889.52347                  20544135.422
                  20544144.215                          49.300          42.800

 124437801.829 7  96964588.62444                  23679735.648
                  23679746.480                          42.400          29.100

 118512602.849 7  92347550.27645                  22552182.242
                  22552189.770                          44.500          31.300

 110410060.680 8  86033913.96446                  21010324.453
                  21010329.426                          50.000          40.300

 121692867.646 7  94825715.76045                  23157371.336
                  23157378.262                          45.000          31.600

 118550085.340 7  92376662.08645                  22559314.125
                  22559323.926                          46.300          34.400

 16  1  1  0  3  3.0000000  0  7G01G03G06G16G23G31G32
 131303731.994 6 102314623.98043                  24986304.820
                  24986322.691                          37.200          20.100

 107961509.410 8  84125926.10947                  20544388.773
                  20544397.254                          49.600          42.800

 124436956.154 7  96963929.65244                  23679574.453
                  23679585.418                          42.600          29.800

 118509655.602 7  92345253.71945                  22551621.359
                  22551628.926                          44.300          30.000

 110408489.877 8  86032689.96846                  21010025.672
                  21010030.160                          50.100          40.200

 121696114.158 7  94828245.54045                  23157989.109
                  23157995.887                          45.200          31.300

 118553190.556 7  92379081.73045                  22559905.203
                  22559914.672                          46.200          34.400

 16  1  1  0  3  4.0000000  0  7G01G03G06G16G23G31G32
 131307243.027 6 102317359.84443                  24986973.227
                  24986991.180                          37.100          19.600

 107962840.267 8  84126963.13947                  20544641.898
                  20544650.605                          49.100          42.800

 124436111.099 7  96963271.17144                  23679414.125
                  23679424.402                          43.200          29.600

 118506708.745 7  92342957.47145                  22551060.758
                  22551068.512                          44.200          30.400

 110406919.351 8  86031466.17946                  21009726.711
                  21009731.488                          50.000          40.200

 121699360.831 7  94830775.44645                  23158606.961
                  23158613.805                          45.200          31.500

 118556296.064 7  92381501.60745                  22560496.539
                  22560505.441                          46.600          34.000

 16  1  1  0  3  5.0000000  0  7G01G03G06G16G23G31G32
 131310754.151 6 102320095.79343                  24987641.586
                  24987659.043                          37.300          19.300

 107964171.749 8  84128000.65647                  20544895.055
                  20544903.629                          49.400          42.700

 124435266.717 7  96962613.21644                  23679253.445
                  23679263.902                          42.600          29.300

 118503762.349 7  92340661.58545                  22550499.688
                  22550507.836                          44.300          30.400

 110405349.152 8  86030242.64746                  21009428.305
                  21009432.746                          50.000          40.200

 121702607.742 7  94833305.53845                  23159224.813
                  23159231.434                          45.000          31.900

 118559401.858 7  92383921.70045                  22561087.305
                  22561096.727                          46.800          34.300

 16  1  1  0  3  6.0000000  0  7G01G03G06G16G23G31G32
 131314265.141 6 102322831.63143                  24988309.805
                  24988327.238                          37.700          20.100

 107965503.794 8  84129038.61647                  20545148.297
                  20545157.289                          49.400          42.500

 124434422.951 7  96961955.73644                  23679092.344
                  23679103.480                          42.600          29.300

 118500816.347 7  92338366.01145                  22549939.492
                  22549947.168                          44.300          30.600

 110403779.234 8  86029019.33946                  21009129.078
                  21009133.859                          50.200          39.900

 121705854.799 7  94835835.74145                  23159842.977
                  23159849.539                          44.700          32.100

 118562507.912 7  92386341.99345                  22561678.398
                  22561687.832                          46.600          34.500

 16  1  1  0  3  7.0000000  0  7G01G03G06G16G23G31G32
 131317776.077 6 102325567.42243                  24988977.914
                  24988994.895                          38.300          20.400

 107966836.407 8  84130077.01647                  20545401.984
                  20545411.391                          49.600          43.000

 124433579.794 7  96961298.73044                  23678932.031
                  23678942.641                          43.000          29.200

 118497870.761 7  92336070.75445                  22549378.648
                  22549386.727                          43.600          31.100

 110402209.563 8  86027796.21946                  21008830.648
                  21008835.152                          50.500          40.000

 121709101.988 7  94838366.04445                  23160460.000
                  23160467.098                          44.900          31.900

 118565614.210 7  92388762.48245                  22562269.250
                  22562278.348                          46.300          34.700

 16  1  1  0  3  8.0000000  0  7G01G03G06G16G23G31G32
 131321286.960 6 102328303.14943                  24989647.023
                  24989663.145                          38.300          20.100

 107968169.581 8  84131115.85247                  20545655.781
                  20545664.984                          49.500          42.900

 124432737.249 7  96960642.20045                  23678771.391
                  23678782.348                          42.900          30.100

 118494925.541 7  92333775.77545                  22548818.508
                  22548826.301                          44.000          30.900

 110400640.140 8  86026573.29246                  21008531.922
                  21008536.262                          50.300          39.700

 121712349.341 7  94840896.47345                  23161078.438
                  23161084.738                          44.300          31.600

 118568720.790 7  92391183.18945                  22562860.750
                  22562869.684                          46.200          34.600

 16  1  1  0  3  9.0000000  0  7G01G03G06G16G23G31G32
 131324797.843 6 102331038.89243                  24990314.906
                  24990331.395                          38.900          19.300

 107969503.394 8  84132155.18847                  20545909.258
                  20545918.715                          48.400          42.700

 124431895.369 7  96959986.19044                  23678611.727
                  23678622.633                          42.900          29.900

 118491980.811 7  92331481.18345                  22548258.109
                  22548265.555                          44.100          30.200

 110399071.072 8  86025350.63946                  21008233.500
                  21008237.707                          50.200          40.000

 121715596.916 7  94843427.07845                  23161696.664
                  23161702.824                          43.700          31.800

 118571827.693 7  92393604.15045                  22563451.773
                  22563460.852                          46.000          34.000

 16  1  1  0  3 10.0000000  0  7G01G03G06G16G23G31G32
 131328308.679 6 102333774.60043                  24990982.008
                  24990999.500                          38.900          19.900

 107970837.786 8  84133194.97647                  20546163.289
                  20546172.547                          48.800          42.200

 124431054.148 7  96959330.69144                  23678451.516
                  23678461.879                          43.000          29.800

 118489036.512 7  92329186.92645                  22547697.875
                  22547705.855                          43.700          30.600

 110397502.286 8  86024128.20846                  21007934.703
                  21007939.492                          50.500          39.900

 121718844.677 7  94845957.83245                  23162314.539
                  23162320.855                          44.000          31.400

 118574934.856 7  92396025.31445                  22564043.242
                  22564052.141                          46.300          34.400

 16  1  1  0  3 11.0000000  0  7G01G03G06G16G23G31G32
 131331819.414 6 102336510.23243                  24991651.117
                  24991667.637                          39.200          20.600

 107972172.717 8  84134235.18147                  20546417.352
                  20546426.461                          49.500          42.700

 124430213.492 7  96958675.64044                  23678291.727
                  23678302.211                          42.900          29.900

 118486092.590 7  92326892.96445                  22547137.773
                  22547145.449                          44.300          30.400

 110395933.742 8  86022905.97046                  21007636.359
                  21007641.020                          50.600          39.700

 121722092.574 7  94848488.68145                  23162932.148
                  23162938.719                          44.700          31.300

 118578042.249 7  92398446.65345                  22564634.547
                  22564643.258                          46.100          34.100

 16  1  1  0  3 12.0000000  0  7G01G03G06G16G23G31G32
 131335330.169 6 102339245.88643                  24992318.414
                  24992335.633                          39.500          20.900

 107973508.292 8  84135275.88947                  20546671.539
                  20546680.613                          49.400          42.400

 124429373.534 7  96958021.12844                  23678131.641
                  23678142.906                          42.900          28.900

 118483149.108 7  92324599.34445                  22546577.359
                  22546584.773                          44.500          30.200

 110394365.542 8  86021683.99546                  21007338.023
                  21007342.719                          50.100          39.800

 121725340.701 7  94851019.71745                  23163551.047
                  23163556.570                          44.500          31.900

 118581149.985 7  92400868.25845                  22565226.352
                  22565235.039                          46.000          34.900

 16  1  1  0  3 13.0000000  0  7G01G03G06G16G23G31G32
 131338840.896 6 102341981.50643                  24992986.461
                  24993003.707                          39.000          20.600

 107974844.453 8  84136317.05447                  20546926.031
                  20546934.828                          49.400          42.800

 124428534.192 7  96957367.10044                  23677971.617
                  23677982.734                          43.400          29.400

 118480206.091 7  92322306.08645                  22546017.742
                  22546025.285                          44.300          30.400

 110392797.615 8  86020462.23346                  21007039.352
                  21007044.461                          50.400          40.100

 121728589.008 7  94853550.88645                  23164169.125
                  23164174.609                          44.700          31.200

 118584257.993 7  92403290.08245                  22565817.313
                  22565826.457                          45.900          34.500

 16  1  1  0  3 14.0000000  0  7G01G03G06G16G23G31G32
 131342351.558 6 102344717.07743                  24993654.867
                  24993671.852                          38.700          20.400

 107976181.202 8  84137358.67547                  20547180.352
                  20547189.117                          49.700          42.400

 124427695.485 7  96956713.56545                  23677812.117
                  23677823.148                          43.100          30.200

 118477263.483 7  92320013.14945                  22545457.391
                  22545465.121                          43.700          31.500

 110391229.988 8  86019240.71146                  21006741.352
                  21006745.684                          50.500          39.900

 121731837.450 7  94856082.16545                  23164787.570
                  23164793.121                          43.800          31.600

 118587366.274 7  92405712.11845                  22566409.227
                  22566417.723                          46.200          34.700

 16  1  1  0  3 15.0000000  0  7G01G03G06G16G23G31G32
 131345862.240 6 102347452.66643                  24994322.016
                  24994340.063                          39.200          19.300

 107977518.573 8  84138400.78747                  20547434.625
                  20547443.680                          49.600          42.400

 124426857.476 7  96956060.57344                  23677652.508
                  23677663.785                          42.700          29.100

 118474321.325 7  92317720.56245                  22544897.328
                  22544905.383                          43.300          30.600

 110389662.682 8  86018019.43346                  21006442.930
                  21006447.402                          50.300          39.900

 121735086.163 7  94858613.65945                  23165405.422
                  23165410.977                          43.900          32.100

 118590474.888 7  92408134.41345                  22567000.898
                  22567009.297                          46.000          34.200

 16  1  1  0  3 16.0000000  0  7G01G03G06G16G23G31G32
 131349372.839 6 102350188.19343                  24994990.445
                  24995008.262                          39.400          19.900

 107978856.509 8  84139443.33347                  20547689.711
                  20547698.602                          49.600          42.700

 124426020.048 7  96955408.03344                  23677492.898
                  23677504.441                          42.400          29.400

 118471379.580 7  92315428.30645                  22544338.078
                  22544346.203                          43.100          30.500

 110388095.629 8  86016798.35146                  21006144.734
                  21006149.520                          50.500          39.800

 121738334.978 7  94861145.22945                  23166023.664
                  23166029.656                          44.600          31.600

 118593583.771 7  92410556.91845                  22567592.039
                  22567600.629                          46.100          34.700

 16  1  1  0  3 17.0000000  0  7G01G03G06G16G23G31G32
 131352883.426 6 102352923.71243                  24995658.586
                  24995676.113                          39.900          20.900

 107980195.039 8  84140486.34347                  20547944.289
                  20547953.215                          49.600          43.200

 124425183.273 7  96954756.00844                  23677334.344
                  23677345.531                          42.400          29.700

 118468438.268 7  92313136.37345                  22543778.195
                  22543785.988                          43.700          30.200

 110386528.887 8  86015577.51846                  21005846.602
                  21005851.168                          50.400          40.000

 121741584.020 7  94863676.97445                  23166642.266
                  23166647.906                          44.600          32.300

 118596692.934 7  92412979.63845                  22568184.000
                  22568192.398                          46.100          34.400

 16  1  1  0  3 18.0000000  0  7G01G03G06G16G23G31G32
 131356393.962 6 102355659.18743                  24996327.000
                  24996344.000                          40.100          20.100

 107981534.174 8  84141529.82547                  20548199.172
                  20548207.695                          48.800          43.100

 124424347.136 7  96954104.48244                  23677175.055
                  23677186.207                          42.400          29.400

 118465497.360 7  92310844.76345                  22543218.688
                  22543226.340                          44.100          30.400

 110384962.422 8  86014356.89446                  21005548.375
                  21005553.121                          49.500          39.900

 121744833.211 7  94866208.83245                  23167260.359
                  23167266.207                          44.500          32.300

 118599802.364 7  92415402.57145                  22568775.648
                  22568783.949                          46.000          34.100

 16  1  1  0  3 19.0000000  0  7G01G03G06G16G23G31G32
 131359904.443 6 102358394.62043                  24996994.789
                  24997012.027                          40.500          20.600

 107982873.881 8  84142573.75147                  20548454.047
                  20548462.684                          49.000          42.500

 124423511.635 7  96953453.44244                  23677016.328
                  23677026.969                          42.500          29.800

 118462556.878 7  92308553.48645                  22542658.953
                  22542666.313                          43.900          30.700

 110383396.231 8  86013136.49246                  21005250.828
                  21005255.000                          49.700          40.100

 121748082.561 7  94868740.80945                  23167878.578
                  23167884.113                          44.800          31.400

 118602912.072 7  92417825.71545                  22569367.773
                  22569375.922                          46.400          33.800

 16  1  1  0  3 20.0000000  0  7G01G03G06G16G23G31G32
 131363414.902 6 102361130.04943                  24997662.844
                  24997680.125                          39.900          20.900

 107984214.181 8  84143618.14247                  20548708.969
                  20548718.055                          49.300          42.400

 124422676.783 7  96952802.90844                  23676857.313
                  23676868.570                          42.700          28.700

 118459616.835 7  92306262.55645                  22542099.742
                  22542106.953                          44.400          30.700

 110381830.366 8  86011916.33846                  21004952.336
                  21004956.930                          50.000          40.100

 121751332.124 7  94871272.95445                  23168497.609
                  23168502.828                          44.700          32.100

 118606022.079 7  92420249.09245                  22569958.781
                  22569967.918                          46.600          33.400

 16  1  1  0  3 21.0000000  0  7G01G03G06G16G23G31G32
 131366925.349 6 102363865.44943                  24998331.344
                  24998348.461                          39.900          20.400

 107985555.114 8  84144663.02847                  20548964.234
                  20548973.266                          49.000          42.100

 124421842.613 7  96952152.91044                  23676698.344
                  23676710.238                          42.600          29.400

 118456677.267 7  92303971.98945                  22541540.133
                  22541547.453                          44.500          31.000

 110380264.821 8  86010696.43446                  21004654.492
                  21004659.008                          49.600          39.600

 121754581.955 7  94873805.30345                  23169115.664
                  23169120.926                          44.700          32.700

 118609132.395 7  92422672.71745                  22570550.797
                  22570559.465                          46.000          33.700

 16  1  1  0  3 22.0000000  0  7G01G03G06G16G23G31G32
 131370435.685 6 102366600.77543                  24998999.445
                  24999016.215                          39.700          20.900

 107986896.569 8  84145708.31447                  20549219.430
                  20549228.348                          49.100          42.500

 124421008.972 7  96951503.32044                  23676539.406
                  23676551.035                          42.300          29.000

 118453738.037 7  92301681.68445                  22540981.000
                  22540988.211                          44.400          30.700

 110378699.491 8  86009476.69946                  21004356.766
                  21004361.121                          49.200          40.000

 121757831.870 7  94876337.72645                  23169733.711
                  23169739.332                          45.000          32.800

 118612242.916 7  92425096.49745                  22571142.672
                  22571151.461                          46.000          33.300

 16  1  1  0  3 23.0000000  0  7G01G03G06G16G23G31G32
 131373945.973 6 102369336.04843                  24999667.445
                  24999684.027                          39.700          20.600

 107988238.595 7  84146754.04647                  20549474.797
                  20549483.836                          47.900          42.600

 124420175.979 7  96950854.23944                  23676381.563
                  23676392.758                          42.700          29.400

 118450799.221 7  92299391.70245                  22540421.375
                  22540429.027                          44.400          30.300

 110377134.420 8  86008257.16546                  21004058.797
                  21004063.461                          48.000          39.600

 121761081.913 7  94878870.23945                  23170352.398
                  23170357.785                          44.300          32.500

 118615353.696 7  92427520.47845                  22571734.430
                  22571743.133                          46.000          34.100

 16  1  1  0  3 24.0000000  0  7G01G03G06G16G23G31G32
 131377456.301 6 102372071.36343                  25000334.727
                  25000352.055                          39.900          20.400

 107989581.289 8  84147800.30247                  20549730.234
                  20549739.313                          48.300          42.600

 124419343.700 7  96950205.71244                  23676222.625
                  23676234.246                          43.000          28.700

 118447860.905 7  92297102.10045                  22539862.305
                  22539869.730                          44.500          30.500

 110375569.740 8  86007037.93046                  21003761.094
                  21003765.902                          48.800          39.700

 121764332.246 7  94881402.98245                  23170970.539
                  23170976.773                          44.800          33.000

 118618464.849 7  92429944.74645                  22572326.891
                  22572335.438                          46.100          34.200

 16  1  1  0  3 25.0000000  0  7G01G03G06G16G23G31G32
 131380966.511 6 102374806.58243                  25001003.078
                  25001020.344                          39.600          20.400

 107990924.483 8  84148846.94347                  20549985.531
                  20549994.953                          48.600          42.800

 124418511.970 7  96949557.61144                  23676064.836
                  23676075.672                          42.700          29.700

 118444922.945 7  92294812.78945                  22539302.977
                  22539310.949                          44.600          30.900

 110374005.279 8  86005818.87246                  21003463.414
                  21003467.969                          49.300          39.400

 121767582.659 7  94883935.78045                  23171589.617
                  23171594.879                          44.900          31.900

 118621576.213 7  92432369.18245                  22572918.383
                  22572927.289                          46.200          34.500

 16  1  1  0  3 26.0000000  0  7G01G03G06G16G23G31G32
 131384476.705 6 102377541.81443                  25001670.703
                  25001687.934                          40.000          20.100

 107992268.297 8  84149894.07747                  20550241.398
                  20550250.758                          48.400          42.400

 124417680.904 7  96948910.02444                  23675906.539
                  23675917.652                          43.200          28.300

 118441985.420 7  92292523.81045                  22538743.984
                  22538751.719                          44.500          30.800

 110372441.117 8  86004600.04646                  21003165.914
                  21003170.688                          49.500          39.900

 121770833.280 7  94886468.74845                  23172207.672
                  23172213.941                          45.000          31.800

 118624687.860 7  92434793.83845                  22573510.883
                  22573519.945                          46.300          34.500

 16  1  1  0  3 27.0000000  0  7G01G03G06G16G23G31G32
 131387986.884 6 102380276.98543                  25002337.977
                  25002356.434                          40.100          19.900

 107993612.720 8  84150941.67547                  20550497.180
                  20550506.012                          48.100          42.500

 124416850.510 7  96948262.96244                  23675748.242
                  23675759.527                          42.700          29.800

 118439048.358 7  92290235.19245                  22538185.242
                  22538192.680                          44.700          30.000

 110370877.265 8  86003381.46046                  21002868.195
                  21002873.000                          48.800          39.800

 121774084.113 7  94889001.88145                  23172826.781
                  23172832.688                          45.000          31.700

 118627799.815 7  92437218.73645                  22574102.672
                  22574111.891                          46.000          34.700

 16  1  1  0  3 28.0000000  0  7G01G03G06G16G23G31G32
 131391497.025 6 102383012.15343                  25003006.594
                  25003024.805                          40.000          20.400

 107994957.760 8  84151989.75847                  20550753.344
                  20550762.441                          48.600          42.400

 124416020.744 7  96947616.39944                  23675590.188
                  23675601.406                          42.600          29.400

 118436111.741 7  92287946.92045                  22537626.063
                  22537633.906                          44.900          30.400

 110369313.724 8  86002163.12146                  21002570.773
                  21002575.461                          49.500          40.500

 121777335.130 7  94891535.15145                  23173445.258
                  23173451.125                          45.800          32.700

 118630912.083 7  92439643.88245                  22574695.141
                  22574703.648                          46.000          34.400

 16  1  1  0  3 29.0000000  0  7G01G03G06G16G23G31G32
 131395007.102 6 102385747.27043                  25003674.844
                  25003691.984                          39.900          20.100

 107996303.365 8  84153038.27847                  20551009.422
                  20551018.500                          49.100          42.800

 124415191.619 7  96946970.33044                  23675432.867
                  23675444.102                          42.600          28.900

 118433175.524 7  92285658.96945                  22537067.453
                  22537075.590                          44.600          30.900

 110367750.459 8  86000944.99646                  21002273.453
                  21002277.934                          49.700          40.500

 121780586.318 7  94894068.55945                  23174063.555
                  23174069.699                          46.000          32.700

 118634024.595 7  92442069.20645                  22575287.281
                  22575296.262                          45.800          34.000

 16  1  1  0  3 30.0000000  0  7G01G03G06G16G23G31G32
 131398517.124 6 102388482.37243                  25004342.758
                  25004360.414                          40.100          19.900

 107997649.528 8  84154087.24147                  20551265.422
                  20551274.398                          48.300          42.600

 124414363.068 7  96946324.70644                  23675275.039
                  23675286.309                          42.600          28.600

 118430239.695 7  92283371.31445                  22536509.000
                  22536517.016                          44.200          30.600

 110366187.453 8  85999727.06846                  21001976.055
                  21001980.445                          48.700          40.800

 121783837.657 7  94896602.09145                  23174681.930
                  23174688.355                          46.300          33.000

 118637137.357 7  92444494.73045                  22575880.000
                  22575888.977                          46.000          34.900

 16  1  1  0  3 31.0000000  0  7G01G03G06G16G23G31G32
 131402027.065 6 102391217.38743                  25005010.656
                  25005028.359                          40.100          20.100

 107998996.255 8  84155136.64247                  20551521.820
                  20551530.410                          48.400          42.600

 124413535.176 7  96945679.60444                  23675117.000
                  23675129.238                          43.400          29.700

 118427304.303 7  92281083.99645                  22535950.383
                  22535958.176                          43.900          30.600

 110364624.715 8  85998509.34746                  21001678.336
                  21001682.973                          49.200          40.800

 121787089.157 7  94899135.74845                  23175301.305
                  23175307.262                          46.600          32.200

 118640250.390 7  92446920.47145                  22576472.508
                  22576480.992                          45.900          34.800

 16  1  1  0  3 32.0000000  0  7G01G03G06G16G23G31G32
 131405537.018 6 102393952.41743                  25005678.234
                  25005696.117                          40.300          20.100

 108000343.598 8  84156186.51847                  20551778.117
                  20551787.086                          48.600          42.700

 124412707.925 7  96945034.98644                  23674959.570
                  23674971.281                          42.700          29.000

 118424369.341 7  92278797.02345                  22535392.289
                  22535399.613                          43.700          30.400

 110363062.300 8  85997291.88446                  21001381.219
                  21001385.875                          49.800          40.500

 121790340.865 7  94901669.56745                  23175919.797
                  23175926.082                          45.600          31.800

 118643363.724 7  92449346.43845                  22577065.016
                  22577073.934                          46.100          34.500

 16  1  1  0  3 33.0000000  0  7G01G03G06G16G23G31G32
 131409046.957 6 102396687.42643                  25006346.523
                  25006364.328                          39.900          19.900

 108001691.578 8  84157236.88947                  20552034.859
                  20552043.984                          48.700          42.600

 124411881.350 7  96944390.89844                  23674802.453
                  23674813.828                          42.900          28.900

 118421434.858 7  92276510.41145                  22534833.703
                  22534840.992                          43.900          30.500

 110361500.210 8  85996074.67846                  21001083.508
                  21001088.465                          49.200          40.600

 121793592.771 7  94904203.53545                  23176538.867
                  23176544.898                          45.800          32.800

 118646477.400 7  92451772.67345                  22577657.773
                  22577666.293                          46.000          34.800

 16  1  1  0  3 34.0000000  0  7G01G03G06G16G23G31G32
 131412556.834 6 102399422.37643                  25007014.258
                  25007032.500                          39.500          19.900

 108003040.117 8  84158287.70047                  20552291.133
                  20552299.926                          48.700          42.400

 124411055.392 7  96943747.29944                  23674645.633
                  23674656.859                          42.400          29.800

 118418500.784 7  92274224.11645                  22534275.445
                  22534282.738                          44.100          30.400

 110359938.403 8  85994857.68346                  21000786.664
                  21000791.473                          49.700          39.700

 121796844.857 7  94906737.64945                  23177157.328
                  23177163.684                          44.800          31.800

 118649591.276 7  92454199.06345                  22578250.172
                  22578258.781                          46.200          34.900

 16  1  1  0  3 35.0000000  0  7G01G03G06G16G23G31G32
 131416066.664 6 102402157.31043                  25007682.078
                  25007700.055                          39.800          19.300

 108004389.257 7  84159338.97547                  20552548.320
                  20552557.164                          47.700          42.700

 124410230.073 7  96943104.19644                  23674488.875
                  23674499.730                          42.500          29.500

 118415567.135 7  92271938.16244                  22533717.117
                  22533724.297                          44.200          29.700

 110358376.862 8  85993640.89646                  21000489.117
                  21000494.621                          49.600          40.200

 121800097.117 7  94909271.89145                  23177776.109
                  23177782.434                          44.700          31.400

 118652705.480 7  92456625.71545                  22578842.664
                  22578851.516                          46.300          34.600

 16  1  1  0  3 36.0000000  0  7G01G03G06G16G23G31G32
 131419576.440 6 102404892.18143                  25008349.664
                  25008368.273                          39.600          19.900

 108005738.971 7  84160390.70347                  20552805.047
                  20552813.895                          47.800          42.900

 124409405.384 7  96942461.58444                  23674331.453
                  23674343.125                          42.800          29.400

 118412633.901 7  92269652.52744                  22533159.063
                  22533166.414                          44.300          29.500

 110356815.612 8  85992424.33946                  21000192.172
                  21000197.176                          49.300          40.300

 121803349.527 7  94911806.24645                  23178394.813
                  23178401.348                          44.700          32.300

 118655819.933 7  92459052.55645                  22579435.836
                  22579444.125                          46.700          34.400

 16  1  1  0  3 37.0000000  0  7G01G03G06G16G23G31G32
 131423086.187 6 102407627.04643                  25009017.961
                  25009036.445                          39.700          20.100

 108007089.270 8  84161442.88247                  20553061.828
                  20553070.734                          48.600          42.400

 124408581.331 7  96941819.46044                  23674174.719
                  23674186.559                          43.000          29.300

 118409701.103 7  92267367.23945                  22532600.648
                  22532608.582                          44.600          31.200

 110355254.656 8  85991208.01146                  20999894.828
                  20999900.012                          49.900          40.100

 121806602.107 7  94914340.74145                  23179014.352
                  23179019.750                          44.700          32.100

 118658934.681 7  92461479.63045                  22580028.258
                  22580036.785                          45.800          34.500

 16  1  1  0  3 38.0000000  0  7G01G03G06G16G23G31G32
 131426595.946 6 102410361.91043                  25009686.031
                  25009704.043                          39.500          20.100

 108008440.223 8  84162495.57547                  20553319.078
                  20553327.969                          48.500          42.500

 124407757.978 7  96941177.89244                  23674017.867
                  23674029.758                          43.000          28.700

 118406768.773 7  92265082.31445                  22532042.508
                  22532050.066                          44.100          30.600

 110353694.049 8  85989991.95746                  20999598.172
                  20999603.090                          49.900          40.400

 121809854.956 7  94916875.43745                  23179633.320
                  23179639.023                          44.700          31.600

 118662049.766 7  92463906.97045                  22580620.977
                  22580629.355                          45.600          34.500

 16  1  1  0  3 39.0000000  0  7G01G03G06G16G23G31G32
 131430105.563 6 102413096.67943                  25010353.313
                  25010371.961                          39.500          20.600

 108009791.663 8  84163548.64947                  20553576.031
                  20553584.879                          49.000          42.700

 124406935.165 7  96940536.74044                  23673860.922
                  23673872.758                          43.000          27.900

 118403836.801 7  92262797.67045                  22531484.883
                  22531492.426                          43.700          30.700

 110352133.624 8  85988776.03846                  20999301.242
                  20999306.082                          50.200          40.400

 121813107.869 7  94919410.18345                  23180251.813
                  23180257.836                          44.900          31.500

 118665165.007 7  92466334.42945                  22581213.516
                  22581222.281                          45.800          34.900

 16  1  1  0  3 40.0000000  0  7G01G03G06G16G23G31G32
 131433615.222 6 102415831.48343                  25011021.820
                  25011039.586                          39.700          21.100

 108011143.779 8  84164602.24047                  20553833.492
                  20553842.188                          49.300          42.600

 124406113.053 7  96939896.13044                  23673704.695
                  23673716.770                          42.000          28.900

 118400905.296 7  92260513.38545                  22530926.633
                  22530934.359                          43.700          30.900

 110350573.584 8  85987560.42946                  20999004.336
                  20999009.391                          50.400          40.300

 121816361.046 7  94921945.13745                  23180871.156
                  23180876.852                          45.400          31.300

 118668280.635 7  92468762.18845                  22581806.820
                  22581815.336                          46.200          34.800

 16  1  1  0  3 41.0000000  0  7G01G03G06G16G23G31G32
 131437124.746 6 102418566.17243                  25011688.547
                  25011707.574                          39.500          20.900

 108012496.379 8  84165656.22247                  20554090.977
                  20554100.016                          49.300          43.000

 124405291.502 7  96939255.96644                  23673548.352
                  23673560.211                          42.200          28.700

 118397974.143 7  92258229.37145                  22530369.438
                  22530377.023                          44.000          30.200

 110349013.722 8  85986344.95046                  20998707.492
                  20998712.254                          50.300          40.900

 121819614.310 7  94924480.16345                  23181489.883
                  23181496.289                          45.400          32.300

 118671396.442 7  92471190.08645                  22582399.813
                  22582407.805                          46.300          34.800

 16  1  1  0  3 42.0000000  0  7G01G03G06G16G23G31G32
 131440634.333 6 102421300.91843                  25012356.406
                  25012375.086                          39.900          20.100

 108013849.657 8  84166710.72147                  20554348.594
                  20554357.559                          50.000          42.900

 124404470.637 6  96938616.33644                  23673392.344
                  23673403.770                          41.800          28.100

 118395043.514 7  92255945.77745                  22529811.484
                  22529819.664                          43.800          30.500

 110347454.248 8  85985129.77846                  20998410.766
                  20998416.070                          50.200          40.000

 121822867.831 7  94927015.38645                  23182109.492
                  23182114.941                          45.500          31.000

 118674512.598 7  92473618.25645                  22582992.328
                  22583001.289                          46.100          34.500

 16  1  1  0  3 43.0000000  0  7G01G03G06G16G23G31G32
 131444143.802 6 102424035.56443                  25013024.906
                  25013043.359                          39.400          19.900

 108015203.489 8  84167765.65247                  20554606.086
                  20554614.863                          49.500          43.000

 124403650.406 6  96937977.19544                  23673236.813
                  23673247.965                          41.600          28.200

 118392113.267 7  92253662.47345                  22529254.164
                  22529262.273                          43.400          30.500

 110345895.030 8  85983914.80746                  20998114.250
                  20998119.277                          49.700          39.800

 121826121.506 7  94929550.73645                  23182728.445
                  23182734.328                          45.900          31.600

 118677629.019 7  92476046.63645                  22583585.641
                  22583594.180                          46.300          34.700

 16  1  1  0  3 44.0000000  0  7G01G03G06G16G23G31G32
 131447653.260 6 102426770.18643                  25013692.461
                  25013711.512                          39.400          20.400

 108016557.904 8  84168821.04547                  20554863.859
                  20554872.809                          49.500          42.600

 124402830.819 6  96937338.55744                  23673079.984
                  23673092.109                          41.400          29.000

 118389183.463 7  92251379.51445                  22528695.938
                  22528704.074                          43.100          30.900

 110344336.096 8  85982700.05346                  20997817.266
                  20997822.699                          49.700          40.100

 121829375.339 7  94932086.20845                  23183347.430
                  23183353.082                          45.500          30.500

 118680745.714 7  92478475.22445                  22584178.547
                  22584186.961                          46.600          34.600

 16  1  1  0  3 45.0000000  0  7G01G03G06G16G23G31G32
 131451162.691 6 102429504.80043                  25014361.172
                  25014379.039                          39.500          19.600

 108017912.974 8  84169876.94447                  20555121.859
                  20555130.738                          49.200          42.600

 124402011.919 6  96936700.45544                  23672924.008
                  23672935.988                          41.300          29.300

 118386254.119 7  92249096.91645                  22528139.211
                  22528146.355                          43.000          31.100

 110342777.520 8  85981485.58246                  20997520.813
                  20997525.711                          49.000          40.500

 121832629.415 7  94934621.86345                  23183966.711
                  23183973.004                          45.000          30.400

 118683862.730 7  92480904.06745                  22584771.766
                  22584780.070                          46.300          34.500

 16  1  1  0  3 46.0000000  0  7G01G03G06G16G23G31G32
 131454672.057 6 102432239.36643                  25015028.773
                  25015046.801                          38.400          20.400

 108019268.597 8  84170933.27047                  20555380.063
                  20555388.469                          49.000          42.600

 124401193.577 6  96936062.79344                  23672768.805
                  23672780.457                          41.200          29.400

 118383325.178 7  92246814.62445                  22527581.656
                  22527589.426                          43.500          31.100

 110341219.183 8  85980271.29246                  20997224.234
                  20997229.648                          48.800          40.300

 121835883.643 7  94937157.63345                  23184585.773
                  23184591.836                          45.300          31.200

 118686979.979 7  92483333.09445                  22585365.016
                  22585373.594                          46.500          34.600

 16  1  1  0  3 47.0000000  0  7G01G03G06G16G23G31G32
 131458181.405 6 102434973.91943                  25015696.508
                  25015714.895                          38.400          18.600

 108020624.791 8  84171990.04047                  20555637.883
                  20555646.363                          49.200          42.600

 124400375.931 6  96935425.66544                  23672613.055
                  23672624.797                          41.100          28.600

 118380396.669 7  92244532.66745                  22527024.602
                  22527032.094                          43.600          30.800

 110339661.150 8  85979057.24446                  20996927.820
                  20996932.770                          49.100          40.300

 121839138.021 7  94939693.52545                  23185205.219
                  23185210.813                          45.400          31.400

 118690097.528 7  92485762.34945                  22585958.078
                  22585966.719                          46.300          34.500

 16  1  1  0  3 48.0000000  0  7G01G03G06G16G23G31G32
 131461690.637 6 102437708.37343                  25016363.523
                  25016382.621                          38.800          19.600

 108021981.537 8  84173047.24947                  20555895.797
                  20555904.715                          49.100          43.000

 124399558.831 6  96934788.96744                  23672457.461
                  23672469.211                          41.300          27.600

 118377468.539 7  92242251.00845                  22526467.266
                  22526474.926                          43.400          31.100

 110338103.347 8  85977843.37446                  20996631.266
                  20996636.449                          49.600          40.400

 121842392.544 7  94942229.53345                  23185824.992
                  23185830.395                          44.600          30.900

 118693215.284 7  92488191.76345                  22586552.031
                  22586559.883                          46.300          34.600

 16  1  1  0  3 49.0000000  0  7G01G03G06G16G23G31G32
 131465199.918 6 102440442.89143                  25017031.633
                  25017050.609                          39.000          18.600

 108023338.957 8  84174104.97847                  20556154.258
                  20556162.930                          49.600          42.600

 124398742.456 6  96934152.83144                  23672302.508
                  23672313.801                          41.400          27.900

 118374540.940 7  92239969.76545                  22525909.906
                  22525917.703                          43.900          30.700

 110336545.944 8  85976629.80846                  20996335.320
                  20996340.406                          50.000          40.400

 121845647.351 7  94944765.75445                  23186444.047
                  23186449.859                          45.000          31.000

 118696333.445 7  92490621.49845                  22587144.992
                  22587153.047                          46.200          34.400

 16  1  1  0  3 50.0000000  0  7G01G03G06G16G23G31G32
 131468709.145 6 102443177.33542                  25017699.680
                  25017718.305                          39.000          17.800

 108024696.928 8  84175163.13247                  20556412.695
                  20556421.496                          48.900          42.600

 124397926.709 6  96933517.18944                  23672147.633
                  23672158.855                          41.600          27.900

 118371613.726 7  92237688.82345                  22525353.141
                  22525360.863                          43.900          31.100

 110334988.771 8  85975416.43046                  20996038.844
                  20996043.531                          49.200          40.300

 121848902.277 7  94947302.07345                  23187063.094
                  23187069.273                          45.300          31.900

 118699451.828 7  92493051.40645                  22587737.969
                  22587746.395                          46.400          34.400

 16  1  1  0  3 51.0000000  0  7G01G03G06G16G23G31G32
 131472218.337 6 102445911.76243                  25018366.992
                  25018385.770                          38.700          18.300

 108026055.507 8  84176221.76447                  20556671.047
                  20556680.422                          49.400          42.600

 124397111.615 7  96932882.05944                  23671992.602
                  23672004.027                          42.100          27.500

 118368686.950 7  92235408.22545                  22524796.125
                  22524803.793                          44.300          31.400

 110333431.923 8  85974203.30546                  20995742.727
                  20995747.555                          49.300          40.500

 121852157.394 7  94949838.54345                  23187682.820
                  23187688.543                          46.000          32.400

 118702570.487 7  92495481.52045                  22588331.789
                  22588340.051                          46.600          34.200

 16  1  1  0  3 52.0000000  0  7G01G03G06G16G23G31G32
 131475727.401 6 102448646.09843                  25019034.828
                  25019053.777                          39.000          18.300

 108027414.643 8  84177280.83547                  20556929.734
                  20556938.465                          49.500          42.500

 124396297.100 7  96932247.37644                  23671836.805
                  23671848.961                          42.100          27.800

 118365760.585 7  92233127.94645                  22524239.047
                  22524247.043                          44.200          30.700

 110331875.326 8  85972990.37546                  20995446.469
                  20995451.281                          49.800          40.000

 121855412.665 7  94952375.12745                  23188302.008
                  23188308.098                          46.000          31.900

 118705689.437 7  92497911.87145                  22588925.602
                  22588933.656                          46.700          34.000

 16  1  1  0  3 53.0000000  0  7G01G03G06G16G23G31G32
 131479236.470 6 102451380.44143                  25019702.625
                  25019721.230                          38.500          18.600

 108028774.332 8  84178340.33347                  20557188.242
                  20557197.289                          49.600          42.700

 124395483.209 6  96931613.18044                  23671682.070
                  23671694.293                          41.700          27.500

 118362834.627 7  92230847.98245                  22523682.555
                  22523690.215                          44.100          30.600

 110330318.993 8  85971777.65346                  20995150.336
                  20995155.078                          49.600          40.100

 121858668.102 7  94954911.85045                  23188922.008
                  23188928.391                          45.700          32.300

 118708808.618 7  92500342.39645                  22589518.789
                  22589527.156                          46.500          34.300

 16  1  1  0  3 54.0000000  0  7G01G03G06G16G23G31G32
 131482745.520 6 102454114.76143                  25020370.836
                  25020388.961                          38.300          19.300

 108030134.706 8  84179400.36347                  20557447.453
                  20557456.031                          50.200          42.900

 124394670.037 6  96930979.53444                  23671527.484
                  23671539.242                          41.400          28.800

 118359909.162 7  92228568.40445                  22523125.609
                  22523133.371                          44.300          31.100

 110328763.053 8  85970565.22646                  20994853.992
                  20994859.047                          50.300          40.500

 121861923.803 7  94957448.78045                  23189541.570
                  23189547.215                          45.800          32.800

 118711928.158 7  92502773.20845                  22590112.367
                  22590120.949                          46.200          34.600

 16  1  1  0  3 55.0000000  0  7G01G03G06G16G23G31G32
 131486254.547 6 102456849.05043                  25021038.383
                  25021056.566                          38.300          20.100

 108031495.652 8  84180460.84347                  20557706.242
                  20557715.324                          49.900          42.900

 124393857.499 6  96930346.38244                  23671372.359
                  23671384.875                          40.900          28.500

 118356984.129 7  92226289.16345                  22522569.117
                  22522576.957                          44.600          30.200

 110327207.365 8  85969353.00446                  20994558.328
                  20994563.176                          50.000          40.700

 121865179.632 7  94959985.80945                  23190161.523
                  23190167.379                          45.600          31.500

 118715047.991 7  92505204.25245                  22590706.000
                  22590714.434                          46.400          33.800

 16  1  1  0  3 56.0000000  0  7G01G03G06G16G23G31G32
 131489763.485 6 102459583.29243                  25021706.125
                  25021724.348                          38.600          19.600

 108032857.166 8  84181521.76547                  20557965.461
                  20557974.371                          49.400          42.700

 124393045.572 6  96929713.70544                  23671219.227
                  23671230.145                          41.600          28.800

 118354059.508 7  92224010.24645                  22522012.906
                  22522020.543                          44.700          30.500

 110325651.962 8  85968141.00646                  20994261.773
                  20994266.844                          49.900          40.200

 121868435.636 7  94962522.96945                  23190780.516
                  23190786.520                          45.800          31.500

 118718168.049 7  92507635.46245                  22591299.930
                  22591308.414                          46.000          34.200

 16  1  1  0  3 57.0000000  0  7G01G03G06G16G23G31G32
 131493272.366 6 102462317.49243                  25022373.445
                  25022392.289                          38.100          19.600

 108034219.216 8  84182583.10247                  20558224.969
                  20558233.668                          49.500          42.600

 124392234.254 6  96929081.51744                  23671063.828
                  23671075.746                          40.900          27.600

 118351135.267 7  92221731.62045                  22521455.789
                  22521463.734                          44.600          30.100

 110324096.811 8  85966929.20246                  20993966.070
                  20993971.207                          50.500          40.400

 121871691.804 7  94965060.25545                  23191400.164
                  23191406.137                          45.300          31.600

 118721288.372 7  92510066.88145                  22591893.742
                  22591902.375                          45.700          34.000

 16  1  1  0  3 58.0000000  0  7G01G03G06G16G23G31G32
 131496781.337 6 102465051.75543                  25023041.297
                  25023059.879                          38.000          19.300

 108035581.991 8  84183645.00847                  20558484.000
                  20558492.410                          49.300          42.500

 124391423.683 6  96928449.90744                  23670909.711
                  23670921.590                          40.900          28.400

 118348211.591 7  92219453.43745                  22520899.445
                  22520907.559                          44.400          30.600

 110322542.065 8  85965717.71246                  20993670.016
                  20993674.922                          49.800          40.300

 121874948.249 7  94967597.77145                  23192020.227
                  23192025.410                          45.200          32.100

 118724409.091 7  92512498.61145                  22592487.367
                  22592496.078                          45.800          34.800

 16  1  1  0  3 59.0000000  0  7G01G03G06G16G23G31G32
 131500290.153 6 102467785.88043                  25023709.586
                  25023727.660                          38.300          19.900

 108036945.212 8  84184707.25447                  20558743.164
                  20558752.266                          49.000          42.500

 124390613.623 6  96927818.69144                  23670755.609
                  23670766.828                          40.300          27.400

 118345288.195 7  92217175.46645                  22520343.602
                  22520351.074                          44.400          31.300

 110320987.476 8  85964506.34646                  20993374.539
                  20993379.426                          49.600          39.900

 121878204.731 7  94970135.30745                  23192639.344
                  23192645.484                          45.400          32.100

 118727529.947 7  92514930.43645                  22593081.438
                  22593089.891                          45.800          34.200

 16  1  1  0  4  0.0000000  0  7G01G03G06G16G23G31G32
 131503798.872 6 102470519.95143                  25024376.539
                  25024395.559                          38.400          18.600

 108038309.069 8  84185770.00147                  20559002.734
                  20559011.789                          48.900          42.700

 124389804.238 6  96927187.99944                  23670601.281
                  23670612.988                          40.300          27.800

 118342365.299 7  92214897.88445                  22519787.453
                  22519794.742                          43.700          30.900

 110319433.230 8  85963295.24246                  20993078.273
                  20993083.320                          49.800          39.800

 121881461.450 7  94972673.02445                  23193259.391
                  23193265.336                          44.900          32.100

 118730651.139 7  92517362.52845                  22593675.672
                  22593683.941                          45.800          34.400

 16  1  1  0  4  1.0000000  0  7G01G03G06G16G23G31G32
 131507307.612 6 102473254.03142                  25025044.461
                  25025063.020                          38.600          17.800

 108039673.515 8  84186833.20347                  20559262.844
                  20559271.523                          49.400          42.600

 124388995.488 6  96926557.80944                  23670448.281
                  23670459.336                          40.000          28.100

 118339442.808 7  92212620.62445                  22519231.523
                  22519239.141                          44.000          31.400

 110317879.284 8  85962084.38046                  20992782.805
                  20992787.910                          49.800          40.400

 121884718.315 7  94975210.85445                  23193879.344
                  23193885.238                          45.300          32.800

 118733772.588 7  92519794.81945                  22594269.586
                  22594277.695                          45.800          34.700

 16  1  1  0  4  2.0000000  0  7G01G03G06G16G23G31G32
 131510816.319 6 102475988.06742                  25025712.523
                  25025730.727                          39.200          17.400

 108041038.575 8  84187896.89147                  20559522.195
                  20559531.309                          49.500          42.700

 124388187.405 6  96925928.13444                  23670292.969
                  23670305.551                          40.400          26.500

 118336520.793 7  92210343.72845                  22518675.320
                  22518682.938                          43.900          30.600

 110316325.640 8  85960873.75646                  20992487.047
                  20992492.395                          50.200          40.000

 121887975.397 7  94977748.85645                  23194499.156
                  23194505.211                          45.000          32.200

 118736894.342 7  92522227.35545                  22594863.719
                  22594871.805                          46.200          34.300

 16  1  1  0  4  3.0000000  0  7G01G03G06G16G23G31G32
 131514324.937 6 102478722.03442                  25026379.727
                  25026397.645                          39.200          17.800

 108042404.177 8  84188960.99347                  20559782.203
                  20559790.793                          49.300          42.600

 124387379.896 6  96925298.90944                  23670140.320
                  23670151.699                          40.900          27.800

 118333599.135 7  92208067.11345                  22518119.203
                  22518127.094                          43.900          30.800

 110314772.253 8  85959663.32246                  20992191.266
                  20992196.395                          50.300          39.600

 121891232.599 7  94980286.94545                  23195118.094
                  23195125.020                          45.000          32.000

 118740016.329 7  92524660.07045                  22595457.781
                  22595465.852                          46.300          34.200

 16  1  1  0  4  4.0000000  0  7G01G03G06G16G23G31G32
 131517833.500 6 102481455.97242                  25027047.539
                  25027065.781                          38.700          17.800

 108043770.409 8  84190025.59147                  20560042.258
                  20560050.824                          49.900          42.500

 124386573.085 6  96924670.23144                  23669986.320
                  23669998.008                          41.100          27.400

 118330677.942 7  92205790.86745                  22517563.461
                  22517571.125                          44.100          30.700

 110313219.177 8  85958453.13146                  20991896.313
                  20991900.910                          50.400          40.000

 121894490.008 7  94982825.19445                  23195738.547
                  23195744.820                          45.500          32.300

 118743138.626 7  92527093.02645                  22596052.016
                  22596060.199                          46.200          34.800

 16  1  1  0  4  5.0000000  0  7G01G03G06G16G23G31G32
 131521342.045 6 102484189.90943                  25027715.297
                  25027733.418                          38.900          19.000

 108045137.187 8  84191090.61047                  20560302.445
                  20560311.152                          49.300          42.300

 124385766.888 6  96924042.02344                  23669832.906
                  23669844.430                          41.100          26.700

 118327757.191 7  92203514.95645                  22517007.234
                  22517015.230                          44.000          30.900

 110311666.362 8  85957243.15146                  20991600.273
                  20991605.426                          49.700          40.500

 121897747.564 7  94985363.55345                  23196358.531
                  23196364.832                          45.500          32.600

 118746261.164 7  92529526.17545                  22596646.219
                  22596654.383                          46.100          34.600

 16  1  1  0  4  6.0000000  0  7G01G03G06G16G23G31G32
 131524850.602 6 102486923.84943                  25028382.906
                  25028401.094                          38.600          18.600

 108046504.564 8  84192156.09547                  20560562.633
                  20560571.164                          49.600          42.100

 124384961.315 6  96923414.29844                  23669679.641
                  23669691.293                          40.900          27.200

 118324836.832 7  92201239.36145                  22516451.680
                  22516459.566                          44.000          30.900

 110310113.871 8  85956033.41646                  20991305.344
                  20991309.930                          50.000          40.700

 121901005.334 7  94987902.08845                  23196978.273
                  23196984.363                          45.400          31.700

 118749384.013 7  92531959.56145                  22597239.852
                  22597248.375                          46.400          33.600

 16  1  1  0  4  7.0000000  0  7G01G03G06G16G23G31G32
 131528359.066 6 102489657.73642                  25029050.719
                  25029068.484                          38.900          17.800

 108047872.564 8  84193222.06947                  20560823.000
                  20560831.680                          49.900          42.300

 124384156.406 6  96922787.08744                  23669526.758
                  23669537.730                          41.100          27.500

 118321916.977 7  92198964.16545                  22515896.344
                  22515903.672                          43.900          31.400

 110308561.684 8  85954823.92446                  20991009.883
                  20991014.609                          49.900          40.300

 121904263.297 7  94990440.77445                  23197598.188
                  23197604.492                          45.500          32.300

 118752507.127 7  92534393.15345                  22597834.625
                  22597843.027                          46.400          34.000

 16  1  1  0  4  8.0000000  0  7G01G03G06G16G23G31G32
 131531867.471 6 102492391.56442                  25029718.633
                  25029735.988                          38.900          17.800

 108049241.134 8  84194288.48447                  20561083.063
                  20561092.059                          49.800          42.600

 124383352.145 6  96922160.39044                  23669373.797
                  23669385.332                          40.900          27.100

 118318997.503 7  92196689.26145                  22515340.336
                  22515348.094                          44.700          30.900

 110307009.782 8  85953614.64746                  20990714.695
                  20990718.941                          49.900          40.400

 121907521.410 7  94992979.57345                  23198218.227
                  23198224.215                          45.400          32.100

 118755630.537 7  92536826.97945                  22598429.430
                  22598437.551                          46.600          33.800

 16  1  1  0  4  9.0000000  0  7G01G03G06G16G23G31G32
 131535375.836 6 102495125.35242                  25030385.680
                  25030403.543                          38.800          17.800

 108050610.269 8  84195355.34747                  20561343.820
                  20561352.676                          49.500          42.500

 124382548.472 6  96921534.15044                  23669220.258
                  23669232.031                          40.800          26.900

 118316078.464 7  92194414.69345                  22514785.305
                  22514792.563                          44.800          31.000

 110305458.127 8  85952405.56846                  20990419.305
                  20990423.754                          49.500          40.100

 121910779.710 7  94995518.52145                  23198838.344
                  23198844.395                          45.600          31.800

 118758754.188 7  92539260.99345                  22599023.258
                  22599031.223                          46.000          34.200

 16  1  1  0  4 10.0000000  0  7G01G03G06G16G23G31G32
 131538884.142 6 102497859.08943                  25031053.547
                  25031070.992                          39.000          19.000

 108051980.000 8  84196422.66647                  20561604.266
                  20561613.242                          49.100          43.300

 124381745.434 6  96920908.40444                  23669067.625
                  23669079.113                          40.200          27.000

 118313159.828 7  92192140.43545                  22514229.727
                  22514237.270                          45.000          31.200

 110303906.768 8  85951196.71946                  20990123.648
                  20990128.488                          49.200          40.300

 121914038.129 7  94998057.56645                  23199458.211
                  23199464.262                          44.700          32.300

 118761878.106 7  92541695.21245                  22599618.086
                  22599626.285                          46.300          34.100

 16  1  1  0  4 11.0000000  0  7G01G03G06G16G23G31G32
 131542392.416 6 102500592.78743                  25031720.914
                  25031739.117                          38.900          18.600

 108053350.341 8  84197490.46447                  20561865.016
                  20561874.203                          49.000          43.200

 124380943.071 6  96920283.18044                  23668914.648
                  23668926.543                          40.400          26.900

 118310241.671 7  92189866.54845                  22513674.586
                  22513682.074                          45.100          30.900

 110302355.759 8  85949988.14246                  20989828.813
                  20989833.219                          49.600          40.500

 121917296.785 7  95000596.79245                  23200078.578
                  23200084.809                          44.100          32.400

 118765002.352 7  92544129.68845                  22600212.102
                  22600220.574                          46.300          34.100

 16  1  1  0  4 12.0000000  0  7G01G03G06G16G23G31G32
 131545900.664 6 102503326.46643                  25032388.266
                  25032406.176                          39.400          18.600

 108054721.237 8  84198558.68947                  20562125.766
                  20562134.938                          48.500          42.700

 124380141.322 6  96919658.45144                  23668762.195
                  23668773.500                          40.400          27.000

 118307323.927 7  92187592.98445                  22513119.117
                  22513127.031                          44.600          30.900

 110300804.984 8  85948779.74546                  20989533.633
                  20989538.434                          48.800          40.600

 121920555.589 7  95003136.13145                  23200698.242
                  23200704.500                          44.600          32.300

 118768126.837 7  92546564.35345                  22600806.578
                  22600815.555                          46.400          34.200

 16  1  1  0  4 13.0000000  0  7G01G03G06G16G23G31G32
 131549408.809 6 102506060.10942                  25033055.344
                  25033074.000                          38.500          16.900

 108056092.711 8  84199627.37147                  20562387.008
                  20562395.949                          48.300          42.700

 124379340.224 6  96919034.21244                  23668609.313
                  23668621.285                          40.400          27.000

 118304406.606 7  92185319.74545                  22512564.234
                  22512572.094                          45.300          30.900

 110299254.533 8  85947571.60446                  20989238.586
                  20989243.098                          48.400          40.500

 121923814.572 7  95005675.60545                  23201318.367
                  23201324.750                          45.000          32.400

 118771251.612 7  92548999.23545                  22601401.195
                  22601410.039                          46.600          34.200

 16  1  1  0  4 14.0000000  0  7G01G03G06G16G23G31G32
 131552916.943 6 102508793.71842                  25033723.742
                  25033741.512                          38.100          17.800

 108057464.782 8  84200696.52347                  20562647.945
                  20562656.848                          48.700          42.800

 124378539.701 6  96918410.42944                  23668456.383
                  23668468.801                          40.300          26.200

 118301489.688 7  92183046.82945                  22512008.750
                  22512016.711                          45.200          30.400

 110297704.318 8  85946363.64346                  20988943.977
                  20988948.359                          49.100          39.900

 121927073.680 7  95008215.17745                  23201939.063
                  23201944.727                          44.700          32.400

 118774376.627 7  92551434.31045                  22601995.984
                  22602004.820                          46.500          33.800

 16  1  1  0  4 15.0000000  0  7G01G03G06G16G23G31G32
 131556425.065 6 102511527.30743                  25034391.195
                  25034408.949                          38.400          18.300

 108058837.477 8  84201766.15747                  20562908.953
                  20562917.949                          49.200          42.600

 124377739.914 6  96917787.22144                  23668305.125
                  23668316.590                          40.300          25.200

 118298573.271 7  92180774.30045                  22511454.344
                  22511461.844                          44.900          30.800

 110296154.477 8  85945155.97746                  20988648.477
                  20988653.281                          49.600          39.700

 121930333.035 7  95010754.94145                  23202559.008
                  23202564.973                          44.900          31.900

 118777501.976 7  92553869.64045                  22602590.656
                  22602599.473                          46.300          33.600

 16  1  1  0  4 16.0000000  0  7G01G03G06G16G23G31G32
 131559933.157 6 102514260.86343                  25035058.875
                  25035076.559                          38.300          18.300

 108060210.761 8  84202836.24447                  20563170.367
                  20563179.660                          49.200          42.600

 124376940.743 6  96917164.49444                  23668153.117
                  23668164.488                          40.200          25.600

 118295657.300 7  92178502.12345                  22510898.883
                  22510906.750                          44.500          31.300

 110294604.920 8  85943948.52546                  20988353.625
                  20988358.395                          49.600          39.700

 121933592.570 7  95013294.82945                  23203178.883
                  23203185.340                          44.700          31.100

 118780627.627 7  92556305.20845                  22603185.430
                  22603193.836                          45.800          34.000

 16  1  1  0  4 17.0000000  0  7G01G03G06G16G23G31G32
 131563441.160 6 102516994.37142                  25035725.914
                  25035744.262                          38.500          17.400

 108061584.637 8  84203906.80147                  20563431.930
                  20563440.898                          49.300          42.900

 124376142.216 6  96916542.27344                  23668001.188
                  23668012.344                          40.200          25.800

 118292741.724 7  92176230.24445                  22510344.547
                  22510351.879                          44.700          31.500

 110293055.628 8  85942741.29246                  20988058.648
                  20988063.516                          49.200          39.900

 121936852.243 7  95015834.82345                  23203799.336
                  23203805.242                          45.400          32.300

 118783753.527 7  92558740.97145                  22603780.422
                  22603788.910                          45.800          34.200

 16  1  1  0  4 18.0000000  0  7G01G03G06G16G23G31G32
 131566949.132 6 102519727.80342                  25036393.367
                  25036411.230                          37.800          16.900

 108062959.087 8  84204977.80247                  20563693.461
                  20563702.074                          48.700          42.900

 124375344.290 6  96915920.52144                  23667849.320
                  23667860.398                          39.900          27.100

 118289826.582 7  92173958.71345                  22509789.133
                  22509796.926                          44.500          31.200

 110291506.642 8  85941534.29346                  20987764.156
                  20987768.754                          48.600          40.200

 121940112.126 7  95018374.99345                  23204419.977
                  23204425.391                          45.800          31.500

 118786879.700 7  92561176.95045                  22604375.742
                  22604383.793                          46.000          34.600

 16  1  1  0  4 19.0000000  0  7G01G03G06G16G23G31G32
 131570457.125 6 102522461.30742                  25037061.430
                  25037079.273                          38.200          17.400

 108064334.147 8  84206049.27447                  20563955.313
                  20563964.449                          49.000          42.700

 124374547.070 6  96915299.30344                  23667697.867
                  23667708.699                          40.200          26.200

 118286911.935 7  92171687.55945                  22509234.953
                  22509242.289                          44.700          31.300

 110289957.990 8  85940327.54946                  20987469.586
                  20987474.094                          49.200          40.600

 121943372.228 7  95020915.34345                  23205040.227
                  23205045.738                          45.500          30.900

 118790006.200 7  92563613.17645                  22604970.188
                  22604978.414                          46.000          34.700

 16  1  1  0  4 20.0000000  0  7G01G03G06G16G23G31G32
 131573964.959 6 102525194.68443                  25037728.633
                  25037746.656                          38.300          18.300

 108065709.741 8  84207121.16647                  20564216.867
                  20564225.867                          48.900          42.100

 124373750.403 6  96914678.52344                  23667546.047
                  23667557.387                          40.200          25.800

 118283997.622 7  92169416.67345                  22508680.453
                  22508687.699                          44.900          31.700

 110288409.543 8  85939120.97046                  20987174.906
                  20987179.645                          49.200          40.900

 121946632.405 7  95023455.75545                  23205660.656
                  23205666.484                          45.500          31.300

 118793132.898 7  92566049.56145                  22605565.203
                  22605573.355                          46.100          34.300

 16  1  1  0  4 21.0000000  0  7G01G03G06G16G23G31G32
 131577472.773 6 102527928.04043                  25038396.570
                  25038414.191                          38.400          18.600

 108067085.938 8  84208193.52947                  20564478.852
                  20564487.820                          49.200          42.400

 124372954.395 6  96914058.26844                  23667394.906
                  23667406.070                          40.600          27.500

 118281083.781 7  92167146.16045                  22508125.852
                  22508133.188                          45.200          31.600

 110286861.434 8  85937914.64846                  20986880.453
                  20986884.754                          49.800          40.700

 121949892.798 7  95025996.33245                  23206280.984
                  23206286.766                          45.700          31.100

 118796259.900 7  92568486.18045                  22606160.094
                  22606168.270                          46.600          34.300

 16  1  1  0  4 22.0000000  0  7G01G03G06G16G23G31G32
 131580980.577 6 102530661.40743                  25039063.602
                  25039081.633                          38.600          18.300

 108068462.750 8  84209266.37047                  20564740.555
                  20564749.898                          49.000          42.800

 124372159.057 6  96913438.52344                  23667243.297
                  23667254.805                          40.600          26.400

 118278170.395 7  92164875.99145                  22507571.148
                  22507578.988                          44.900          32.000

 110285313.616 8  85936708.56546                  20986586.125
                  20986590.230                          49.800          40.800

 121953153.380 7  95028537.05345                  23206901.977
                  23206907.020                          45.900          31.500

 118799387.189 7  92570923.03145                  22606755.609
                  22606763.684                          46.300          33.700

 16  1  1  0  4 23.0000000  0  7G01G03G06G16G23G31G32
 131584488.246 6 102533394.65142                  25039731.602
                  25039749.148                          38.700          17.400

 108069840.096 8  84210339.63147                  20565002.984
                  20565011.855                          48.900          42.200

 124371364.316 6  96912819.24344                  23667091.797
                  23667103.293                          40.400          27.000

 118275257.390 7  92162606.12345                  22507017.117
                  22507024.773                          44.900          31.500

 110283766.050 8  85935502.67146                  20986291.430
                  20986295.848                          50.000          40.900

 121956414.087 7  95031077.86645                  23207522.031
                  23207527.250                          45.800          31.600

 118802514.716 7  92573360.06345                  22607350.445
                  22607358.590                          46.300          34.300

 16  1  1  0  4 24.0000000  0  7G01G03G06G16G23G31G32
 131587995.924 6 102536127.92543                  25040399.172
                  25040417.000                          39.400          19.000

 108071218.077 8  84211413.37547                  20565264.891
                  20565273.742                          49.300          42.400

 124370570.223 6  96912200.45544                  23666940.867
                  23666952.457                          40.500          26.000

 118272344.859 7  92160336.62145                  22506462.836
                  22506470.453                          45.500          31.800

 110282218.793 8  85934297.01646                  20985997.086
                  20986001.230                          50.000          41.100

 121959674.968 7  95033618.81245                  23208142.773
                  23208147.781                          45.200          31.700

 118805642.516 7  92575797.31345                  22607945.961
                  22607953.934                          46.000          34.100

 16  1  1  0  4 25.0000000  0  7G01G03G06G16G23G31G32
 131591503.564 6 102538861.15843                  25041066.680
                  25041084.328                          39.500          19.300

 108072596.624 8  84212487.57447                  20565527.492
                  20565536.277                          49.700          42.100

 124369776.792 6  96911582.19544                  23666790.156
                  23666801.605                          40.400          25.800

 118269432.754 7  92158067.45845                  22505909.195
                  22505916.551                          45.600          32.700

 110280671.825 8  85933091.58346                  20985702.859
                  20985707.172                          50.300          40.800

 121962936.052 7  95036159.91045                  23208763.313
                  23208768.793                          44.900          31.600

 118808770.627 7  92578234.80245                  22608541.008
                  22608549.152                          45.800          33.700

 16  1  1  0  4 26.0000000  0  7G01G03G06G16G23G31G32
 131595011.188 6 102541594.34843                  25041733.688
                  25041751.813                          39.000          18.300

 108073975.786 8  84213562.24247                  20565790.055
                  20565798.867                          49.800          42.500

 124368983.997 6  96910964.42544                  23666639.063
                  23666650.785                          40.500          26.800

 118266521.131 7  92155798.67045                  22505354.367
                  22505362.133                          45.800          31.500

 110279125.195 8  85931886.41746                  20985408.594
                  20985413.191                          50.700          40.900

 121966197.357 7  95038701.19545                  23209383.617
                  23209388.816                          45.000          30.900

 118811899.018 7  92580672.50545                  22609136.078
                  22609144.742                          45.700          34.000

 16  1  1  0  4 27.0000000  0  7G01G03G06G16G23G31G32
 131598518.731 6 102544327.49543                  25042401.727
                  25042419.539                          38.500          18.600

 108075355.530 8  84214637.36947                  20566052.445
                  20566061.125                          49.400          42.500

 124368191.812 6  96910347.14644                  23666488.188
                  23666499.957                          40.300          26.800

 118263609.906 7  92153530.17645                  22504800.844
                  22504808.457                          45.800          31.600

 110277578.821 8  85930681.45146                  20985114.164
                  20985118.410                          50.800          40.400

 121969458.815 7  95041242.59945                  23210004.125
                  23210009.656                          44.500          31.000

 118815027.676 7  92583110.41545                  22609731.445
                  22609740.160                          46.000          34.000

 16  1  1  0  4 28.0000000  0  7G01G03G06G16G23G31G32
 131602026.240 6 102547060.59643                  25043069.242
                  25043086.887                          39.200          19.000

 108076735.874 8  84215712.96047                  20566315.406
                  20566324.035                          49.500          42.400

 124367400.313 6  96909730.39144                  23666337.570
                  23666348.715                          40.300          25.500

 118260699.124 7  92151262.03545                  22504247.398
                  22504254.438                          45.700          31.900

 110276032.756 8  85929476.73346                  20984819.789
                  20984824.297                          50.700          40.600

 121972720.459 7  95043784.15645                  23210624.945
                  23210630.051                          43.900          31.500

 118818156.651 7  92585548.57645                  22610327.289
                  22610335.801                          46.200          34.000

 16  1  1  0  4 29.0000000  0  7G01G03G06G16G23G31G32
 131605533.675 6 102549793.65543                  25043736.883
                  25043754.449                          39.000          18.300

 108078116.789 8  84216789.00547                  20566578.086
                  20566587.066                          49.400          42.300

 124366609.410 6  96909114.10244                  23666186.875
                  23666198.418                          39.800          25.500

 118257788.778 7  92148994.23245                  22503692.680
                  22503700.633                          45.800          31.200

 110274486.995 8  85928272.24346                  20984525.852
                  20984530.094                          50.700          40.600

 121975982.263 7  95046325.82645                  23211245.461
                  23211251.398                          43.700          30.900

 118821285.890 7  92587986.93845                  22610922.227
                  22610931.098                          46.300          34.000

 16  1  1  0  4 30.0000000  0  7G01G03G06G16G23G31G32
 131609041.094 6 102552526.69343                  25044404.273
                  25044422.238                          39.000          19.000

 108079498.258 8  84217865.47147                  20566840.891
                  20566850.254                          48.800          42.200

 124365819.146 6  96908498.31944                  23666037.117
                  23666048.211                          39.600          27.100

 118254878.838 7  92146726.75545                  22503139.430
                  22503146.980                          45.900          31.300

 110272941.488 8  85927067.95446                  20984231.672
                  20984236.121                          50.700          40.800

 121979244.213 7  95048867.61545                  23211866.305
                  23211872.000                          43.800          30.900

 118824415.349 7  92590425.47845                  22611517.969
                  22611526.676                          46.300          34.300

 16  1  1  0  4 31.0000000  0  7G01G03G06G16G23G31G32
 131612548.465 6 102555259.69843                  25045071.195
                  25045089.355                          38.600          19.300

 108080880.340 8  84218942.41447                  20567103.664
                  20567112.805                          49.600          42.100

 124365029.529 6  96907883.03444                  23665885.953
                  23665897.988                          40.400          26.400

 118251969.329 7  92144459.61145                  22502585.719
                  22502593.266                          46.500          31.100

 110271396.273 8  85925863.89346                  20983937.844
                  20983942.371                          51.100          40.600

 121982506.332 7  95051409.53045                  23212486.992
                  23212493.141                          43.700          30.600

 118827545.131 7  92592864.26645                  22612113.930
                  22612122.473                          46.100          34.400

 16  1  1  0  4 32.0000000  0  7G01G03G06G16G23G31G32
 131616055.761 6 102557992.61943                  25045738.125
                  25045756.488                          38.100          18.300

 108082263.029 8  84220019.83347                  20567366.805
                  20567376.090                          49.200          42.400

 124364240.562 6  96907268.25944                  23665736.406
                  23665747.762                          40.500          26.000

 118249060.277 7  92142192.82345                  22502031.969
                  22502039.441                          46.300          30.100

 110269851.377 8  85924660.07246                  20983643.500
                  20983648.480                          50.800          40.400

 121985768.674 7  95053951.60645                  23213107.563
                  23213113.902                          43.900          31.000

 118830675.191 7  92595303.27245                  22612709.578
                  22612717.859                          46.500          33.900

 16  1  1  0  4 33.0000000  0  7G01G03G06G16G23G31G32
 131619563.036 6 102560725.58343                  25046405.789
                  25046424.074                          38.400          19.000

 108083646.302 8  84221097.71247                  20567630.398
                  20567639.035                          48.200          42.100

 124363452.221 6  96906653.95944                  23665585.648
                  23665598.117                          40.400          26.400

 118246151.677 7  92139926.38145                  22501479.070
                  22501486.008                          46.000          30.900

 110268306.773 8  85923456.48746                  20983349.531
                  20983354.574                          49.500          40.400

 121989031.194 7  95056493.83645                  23213728.641
                  23213734.523                          44.100          31.100

 118833805.534 7  92597742.49745                  22613304.727
                  22613313.395                          46.300          33.900

 16  1  1  0  4 34.0000000  0  7G01G03G06G16G23G31G32
 131623070.282 6 102563458.50242                  25047073.000
                  25047091.633                          38.800          17.400

 108085030.138 7  84222176.02447                  20567893.563
                  20567902.250                          47.800          42.700

 124362664.556 6  96906040.19844                  23665436.547
                  23665447.859                          40.500          27.000

 118243243.475 7  92137660.25745                  22500925.234
                  22500932.695                          46.100          30.600

 110266762.448 8  85922253.11746                  20983055.719
                  20983060.516                          48.900          40.500

 121992293.843 7  95059036.16045                  23214349.258
                  23214355.480                          43.700          30.800

 118836936.124 7  92600181.91345                  22613900.672
                  22613908.781                          46.600          34.000

 16  1  1  0  4 35.0000000  0  7G01G03G06G16G23G31G32
 131626577.445 6 102566191.36843                  25047741.125
                  25047758.863                          39.400          18.300

 108086414.580 8  84223254.80747                  20568156.867
                  20568165.832                          48.400          42.800

 124361877.511 6  96905426.92144                  23665287.227
                  23665297.789                          41.300          25.400

 118240335.732 7  92135394.48745                  22500372.172
                  22500379.297                          46.200          31.200

 110265218.425 8  85921049.98846                  20982761.773
                  20982766.656                          48.800          40.500

 121995556.739 7  95061578.68445                  23214970.508
                  23214976.891                          44.000          31.800

 118840067.009 7  92602621.56445                  22614496.805
                  22614505.070                          46.200          33.800

 16  1  1  0  4 36.0000000  0  7G01G03G06G16G23G31G32
 131630084.605 6 102568924.22842                  25048408.461
                  25048426.652                          39.200          17.800

 108087799.654 8  84224334.08947                  20568420.438
                  20568429.480                          48.200          42.500

 124361091.118 6  96904814.15144                  23665137.297
                  23665148.359                          41.000          27.000

 118237428.451 7  92133129.07745                  22499818.594
                  22499826.047                          45.600          30.700

 110263674.736 8  85919847.11346                  20982468.422
                  20982473.008                          48.700          40.600

 121998819.838 7  95064121.37445                  23215591.164
                  23215597.672                          44.300          32.000

 118843198.216 7  92605061.46945                  22615092.445
                  22615100.973                          46.000          33.600

 16  1  1  0  4 37.0000000  0  7G01G03G06G16G23G31G32
 131633591.654 6 102571656.95642                  25049075.586
                  25049093.559                          39.600          17.800

 108089185.250 8  84225413.77247                  20568683.992
                  20568693.262                          48.700          42.600

 124360305.298 6  96904201.82244                  23664988.070
                  23664998.895                          40.600          27.400

 118234521.558 7  92130863.97045                  22499265.578
                  22499272.723                          45.900          31.200

 110262131.263 8  85918644.40046                  20982174.352
                  20982179.332                          49.400          40.200

 122002083.012 7  95066664.12945                  23216212.359
                  23216218.570                          44.400          31.600

 118846329.634 7  92607501.52745                  22615688.727
                  22615696.742                          46.000          33.400

 16  1  1  0  4 38.0000000  0  7G01G03G06G16G23G31G32
 131637098.654 6 102574389.67943                  25049743.477
                  25049761.215                          39.900          19.000

 108090571.421 8  84226493.90647                  20568947.969
                  20568956.984                          49.000          42.500

 124359520.121 6  96903589.99344                  23664838.320
                  23664849.402                          40.500          26.000

 118231615.082 7  92128599.18745                  22498712.367
                  22498720.066                          45.300          31.700

 110260588.082 8  85917441.92346                  20981880.586
                  20981886.223                          49.500          39.900

 122005346.329 7  95069206.99445                  23216833.539
                  23216839.430                          44.200          31.600

 118849461.296 7  92609941.78045                  22616284.031
                  22616292.410                          45.900          33.400

 16  1  1  0  4 39.0000000  0  7G01G03G06G16G23G31G32
 131640605.675 6 102577122.41843                  25050410.852
                  25050428.926                          39.200          18.300

 108091958.249 8  84227574.54947                  20569211.711
                  20569220.539                          49.300          42.600

 124358735.664 6  96902978.73744                  23664688.773
                  23664700.168                          39.900          26.500

 118228709.108 7  92126334.80145                  22498159.375
                  22498166.637                          45.100          30.900

 110259045.267 8  85916239.73046                  20981587.031
                  20981592.289                          49.900          40.000

 122008609.889 7  95071750.01145                  23217453.898
                  23217460.973                          44.400          31.700

 118852593.327 7  92612382.32045                  22616879.977
                  22616889.230                          45.700          33.500

 16  1  1  0  4 40.0000000  0  7G01G03G06G16G23G31G32
 131644112.617 6 102579855.07443                  25051078.055
                  25051095.895                          39.700          18.300

 108093345.624 8  84228655.62647                  20569476.125
                  20569484.883                          49.700          42.600

 124357951.799 6  96902367.92444                  23664539.547
                  23664550.523                          40.700          26.400

 118225803.546 7  92124070.72145                  22497606.297
                  22497613.699                          45.200          30.400

 110257502.702 8  85915037.73346                  20981293.461
                  20981298.684                          50.000          39.600

 122011873.621 7  95074293.16345                  23218075.063
                  23218081.688                          44.500          31.700

 118855725.581 7  92614823.03545                  22617476.273
                  22617485.379                          45.700          33.900

 16  1  1  0  4 41.0000000  0  7G01G03G06G16G23G31G32
 131647619.510 6 102582587.71343                  25051745.234
                  25051763.160                          39.300          19.000

 108094733.606 8  84229737.16447                  20569740.195
                  20569749.219                          50.000          42.400

 124357168.577 6  96901757.62244                  23664391.172
                  23664401.996                          40.300          26.200

 118222898.410 7  92121806.98545                  22497053.234
                  22497060.988                          45.600          31.300

 110255960.444 8  85913835.97446                  20981000.406
                  20981005.141                          50.200          40.100

 122015137.510 7  95076836.44245                  23218696.313
                  23218702.621                          44.300          31.300

 118858858.141 7  92617263.98645                  22618072.211
                  22618081.434                          46.100          33.900

