     2.11           OBSERVATION DATA    G (GPS)             RINEX VERSION / TYPE
teqc  2015Nov6      NGS Web User        20160202 00:05:11UTCPGM / RUN BY / DATE
Solaris x86 5.10|AMD64|cc SC5.8 -xarch=amd64|=+|=+          COMMENT
teqc  2015Nov6      NOAA/NOS/NGS/CORS   20160201 12:45:14UTCCOMMENT
teqc  2015Nov6      UNAVCO Archive Ops  20160201 12:34:54UTCCOMMENT
BIT 2 OF LLI FLAGS DATA COLLECTED UNDER A/S CONDITION       COMMENT
input file: seat201602011100f.bnx                           COMMENT
 hourly file                                                COMMENT
RINEX file created by UNAVCO GPS Archive.                   COMMENT
For more information contact archive@unavco.org             COMMENT
Monument ID: 18010                                          COMMENT
UNAVCO 4-char name:   SEAT                                  COMMENT
4-char name from Log or data file: SEAT                     COMMENT
Monument location: 47.653977 -122.309476 44.2292            COMMENT
Visit ID: 101410                                            COMMENT
End of DB comments                                          COMMENT
 SNR is mapped to RINEX snr flag value [0-9]                COMMENT
  L1 & L2: min(max(int(snr_dBHz/6), 0), 9)                  COMMENT
teqc edited: all SBAS satellites excluded                   COMMENT
teqc edited: all Compass satellites excluded                COMMENT
teqc edited: all QZSS satellites excluded                   COMMENT
SEAT                                                        MARKER NAME
40457M002                                                   MARKER NUMBER
UW                  University of Washington                OBSERVER / AGENCY
4552261579          TRIMBLE NETRS       1.3-0               REC # / TYPE / VERS
0220061145          TRM29659.00     UNAV                    ANT # / TYPE
 -2300592.8570 -3637848.2430  4691079.2150                  APPROX POSITION XYZ
        0.1233        0.0000        0.0000                  ANTENNA: DELTA H/E/N
     1     1                                                WAVELENGTH FACT L1/2
     7    L1    L2    C1    P2    P1    S1    S2            # / TYPES OF OBSERV
     1.0000                                                 INTERVAL
teqc windowed: start @ 2016 Feb  1 12:00:00.000             COMMENT
teqc windowed:  end  @ 2016 Feb  1 13:00:00.000             COMMENT
teqc edited: all GLONASS satellites excluded                COMMENT
  2016     2     1    12     0    0.0000000     GPS         TIME OF FIRST OBS
                                                            END OF HEADER
 16  2  1 12  2 48.0000000  0  9G26G20G02G29G13G05G21G25G18
 119871653.209 7  93406451.53644  22810817.140    22810807.8364
        42.600          28.2004
 108144706.035 7  84268558.28946  20579250.610    20579237.8484
        47.900          39.0004
 127108392.332 6  99045450.04943  24187920.598    24187906.4294
        36.200          19.6004
 105281624.274 8  82037598.03047  20034423.945    20034411.5934
        50.700          44.9004
 130654068.458 5                  24862641.914
        31.300
 113738242.661 7  88627165.86246  21643665.737    21643652.9164
        47.600          37.6004
 119217734.312 7  92896873.44344  22686378.221    22686364.2284
        43.100          29.8004
 121326804.051 7  94540334.75644  23087723.614    23087712.4934
        42.000          26.7004
 127965034.450 5  99712959.24343  24350937.164    24350923.5234
        35.400          18.6004
 16  2  1 12  2 49.0000000  0  9G26G20G02G29G13G05G21G25G18
 119869796.874 7  93405005.04644  22810463.532    22810454.1114
        43.000          28.0004
 108143098.176 7  84267305.41646  20578944.974    20578932.4474
        47.900          39.0004
 127111273.155 6  99047694.84843  24188468.475    24188454.7164
        36.400          19.6004
 105281774.235 8  82037714.88447  20034452.575    20034440.1654
        50.400          44.7004
 130651145.844 5                  24862084.992
        31.000
 113740092.892 7  88628607.59246  21644017.992    21644004.8194
        47.200          37.3004
 119215663.818 7  92895260.07144  22685984.438    22685970.2694
        43.500          29.4004
 121330349.318 7  94543097.30444  23088398.232    23088387.1124
        42.000          26.8004
 127961590.290 5  99710275.45943  24350282.903    24350267.9734
        35.900          18.3004
 16  2  1 12  2 50.0000000  0  9G26G20G02G29G13G05G21G25G18
 119867941.162 7  93403559.03644  22810110.500    22810100.8454
        42.700          29.3004
 108141490.960 7  84266053.03846  20578639.163    20578625.9914
        47.600          38.8004
 127114154.128 6  99049939.77843  24189017.037    24189002.9864
        36.700          19.3004
 105281924.726 8  82037832.14747  20034481.413    20034468.8274
        50.300          44.8004
 130648223.659 5                  24861529.854
        31.200
 113741943.766 7  88630049.83346  21644370.035    21644356.9804
        47.000          37.5004
 119213593.603 7  92893646.92044  22685590.209    22685576.3334
        43.200          29.0004
 121333894.860 6  94545860.06944  23089072.118    23089061.4074
        41.800          26.7004
 127958146.387 5  99707591.90842  24349627.471    24349612.8924
        35.500          17.8004
 16  2  1 12  2 51.0000000  0  9G26G20G02G29G13G05G21G25G18
 119866085.720 7  93402113.24444  22809757.599    22809747.8264
        42.600          28.8004
 108139884.057 7  84264800.91046  20578333.032    20578320.0944
        47.600          39.1004
 127117034.879 6  99052184.52643  24189565.433    24189550.6794
        36.900          19.6004
 105282075.397 8  82037949.56047  20034510.063    20034497.5354
        50.500          44.8004
 130645301.234 5                  24860973.692
        31.300
 113743794.910 7  88631492.28646  21644722.282    21644709.1694
        47.500          37.4004
 119211523.294 7  92892033.69244  22685195.942    22685182.5944
        43.400          28.9004
 121337440.379 6  94548622.81244  23089747.513    23089736.3934
        41.800          26.5004
 127954702.234 5  99704908.15142  24348971.690    24348957.5804
        35.300          17.8004
 16  2  1 12  2 52.0000000  0  9G26G20G02G29G13G05G21G25G18
 119864231.077 7  93400668.05944  22809404.723    22809394.9504
        42.800          28.6004
 108138277.976 7  84263549.41246  20578027.230    20578014.6444
        47.800          39.3004
 127119915.933 6  99054429.51243  24190114.078    24190099.2644
        37.200          20.1004
 105282226.785 8  82038067.52347  20034538.870    20034526.1664
        50.200          44.8004
 130642379.262 5                  24860417.186
        31.800
 113745646.821 7  88632935.32846  21645074.791    21645061.9714
        47.700          37.1004
 119209453.421 7  92890420.80344  22684802.135    22684788.6694
        43.600          29.3004
 121340986.353 6  94551385.90644  23090421.416    23090411.0574
        41.700          26.4004
 127951258.402 5  99702224.64442  24348316.718    24348302.3154
        35.500          17.8004
 16  2  1 12  2 53.0000000  0  9G26G20G02G29G13G05G21G25G18
 119862376.696 7  93399223.09044  22809051.957    22809042.3604
        42.800          28.7004
 108136672.200 7  84262298.16546  20577721.639    20577709.1124
        47.900          39.3004
 127122796.686 6  99056674.24643  24190663.192    24190647.5584
        37.200          20.4004
 105282378.361 8  82038185.63347  20034567.414    20034555.0624
        50.100          44.7004
 130639457.196 5                  24859861.315
        31.600
 113747499.015 7  88634378.59546  21645427.251    21645414.3144
        47.800          36.9004
 119207383.458 7  92888807.85045  22684408.807    22684394.9904
        43.900          30.0004
 121344532.285 6  94554148.97544  23091097.133    23091085.8954
        41.800          25.5004
 127947814.412 5  99699541.01742  24347662.605    24347647.0294
        35.700          17.4004
 16  2  1 12  2 54.0000000  0  9G26G20G02G29G13G05G21G25G18
 119860523.150 7  93397778.77144  22808698.566    22808689.4384
        42.700          28.4004
 108135067.259 7  84261047.56146  20577416.591    20577403.6534
        47.900          39.3004
 127125677.794 6  99058919.26743  24191210.585    24191196.0654
        36.300          20.4004
 105282530.654 8  82038304.30747  20034596.533    20034584.1234
        49.900          44.8004
 130636535.503 5                  24859306.209
        32.200
 113749352.019 7  88635822.49746  21645779.780    21645766.9594
        47.600          37.0004
 119205313.940 7  92887195.23544  22684014.970    22684001.1534
        43.300          29.4004
 121348078.672 6  94556912.39344  23091771.241    23091760.5894
        41.800          26.2004
 127944370.713 6  99696857.61942  24347006.332    24346992.2224
        36.000          16.9004
 16  2  1 12  2 55.0000000  0  9G26G20G02G29G13G05G21G25G18
 119858670.067 7  93396334.80944  22808345.855    22808336.3764
        42.100          28.9004
 108133462.804 8  84259797.33346  20577111.525    20577098.4704
        48.000          39.3004
 127128558.868 6  99061164.25443  24191758.947    24191744.0174
        36.800          20.1004
 105282683.344 8  82038423.28347  20034625.423    20034613.0724
        49.800          44.9004
 130633613.907 5                  24858749.986
        32.400
 113751205.483 7  88637266.75546  21646132.725    21646119.3774
        47.300          37.1004
 119203244.549 7  92885582.72644  22683620.866    22683607.5184
        43.200          29.3004
 121351625.214 6  94559675.93444  23092445.902    23092435.1914
        41.900          24.9004
 127940927.047 5  99694174.24642  24346351.444    24346336.8064
        35.700          16.9004
 16  2  1 12  2 56.0000000  0  9G26G20G02G29G13G05G21G25G18
 119856817.480 7  93394891.23044  22807994.132    22807984.1244
        42.400          28.6004
 108131858.932 8  84258547.56546  20576806.219    20576792.9884
        48.200          39.2004
 127131439.943 6  99063409.22543  24192307.217    24192292.2274
        36.200          20.1004
 105282836.464 8  82038542.60247  20034654.626    20034642.2744
        50.000          44.7004
 130630692.475 5                  24858194.470
        31.800
 113753059.466 7  88638711.42346  21646485.505    21646472.0984
        47.800          37.2004
 119201175.318 7  92883970.33145  22683227.076    22683213.5524
        43.100          30.2004
 121355171.948 7  94562439.62244  23093121.242    23093110.4154
        42.200          26.0004
 127937483.425 6  99691490.93042  24345695.676    24345681.6254
        36.400          15.6004
 16  2  1 12  2 57.0000000  0 10G26G20G02G29G13G05G21G25G18G16
 119854965.494 7  93393448.11944  22807640.993    22807631.9234
        42.400          29.3004
 108130255.636 8  84257298.24746  20576501.055    20576488.1174
        48.300          39.4004
 127134321.091 6  99065654.27543  24192856.236    24192840.4854
        36.500          19.9004
 105282990.075 8  82038662.29347  20034683.988    20034671.1684
        50.300          44.6004
 130627771.248 5                  24857638.053
        31.200
 113754914.003 7  88640156.51846  21646838.678    21646825.2134
        47.600          37.3004
 119199106.266 7  92882358.07644  22682833.216    22682820.1024
        43.000          29.1004
 121358718.922 6  94565203.49544  23093795.574    23093785.5674
        41.700          25.8004
 127934039.926 6  99688807.70642  24345041.143    24345026.0374
        36.000          15.6004
                                  24574859.060
        32.200
 16  2  1 12  2 58.0000000  0 10G26G20G02G29G13G05G21G25G18G16
 119853114.210 7  93392005.56044  22807288.853    22807279.4904
        42.400          29.2004
 108128653.062 8  84256049.48446  20576196.159    20576182.9874
        48.400          39.0004
 127137202.418 6  99067899.46943  24193403.598    24193388.9024
        36.400          20.1004
 105283144.286 8  82038782.45347  20034713.361    20034700.9514
        50.400          45.1004
 130624850.291 5                  24857082.954
        32.000
 113756769.238 7  88641602.14746  21647191.459    21647178.2874
        47.800          37.3004
 119197037.587 7  92880746.12744  22682438.932    22682426.2294
        42.500          29.2004
 121362266.271 7  94567967.65744  23094471.146    23094460.4354
        42.100          26.9004
 127930596.610 6  99686124.59042  24344385.148    24344371.2144
        36.100          15.6004
                                  24574257.430
        31.300
 16  2  1 12  2 59.0000000  0 10G26G20G02G29G13G05G21G25G18G16
 119851263.419 7  93390563.39044  22806936.125    22806927.4074
        42.300          29.2004
 108127051.017 8  84254801.13846  20575891.587    20575878.6504
        48.100          39.1004
 127140083.789 6  99070144.69043  24193951.556    24193937.2114
        36.500          19.9004
 105283298.909 8  82038902.94447  20034742.726    20034730.3164
        50.600          45.1004
 130621929.397 5                  24856526.803
        31.900
 113758624.979 8  88643048.18246  21647544.787    21647531.3814
        48.000          37.2004
 119194969.024 7  92879134.26244  22682045.423    22682032.4264
        42.900          29.6004
 121365813.758 6  94570731.94344  23095146.514    23095135.5694
        41.500          27.0004
 127927153.311 5  99683441.47842  24343730.055    24343715.7694
        35.600          14.8004
                                  24573655.869
        31.600
 16  2  1 12  3  0.0000000  0 10G26G20G02G29G13G05G21G25G18G16
 119849413.167 7  93389121.63844  22806584.872    22806575.1004
        42.400          28.7004
 108125449.566 7  84253553.25646  20575586.284    20575573.9914
        47.900          39.3004
 127142965.175 6  99072389.93743  24194500.364    24194485.3174
        36.500          19.9004
 105283453.997 8  82039023.79047  20034771.894    20034759.7774
        50.600          44.7004
 130619008.761 5                  24855970.429
        31.600
 113760481.250 8  88644494.63446  21647897.710    21647884.4794
        48.000          37.3004
 119192900.647 7  92877522.54144  22681652.070    22681638.7814
        43.200          29.9004
 121369361.482 6  94573496.40844  23095821.494    23095810.4904
        41.800          26.7004
 127923710.141 5  99680758.47842  24343075.559    24343060.9214
        35.900          15.6004
                                  24573053.223
        31.600
 16  2  1 12  3  1.0000000  0 10G26G20G02G29G13G05G21G25G18G16
 119847563.461 6  93387680.31244  22806232.377    22806223.5424
        41.900          29.7004
 108123848.667 7  84252305.80246  20575281.528    20575268.6494
        47.800          39.1004
 127145846.524 6  99074635.15443  24195048.387    24195033.6324
        36.500          19.9004
 105283609.528 8  82039144.98047  20034801.605    20034789.3704
        50.500          44.8004
 130616088.174 5                  24855414.928
        30.800
 113762338.059 8  88645941.49446  21648251.329    21648237.6884
        48.100          37.3004
 119190832.464 7  92875910.97445  22681259.031    22681245.3314
        43.000          30.0004
 121372909.444 7  94576261.04244  23096496.302    23096485.3574
        42.100          27.1004
 127920266.981 6  99678075.49142  24342419.463    24342405.8224
        36.100          15.6004
 129129104.23415                  24572451.447
        32.200
 16  2  1 12  3  2.0000000  0 10G26G20G02G29G13G05G21G25G18G16
 119845714.890 7  93386239.85945  22805881.167    22805871.2774
        42.500          30.2004
 108122248.932 7  84251059.25546  20574977.177    20574964.3574
        47.800          39.1004
 127148728.596 6  99076880.92843  24195596.584    24195582.1224
        37.000          19.9004
 105283766.090 8  82039266.97747  20034831.357    20034819.1814
        50.400          44.8004
 130613168.371 5                  24854859.422
        32.000
 113764196.003 8  88647389.24646  21648605.393    21648591.5184
        48.000          37.2004
 119188765.039 7  92874299.98644  22680865.124    22680852.0694
        43.200          29.9004
 121376458.162 6  94579026.27944  23097172.124    23097160.8864
        41.600          27.3004
 127916824.499 5  99675393.02942  24341764.409    24341750.8854
        35.700          15.6004
 129125943.650 5                  24571849.641
        31.900
 16  2  1 12  3  3.0000000  0 10G26G20G02G29G13G05G21G25G18G16
 119843866.714 7  93384799.71844  22805529.340    22805519.7434
        42.500          29.4004
 108120649.622 8  84249813.05146  20574672.918    20574659.9214
        48.100          39.4004
 127151610.530 6  99079126.57243  24196146.355    24196130.7804
        36.900          19.9004
 105283922.987 8  82039389.23147  20034861.555    20034849.0274
        50.000          44.8004
 130610248.622 5                  24854303.403
        32.200
 113766054.323 7  88648837.29046  21648958.608    21648945.1434
        47.800          37.3004
 119186697.625 7  92872689.00944  22680471.771    22680458.5404
        43.500          29.6004
 121380006.966 6  94581791.57144  23097847.007    23097836.5904
        41.600          25.4004
 127913381.904 5  99672710.49642  24341108.040    24341095.2194
        34.400          14.8004
 129122783.289 5                  24571248.577
        32.000
 16  2  1 12  3  4.0000000  0 10G26G20G02G29G13G05G21G25G18G16
 119842018.789 7  93383359.77944  22805177.597    22805168.2354
        43.000          28.5004
 108119050.611 7  84248567.06046  20574368.795    20574355.8574
        47.800          39.2004
 127154492.181 6  99081372.01543  24196693.662    24196679.1424
        37.100          20.1004
 105284080.035 8  82039511.61747  20034891.189    20034878.8374
        50.200          45.1004
 130607328.735 5                  24853748.095
        32.200
 113767912.914 7  88650285.54446  21649311.963    21649298.6744
        47.900          37.1004
 119184630.142 7  92871077.98844  22680078.701    22680065.3534
        43.200          29.5004
 121383555.698 6  94584556.82544  23098522.908    23098511.9054
        41.600          25.4004
 127909939.163 5  99670027.80942  24340452.905    24340440.4944
        34.800          14.8004
 129119622.875 5                  24570646.913
        31.800
 16  2  1 12  3  5.0000000  0 10G26G20G02G29G13G05G21G25G18G16
 119840171.759 7  93381920.53744  22804826.245    22804816.5894
        42.400          29.1004
 108117452.491 7  84247321.77246  20574064.515    20574051.3434
        47.800          39.1004
 127157374.192 6  99083617.72343  24197242.457    24197227.4094
        36.900          20.1004
 105284237.872 8  82039634.60247  20034920.960    20034908.8434
        49.600          45.1004
 130604409.282 5                  24853192.359
        32.500
 113769772.360 8  88651734.45646  21649665.613    21649652.4414
        48.100          37.0004
 119182563.159 7  92869467.35744  22679685.286    22679671.7044
        43.300          29.6004
 121387104.957 6  94587322.48944  23099197.748    23099187.0384
        41.800          24.7004
 127906496.773 5  99667345.46542  24339798.566    24339785.4524
        34.300          14.8004
 129116463.141 5                  24570044.854
        32.300
 16  2  1 12  3  6.0000000  0 10G26G20G02G29G13G05G21G25G18G16
 119838325.029 7  93380481.52244  22804474.839    22804465.1834
        42.700          29.6004
 108115854.763 7  84246076.78746  20573760.623    20573747.6854
        47.500          39.3004
 127160256.084 6  99085863.36743  24197791.340    24197775.4134
        37.300          19.6004
 105284395.969 8  82039757.79547  20034951.034    20034938.9764
        50.000          45.0004
 130601489.843 5                  24852637.349
        32.400
 113771632.133 7  88653183.63446  21650019.834    21650006.9544
        47.900          36.9004
 119180496.159 7  92867856.70544  22679292.010    22679278.4864
        43.100          29.4004
 121390654.266 6  94590088.18344  23099873.310    23099862.1894
        41.000          27.0004
 127903054.327 5  99664663.05442  24339142.289    24339130.1134
        34.000          15.6004
 129113303.487 5                  24569442.382
        31.300
 16  2  1 12  3  7.0000000  0 10G26G20G02G29G13G05G21G25G18G16
 119836479.108 7  93379043.14944  22804123.832    22804113.8844
        43.000          29.3004
 108114257.816 7  84244832.40946  20573456.924    20573443.4004
        47.300          39.1004
 127163138.247 6  99088109.19743  24198340.001    24198324.4844
        37.600          19.3004
 105284554.740 8  82039881.51247  20034981.637    20034969.4024
        50.200          45.0004
 130598570.726 5                  24852081.743
        32.400
 113773492.670 7  88654633.40346  21650373.519    21650360.4644
        47.600          37.0004
 119178429.580 7  92866246.38344  22678898.620    22678885.2144
        43.300          28.7004
 121394203.971 6  94592854.19944  23100548.392    23100537.9754
        41.300          25.5004
 127899612.059 5  99661980.75442  24338488.275    24338475.4554
        34.200          15.6004
 129110144.437 5                  24568841.288
        32.300
 16  2  1 12  3  8.0000000  0 10G26G20G02G29G13G05G21G25G18G16
 119834633.695 7  93377605.16544  22803773.118    22803762.9354
        42.500          29.7004
 108112661.418 7  84243588.47246  20573152.932    20573140.0534
        47.800          39.1004
 127166020.375 6  99090355.02643  24198887.745    24198872.6974
        37.600          19.0004
 105284713.943 8  82040005.56447  20035011.976    20034999.3904
        50.500          44.9004
 130595651.764 5                  24851525.675
        33.000
 113775353.714 7  88656083.56546  21650727.508    21650714.8054
        47.400          37.2004
 119176363.159 7  92864636.18544  22678505.301    22678491.7194
        43.100          29.3004
 121397753.858 6  94595620.33244  23101223.865    23101213.4484
        41.000          25.6004
 127896169.887 5  99659298.51942  24337832.626    24337820.0984
        34.100          16.3004
 129106985.574 5                  24568241.287
        32.300
 16  2  1 12  3  9.0000000  0 10G26G20G02G29G13G05G21G25G18G16
 119832789.066 7  93376167.79145  22803421.934    22803411.9274
        42.900          30.0004
 108111065.850 7  84242345.17246  20572849.635    20572836.1114
        47.500          39.1004
 127168902.821 6  99092601.10043  24199437.295    24199421.3104
        37.400          19.0004
 105284873.860 8  82040130.17447  20035042.581    20035030.0544
        50.600          45.1004
 130592733.211 5                  24850970.742
        32.300
 113777215.553 7  88657534.35246  21651082.028    21651069.3834
        47.200          37.2004
 119174297.171 7  92863026.32644  22678112.445    22678098.8044
        43.200          29.3004
 121401304.245 6  94598386.87044  23101899.888    23101889.0014
        41.300          26.6004
 127892728.082 5  99656616.62742  24337177.670    24337165.7874
        34.800          15.6004
 129103827.303 5                  24567641.491
        32.500
 16  2  1 12  3 10.0000000  0 10G26G20G02G29G13G05G21G25G18G16
 119830944.323 7  93374730.33244  22803070.630    22803061.1514
        42.900          29.8004
 108109470.169 7  84241101.78246  20572546.087    20572532.6224
        47.800          39.4004
 127171784.638 6  99094846.68043  24199985.046    24199969.5294
        36.900          19.0004
 105285033.558 8  82040254.62247  20035073.053    20035060.2334
        50.500          45.2004
 130589814.197 5                  24850414.310
        31.500
 113779077.267 7  88658985.03246  21651436.736    21651423.6814
        47.400          37.6004
 119172230.718 7  92861416.10244  22677719.192    22677705.7264
        43.200          29.5004
 121404854.166 6  94601153.04644  23102574.822    23102564.0534
        41.400          26.3004
 127889285.674 5  99653934.22642  24336522.415    24336510.3574
        34.800          15.6004
 129100668.680 5                  24567040.896
        32.800
 16  2  1 12  3 11.0000000  0 10G26G20G02G29G13G05G21G25G18G16
 119829100.101 7  93373293.27744  22802719.757    22802709.8084
        43.200          29.9004
 108107875.049 7  84239858.82546  20572242.078    20572229.3754
        47.400          39.1004
 127174666.422 6  99097092.20343  24200533.538    24200518.0804
        37.500          19.3004
 105285193.699 8  82040379.40447  20035103.129    20035090.9534
        50.600          45.3004
 130586895.271 5                  24849859.517
        31.500
 113780939.467 7  88660436.10046  21651790.797    21651777.9764
        47.200          37.8004
 119170164.407 7  92859805.99344  22677325.643    22677312.1204
        43.200          29.6004
 121408404.264 6  94603919.35744  23103250.271    23103239.7944
        41.700          25.8004
 127885843.276 5  99651251.83842  24335868.868    24335855.5204
        35.000          14.8004
 129097510.309 5                  24566440.098
        32.300
 16  2  1 12  3 12.0000000  0 10G26G20G02G29G13G05G21G25G18G16
 119827256.736 7  93371856.88744  22802369.400    22802358.9244
        43.400          29.6004
 108106280.785 7  84238616.54846  20571938.780    20571926.0194
        47.600          39.0004
 127177548.558 6  99099338.02843  24201080.940    24201065.8924
        37.900          20.1004
 105285354.580 8  82040504.76447  20035133.790    20035121.3804
        50.500          45.4004
 130583976.752 5                  24849304.740
        31.000
 113782802.508 7  88661887.82046  21652145.033    21652132.0364
        47.300          37.8004
 119168098.554 7  92858196.23244  22676932.052    22676919.0564
        43.600          29.6004
 121411954.864 6  94606686.05244  23103926.569    23103915.6244
        41.800          26.8004
 127882401.282 5  99648569.77142  24335213.560    24335200.2714
        34.900          14.8004
 129094352.552 5                  24565838.334
        32.800
 16  2  1 12  3 13.0000000  0 10G26G20G02G29G13G05G21G25G18G16
 119825414.100 7  93370421.06044  22802018.298    22802008.1154
        43.000          29.4004
 108104687.331 7  84237374.89646  20571635.841    20571622.7284
        47.700          39.3004
 127180430.989 6  99101584.09543  24201630.115    24201615.4194
        37.600          20.1004
 105285516.154 8  82040630.66447  20035164.809    20035152.3994
        50.300          45.1004
 130581058.668 5                  24848748.728
        31.300
 113784666.324 7  88663340.14746  21652500.092    21652486.6864
        46.800          38.0004
 119166033.077 7  92856586.76545  22676539.752    22676525.9354
        43.300          30.1004
 121415505.919 6  94609453.10244  23104602.471    23104591.3514
        41.800          26.2004
 127878959.535 5  99645887.90742  24334558.515    24334545.5194
        35.500          14.8004
 129091195.293 5                  24565237.558
        32.900
 16  2  1 12  3 14.0000000  0 10G26G20G02G29G13G05G21G25G18G16
 119823571.987 7  93368985.64244  22801667.993    22801657.9274
        43.300          29.3004
 108103094.398 8  84236133.64946  20571332.685    20571319.3374
        48.000          38.8004
 127183313.406 6  99103830.12643  24202178.892    24202163.3764
        37.900          19.9004
 105285678.139 8  82040756.88747  20035195.463    20035182.8774
        50.600          44.8004
 130578140.718 5                  24848194.060
        31.600
 113786530.649 7  88664792.86346  21652854.767    21652841.6544
        47.200          37.9004
 119163967.770 7  92854977.43644  22676147.037    22676133.3384
        43.500          29.7004
 121419057.131 6  94612220.26944  23105278.309    23105266.8364
        41.600          26.4004
 127875517.872 5  99643206.10542  24333904.131    24333890.9004
        35.700          15.6004
 129088038.367 5                  24564637.230
        32.600
 16  2  1 12  3 15.0000000  0 10G26G20G02G29G13G05G21G25G18G16
 119821730.122 7  93367550.42744  22801317.550    22801307.4264
        42.600          29.0004
 108101501.778 8  84234892.64546  20571029.657    20571016.4844
        48.100          38.7004
 127186195.511 6  99106075.90343  24202727.134    24202711.8524
        37.400          20.1004
 105285840.297 8  82040883.24347  20035226.312    20035213.9014
        50.300          44.8004
 130575222.625 5                  24847638.671
        32.400
 113788395.206 7  88666245.77146  21653209.431    21653196.1424
        46.700          37.8004
 119161902.355 7  92853368.01944  22675753.811    22675740.0534
        43.400          29.6004
 121422608.285 6  94614987.41244  23105953.359    23105943.0004
        41.500          25.8004
 127872076.026 5  99640524.15842  24333249.398    24333235.8164
        35.500          15.6004
 129084881.376 5                  24564035.923
        32.900
 16  2  1 12  3 16.0000000  0 10G26G20G02G29G13G05G21G25G18G16
 119819889.148 7  93366115.90044  22800967.727    22800957.2514
        42.600          29.4004
 108099910.010 8  84233652.31046  20570726.641    20570713.7034
        48.000          38.9004
 127189078.034 6  99108322.02143  24203276.084    24203260.3924
        37.300          20.1004
 105286003.197 8  82041010.18247  20035257.417    20035245.1824
        50.600          44.8004
 130572304.961 5                  24847082.309
        32.200
 113790260.594 7  88667699.31746  21653564.502    21653551.7404
        46.800          37.8004
 119159837.432 7  92851758.98944  22675360.528    22675347.1214
        43.200          29.4004
 121426159.909 6  94617754.91644  23106629.381    23106619.1394
        41.500          25.8004
 127868634.469 5  99637842.41242  24332593.921    24332580.6904
        34.900          15.6004
 129081725.033 5                  24563436.101
        32.800
 16  2  1 12  3 17.0000000  0 10G26G20G02G29G13G05G21G25G18G16
 119818048.537 7  93364681.64944  22800616.613    22800607.1924
        42.500          28.7004
 108098318.692 8  84232412.32046  20570423.962    20570410.7314
        48.200          38.8004
 127191960.429 6  99110568.04343  24203824.001    24203808.7194
        37.700          20.1004
 105286166.434 8  82041137.38147  20035288.688    20035276.1614
        51.000          44.8004
 130569387.349 5                  24846527.152
        32.000
 113792126.390 7  88669153.18446  21653919.311    21653906.7254
        47.500          37.7004
 119157772.568 7  92850150.00845  22674967.824    22674954.4764
        43.600          30.0004
 121429711.650 7  94620522.50344  23107305.679    23107294.7344
        42.100          24.8004
 127865192.889 5  99635160.64842  24331939.260    24331925.7364
        35.500          15.6004
 129078568.902 5                  24562834.922
        33.100
 16  2  1 12  3 18.0000000  0 10G26G20G02G29G13G05G21G25G18G16
 119816208.519 7  93363247.87344  22800267.061    22800256.6434
        42.700          29.6004
 108096727.994 8  84231172.81346  20570121.767    20570108.3024
        48.100          38.7004
 127194842.901 6  99112814.12243  24204373.727    24204357.0974
        38.200          20.4004
 105286330.149 8  82041264.94547  20035319.821    20035307.3524
        50.800          44.8004
 130566469.947 5                  24845973.504
        32.200
 113793992.754 7  88670607.50046  21654274.788    21654262.0264
        47.500          37.4004
 119155707.921 7  92848541.18945  22674574.697    22674561.0564
        43.600          30.2004
 121433263.628 7  94623290.28444  23107982.207    23107970.6174
        42.600          25.6004
 127861751.413 6  99632478.97642  24331284.110    24331271.1724
        36.200          15.6004
 129075413.062 5                  24562234.374
        32.800
 16  2  1 12  3 19.0000000  0 10G26G20G02G29G13G05G21G25G18G16
 119814369.022 7  93361814.50644  22799916.340    22799906.9774
        42.600          29.4004
 108095137.824 8  84229933.72746  20569818.482    20569805.3684
        48.300          38.8004
 127197725.354 6  99115060.20143  24204921.717    24204905.6144
        37.700          20.1004
 105286494.316 8  82041392.86747  20035350.812    20035338.1674
        50.500          44.9004
 130563552.647 5                  24845418.885
        31.500
 113795859.648 7  88672062.21646  21654629.774    21654616.6614
        47.300          37.7004
 119153643.425 7  92846932.49444  22674181.876    22674168.4114
        43.400          29.6004
 121436815.787 6  94626058.19744  23108658.057    23108646.4674
        41.800          26.0004
 127858309.971 5  99629797.29242  24330628.843    24330616.5504
        35.400          15.6004
 129072257.576 5                  24561634.278
        32.900

